% program   : GINav v0.1.0
% obs start : 2019/03/28 03:28:10.0
% obs end   : 2019/03/28 03:59:01.0
% mode      : SPP/INS TC
% system    : BDS 
% nfreqs    : 1
% elev mask : 15.0 deg
% ephemeris : broadcast
% ionos opt : broadcast model
% trops opt : Saastamoinen model
%
%  GPST              x-ecef(m)      y-ecef(m)      z-ecef(m)   Q  ns   sdx(m)   sdy(m)   sdz(m)  sdxy(m)  sdyz(m)  sdzx(m) age(s)  ratio    vx(m/s)    vy(m/s)    vz(m/s)      sdvx     sdvy     sdvz    sdvxy    sdvyz    sdvzx pitch(deg)  roll(deg)   yaw(deg)       sdp      sdr      sdy     sdpr     sdry     sdyp
2046 358097.000  -2408688.9339   4698106.1722   3566695.9182   3   0  25.9956  29.0087  29.8845 -10.7365   1.3056  -0.9348   0.00    0.0    1.47475    0.90870   -0.17606  10.00000 10.00000 10.00000 -0.00000 -0.00000  0.00000    0.00000    0.00000  262.67634   0.30000  0.30000  0.50000  0.00000  0.00000  0.00000
2046 358098.000  -2408687.3997   4698107.5062   3566695.9322   5  11   0.4914   0.9523   0.5588  -0.5683  -0.3272  -0.1464   0.00    0.0    1.73675    1.04610   -0.37340   0.05469  0.09863  0.04959 -0.06061  0.01660 -0.03108   -0.19200    0.03524  259.24543   0.30002  0.30002  0.50001  0.00002  0.00001 -0.00311
2046 358099.000  -2408685.5957   4698108.4468   3566695.3056   5  10   0.4075   0.7149   0.4073  -0.4608  -0.1745  -0.1772   0.00    0.0    1.68543    1.06914   -0.39761   0.04761  0.07438  0.04337 -0.04607  0.01211 -0.02742   -0.64244   -2.35799  259.01507   0.26122  0.24348  0.50000 -0.07102  0.03016  0.01315
2046 358100.000  -2408683.6394   4698109.5406   3566694.9005   5  10   0.3586   0.6035   0.3389  -0.4018  -0.1070  -0.1705   0.00    0.0    2.00386    1.30129   -0.36801   0.04597  0.06967  0.04333 -0.04306  0.00933 -0.02780    0.21562    1.52666  259.80464   0.23373  0.22069  0.49979 -0.05203  0.01866 -0.03604
2046 358101.000  -2408681.5301   4698110.8050   3566694.4889   5  10   0.3254   0.5349   0.2981  -0.3626  -0.0645  -0.1615   0.00    0.0    2.14226    1.29480   -0.25164   0.04456  0.06869  0.04150 -0.04312  0.01276 -0.02765    0.36799    0.85231  262.65578   0.22111  0.21307  0.49969 -0.03609  0.03146 -0.04095
2046 358102.000  -2408679.3374   4698112.0578   3566694.2484   5  10   0.3011   0.4875   0.2705  -0.3341  -0.0275  -0.1535   0.00    0.0    2.25071    1.22289   -0.08798   0.04294  0.06724  0.03920 -0.04273  0.01484 -0.02690    0.35908    0.47092  267.83527   0.21470  0.20991  0.49947 -0.02513  0.03762 -0.03832
2046 358103.000  -2408677.0279   4698113.2934   3566694.1896   5  10   0.2825   0.4525   0.2506  -0.3123   0.0321  -0.1468   0.00    0.0    2.38149    1.18699    0.05903   0.04118  0.06504  0.03704 -0.04154  0.01545 -0.02584    0.30591    0.50971  272.55921   0.20953  0.20746  0.49925 -0.00921  0.03967 -0.03135
2046 358104.000  -2408674.5053   4698114.4443   3566694.3149   5  10   0.2679   0.4255   0.2356  -0.2950   0.0451  -0.1413   0.00    0.0    2.58241    1.17390    0.23549   0.03949  0.06248  0.03527 -0.03987  0.01521 -0.02466   -0.00021    0.94772  276.65321   0.20259  0.20403  0.49918  0.02558  0.04108 -0.02411
2046 358105.000  -2408671.8230   4698115.6110   3566694.5915   5  10   0.2561   0.4040   0.2240  -0.2809   0.0512  -0.1368   0.00    0.0    2.71375    1.14135    0.35170   0.03796  0.05990  0.03381 -0.03807  0.01441 -0.02341   -0.16025    1.09759  279.51611   0.19310  0.19914  0.49921  0.04050  0.04058 -0.01985
2046 358106.000  -2408668.9866   4698116.7896   3566695.0597   5  10   0.2464   0.3866   0.2148  -0.2693   0.0545  -0.1330   0.00    0.0    2.91055    1.14725    0.43203   0.03663  0.05743  0.03269 -0.03631  0.01325 -0.02224    0.09477    1.45796  281.99120   0.18146  0.19254  0.49918  0.05251  0.04267 -0.03096
2046 358107.000  -2408666.0225   4698117.9719   3566695.6125   5  10   0.2384   0.3723   0.2074  -0.2595   0.0563  -0.1299   0.00    0.0    2.96665    1.13599    0.58434   0.03541  0.05519  0.03169 -0.03468  0.01182 -0.02118    0.09479    1.41419  283.51234   0.16898  0.18492  0.49918  0.06071  0.04114 -0.03645
2046 358108.000  -2408663.0218   4698119.1306   3566696.1881   5  10   0.2316   0.3603   0.2014  -0.2512   0.0574  -0.1273   0.00    0.0    2.96570    1.18038    0.60272   0.03420  0.05311  0.03078 -0.03317  0.01044 -0.02025    0.24508    1.66086  283.77899   0.15710  0.17695  0.49889  0.06589  0.03668 -0.04807
2046 358109.000  -2408660.0107   4698120.2524   3566696.7550   5  10   0.2259   0.3502   0.1965  -0.2441   0.0580  -0.1251   0.00    0.0    2.98387    1.18366    0.61634   0.03298  0.05114  0.02985 -0.03182  0.00935 -0.01946    0.08207    1.50693  284.15011   0.14701  0.16936  0.49840  0.06883  0.03001 -0.05873
2046 358110.000  -2408656.9539   4698121.3500   3566697.3513   5  10   0.2210   0.3416   0.1924  -0.2380   0.0582  -0.1233   0.00    0.0    3.04354    1.09322    0.65205   0.03184  0.04933  0.02896 -0.03062  0.00833 -0.01874   -0.08533    1.68698  285.13209   0.13861  0.16226  0.49811  0.07034  0.01931 -0.06456
2046 358111.000  -2408653.8811   4698122.4245   3566697.9893   5  10   0.2169   0.3342   0.1891  -0.2326   0.0583  -0.1218   0.00    0.0    3.08274    1.15041    0.57738   0.03077  0.04764  0.02812 -0.02947  0.00750 -0.01809   -0.00903    1.57396  284.27396   0.13171  0.15582  0.49716  0.07084 -0.00359 -0.07413
2046 358112.000  -2408650.7807   4698123.5760   3566698.5366   5  10   0.2148   0.3279   0.1881  -0.2284   0.0599  -0.1232   0.00    0.0    3.11616    1.17226    0.62454   0.03100  0.04601  0.02856 -0.02867  0.00773 -0.01960   -0.11378    1.53142  283.60631   0.12718  0.15137  0.49669  0.07231 -0.01165 -0.07918
2046 358113.000  -2408647.6160   4698124.7003   3566699.1286   5  10   0.2115   0.3225   0.1855  -0.2242   0.0593  -0.1217   0.00    0.0    3.13849    1.19581    0.56623   0.02962  0.04451  0.02725 -0.02775  0.00740 -0.01840    0.00847    1.62789  283.17369   0.12289  0.14646  0.49559  0.07102 -0.02421 -0.08597
2046 358114.000  -2408644.4980   4698125.9287   3566699.6341   5  10   0.2086   0.3177   0.1834  -0.2206   0.0588  -0.1204   0.00    0.0    3.11635    1.19683    0.58105   0.02842  0.04308  0.02612 -0.02694  0.00720 -0.01747    0.10061    1.31964  282.74310   0.11992  0.14276  0.49487  0.07005 -0.03269 -0.09010
2046 358115.000  -2408641.3553   4698127.1015   3566700.2105   5  10   0.2060   0.3136   0.1816  -0.2173   0.0583  -0.1193   0.00    0.0    3.14010    1.12548    0.64781   0.02745  0.04177  0.02523 -0.02617  0.00680 -0.01669    0.06447    1.48427  284.44739   0.11771  0.13979  0.49462  0.06918 -0.03907 -0.09181
2046 358116.000  -2408638.1945   4698128.2279   3566700.8243   5  10   0.2038   0.3099   0.1801  -0.2145   0.0579  -0.1184   0.00    0.0    3.20780    1.10332    0.72257   0.02669  0.04061  0.02459 -0.02537  0.00604 -0.01604   -0.01767    1.39598  285.56572   0.11578  0.13711  0.49458  0.06820 -0.04292 -0.09226
2046 358117.000  -2408634.9465   4698129.3779   3566701.4635   5  10   0.2019   0.3067   0.1788  -0.2120   0.0575  -0.1176   0.00    0.0    3.24160    1.12888    0.68178   0.02600  0.03956  0.02403 -0.02459  0.00516 -0.01545   -0.19104    1.92085  285.00151   0.11418  0.13470  0.49452  0.06719 -0.04620 -0.09322
2046 358118.000  -2408631.7575   4698130.5552   3566702.1005   5   9   0.2043   0.3040   0.1825  -0.2103   0.0593  -0.1239   0.00    0.0    3.23088    1.15491    0.69505   0.02623  0.03856  0.02441 -0.02392  0.00468 -0.01638   -0.21300    1.78435  284.58359   0.11322  0.13320  0.49451  0.06686 -0.04841 -0.09380
2046 358119.000  -2408628.5760   4698131.7054   3566702.7310   5   9   0.2075   0.3018   0.1867  -0.2095   0.0627  -0.1308   0.00    0.0    3.22343    1.13183    0.67840   0.02642  0.03763  0.02472 -0.02335  0.00439 -0.01710   -0.02286    1.78268  285.02734   0.11250  0.13187  0.49446  0.06631 -0.05083 -0.09431
2046 358120.000  -2408625.3816   4698132.8274   3566703.4206   5   9   0.2110   0.3000   0.1910  -0.2091   0.0664  -0.1376   0.00    0.0    3.21276    1.09083    0.75308   0.02658  0.03678  0.02500 -0.02281  0.00386 -0.01766   -0.11641    1.59769  285.66163   0.11190  0.13063  0.49437  0.06561 -0.05324 -0.09419
2046 358121.000  -2408622.1918   4698133.9580   3566704.1442   5   9   0.2145   0.2986   0.1952  -0.2090   0.0700  -0.1439   0.00    0.0    3.24814    1.09768    0.69309   0.02664  0.03600  0.02519 -0.02228  0.00324 -0.01804   -0.21076    1.65365  285.54580   0.11150  0.12949  0.49434  0.06486 -0.05534 -0.09455
2046 358122.000  -2408619.0227   4698135.1542   3566704.8404   5   9   0.2179   0.2973   0.1992  -0.2089   0.0733  -0.1498   0.00    0.0    3.22568    1.11172    0.79121   0.02665  0.03528  0.02528 -0.02178  0.00235 -0.01828   -0.27601    1.60055  285.69472   0.11121  0.12843  0.49426  0.06407 -0.05697 -0.09438
2046 358123.000  -2408615.7526   4698136.2789   3566705.5705   5   9   0.2210   0.2963   0.2029  -0.2090   0.0762  -0.1551   0.00    0.0    3.27095    1.15099    0.72845   0.02657  0.03458  0.02530 -0.02129  0.00124 -0.01840   -0.26534    1.61012  285.05785   0.11112  0.12752  0.49427  0.06338 -0.05856 -0.09468
2046 358124.000  -2408612.4898   4698137.5144   3566706.1913   5   9   0.2239   0.2955   0.2063  -0.2092   0.0789  -0.1598   0.00    0.0    3.27287    1.21252    0.69518   0.02645  0.03390  0.02521 -0.02084 -0.00099 -0.01840   -0.29919    1.63264  283.46711   0.11122  0.12680  0.49422  0.06289 -0.06028 -0.09502
2046 358125.000  -2408609.2514   4698138.7715   3566706.8164   5   9   0.2266   0.2948   0.2094  -0.2094   0.0813  -0.1641   0.00    0.0    3.26830    1.20380    0.63883   0.02628  0.03324  0.02508 -0.02041 -0.00177 -0.01830   -0.30824    1.47204  282.61656   0.11145  0.12629  0.49408  0.06271 -0.06221 -0.09515
2046 358126.000  -2408606.0575   4698140.0202   3566707.4026   5   9   0.2290   0.2942   0.2122  -0.2096   0.0835  -0.1678   0.00    0.0    3.20062    1.17416    0.61147   0.02611  0.03265  0.02499 -0.01995 -0.00285 -0.01815   -0.16718    1.58222  282.51179   0.11171  0.12588  0.49389  0.06283 -0.06403 -0.09499
2046 358127.000  -2408602.9084   4698141.2699   3566707.9713   5   9   0.2311   0.2937   0.2147  -0.2099   0.0855  -0.1711   0.00    0.0    3.18929    1.13869    0.71499   0.02591  0.03211  0.02492 -0.01949 -0.00385 -0.01795   -0.17102    1.28219  283.82407   0.11192  0.12545  0.49373  0.06315 -0.06435 -0.09486
2046 358128.000  -2408599.7055   4698142.4332   3566708.6212   5   9   0.2331   0.2933   0.2169  -0.2102   0.0874  -0.1740   0.00    0.0    3.18814    1.09354    0.73746   0.02568  0.03164  0.02487 -0.01901 -0.00488 -0.01779   -0.27963    1.41288  284.98352   0.11208  0.12502  0.49348  0.06354 -0.06404 -0.09478
2046 358129.000  -2408596.3921   4698143.5877   3566709.2209   5   9   0.2348   0.2929   0.2188  -0.2104   0.0890  -0.1766   0.00    0.0    3.26280    1.10211    0.77834   0.02544  0.03120  0.02478 -0.01853 -0.00575 -0.01764   -0.23339    1.56227  285.20097   0.11223  0.12459  0.49331  0.06394 -0.06328 -0.09479
2046 358130.000  -2408593.1302   4698144.7604   3566709.8981   5   9   0.2363   0.2926   0.2205  -0.2107   0.0906  -0.1789   0.00    0.0    3.25420    1.13633    0.74508   0.02519  0.03077  0.02471 -0.01804 -0.00656 -0.01749   -0.10687    1.44797  284.90936   0.11235  0.12418  0.49330  0.06437 -0.06303 -0.09466
2046 358131.000  -2408589.8585   4698145.9099   3566710.5539   5   9   0.2377   0.2923   0.2221  -0.2110   0.0919  -0.1809   0.00    0.0    3.25551    1.09521    0.79064   0.02493  0.03037  0.02462 -0.01757 -0.00724 -0.01730   -0.25124    1.55921  285.20479   0.11245  0.12376  0.49317  0.06479 -0.06211 -0.09465
2046 358132.000  -2408586.5963   4698147.1067   3566711.2986   5   9   0.2389   0.2921   0.2234  -0.2113   0.0932  -0.1826   0.00    0.0    3.24656    1.09098    0.76960   0.02465  0.02998  0.02454 -0.01710 -0.00787 -0.01714   -0.18778    1.58120  285.22248   0.11251  0.12338  0.49313  0.06519 -0.06148 -0.09451
2046 358133.000  -2408583.3009   4698148.2610   3566711.9742   5   9   0.2400   0.2919   0.2246  -0.2115   0.0944  -0.1841   0.00    0.0    3.27932    1.08394    0.73478   0.02439  0.02960  0.02444 -0.01665 -0.00841 -0.01697   -0.22403    1.68950  285.01332   0.11253  0.12302  0.49320  0.06560 -0.06119 -0.09434
2046 358134.000  -2408580.0253   4698149.4648   3566712.6378   5   9   0.2409   0.2917   0.2256  -0.2118   0.0954  -0.1855   0.00    0.0    3.25507    1.12857    0.76686   0.02414  0.02925  0.02436 -0.01619 -0.00893 -0.01680   -0.28356    1.72087  284.53382   0.11250  0.12263  0.49328  0.06597 -0.06082 -0.09415
2046 358135.000  -2408576.7557   4698150.6800   3566713.2790   5   9   0.2417   0.2915   0.2265  -0.2120   0.0963  -0.1867   0.00    0.0    3.31895    1.19204    0.71475   0.02392  0.02889  0.02428 -0.01574 -0.00941 -0.01664   -0.18449    1.56477  283.86131   0.11239  0.12226  0.49340  0.06637 -0.06143 -0.09383
2046 358136.000  -2408573.3973   4698152.0230   3566713.9063   5   9   0.2425   0.2913   0.2273  -0.2122   0.0972  -0.1877   0.00    0.0    3.38741    1.20563    0.70907   0.02369  0.02857  0.02420 -0.01529 -0.00986 -0.01646   -0.19839    1.53787  283.52487   0.11217  0.12189  0.49351  0.06675 -0.06212 -0.09361
2046 358137.000  -2408569.9818   4698153.3251   3566714.5207   5   9   0.2431   0.2912   0.2280  -0.2124   0.0980  -0.1886   0.00    0.0    3.41621    1.22569    0.70834   0.02347  0.02827  0.02414 -0.01484 -0.01031 -0.01629   -0.28509    1.44069  283.32886   0.11184  0.12147  0.49362  0.06709 -0.06290 -0.09343
2046 358138.000  -2408566.6221   4698154.6659   3566715.1035   5   9   0.2437   0.2910   0.2286  -0.2125   0.0987  -0.1894   0.00    0.0    3.27274    1.23620    0.62907   0.02327  0.02797  0.02414 -0.01434 -0.01071 -0.01617   -0.12841    1.31384  282.45079   0.11135  0.12094  0.49368  0.06735 -0.06352 -0.09262
2046 358139.000  -2408563.4107   4698155.9946   3566715.5964   5   9   0.2442   0.2909   0.2291  -0.2127   0.0993  -0.1901   0.00    0.0    3.17246    1.24324    0.52228   0.02314  0.02771  0.02420 -0.01380 -0.01119 -0.01608   -0.08203    1.27747  280.74583   0.11060  0.12028  0.49353  0.06751 -0.06417 -0.09102
2046 358140.000  -2408560.2512   4698157.3967   3566716.0390   5   9   0.2446   0.2907   0.2295  -0.2128   0.0998  -0.1907   0.00    0.0    3.11682    1.28273    0.48043   0.02303  0.02752  0.02430 -0.01322 -0.01176 -0.01597    0.04438    0.91909  279.88128   0.10953  0.11938  0.49326  0.06756 -0.06472 -0.08886
2046 358141.000  -2408557.0642   4698158.7734   3566716.3993   5   9   0.2450   0.2905   0.2299  -0.2129   0.1003  -0.1912   0.00    0.0    3.22747    1.29281    0.49520   0.02287  0.02737  0.02430 -0.01271 -0.01225 -0.01577    0.03363    1.13673  280.04386   0.10817  0.11834  0.49321  0.06748 -0.06553 -0.08722
2046 358142.000  -2408553.9390   4698160.2046   3566716.9692   5  10   0.2416   0.2902   0.2263  -0.2120   0.0988  -0.1869   0.00    0.0    3.29450    1.23064    0.69563   0.02176  0.02714  0.02324 -0.01279 -0.01201 -0.01417   -0.18435    1.20497  283.11646   0.10619  0.11717  0.49330  0.06694 -0.06501 -0.08783
2046 358143.000  -2408550.7153   4698161.4621   3566717.7662   5  10   0.2344   0.2898   0.2184  -0.2105   0.0958  -0.1774   0.00    0.0    3.26010    1.07357    0.85210   0.02071  0.02674  0.02211 -0.01278 -0.01157 -0.01268   -0.24934    1.35941  286.76664   0.10496  0.11625  0.49221  0.06651 -0.06247 -0.08960
2046 358144.000  -2408547.6154   4698162.5657   3566718.7406   5  10   0.2264   0.2891   0.2098  -0.2084   0.0916  -0.1668   0.00    0.0    3.19245    0.94209    0.95147   0.01981  0.02623  0.02109 -0.01272 -0.01116 -0.01142   -0.02399    1.37835  289.81351   0.10440  0.11571  0.48995  0.06622 -0.05901 -0.09061
2046 358145.000  -2408544.3482   4698163.6222   3566719.5806   5  10   0.2199   0.2882   0.2030  -0.2063   0.0875  -0.1581   0.00    0.0    3.22577    1.05406    1.02956   0.01912  0.02581  0.02034 -0.01255 -0.01107 -0.01061   -0.13038    1.49605  289.42344   0.10416  0.11540  0.48828  0.06604 -0.05635 -0.09078
2046 358146.000  -2408541.1740   4698164.7704   3566720.5366   5  10   0.2146   0.2875   0.1977  -0.2045   0.0834  -0.1510   0.00    0.0    3.23032    1.06826    0.88866   0.01855  0.02538  0.01986 -0.01234 -0.01108 -0.00999   -0.11239    1.31410  288.37302   0.10405  0.11525  0.48795  0.06595 -0.05526 -0.09059
2046 358147.000  -2408537.9747   4698165.9748   3566721.3981   5  10   0.2103   0.2868   0.1935  -0.2028   0.0798  -0.1451   0.00    0.0    3.23129    1.12054    0.85228   0.01818  0.02503  0.01953 -0.01204 -0.01118 -0.00948   -0.00689    1.27208  287.10915   0.10398  0.11513  0.48797  0.06589 -0.05471 -0.09043
2046 358148.000  -2408534.8454   4698167.2359   3566722.2563   5  11   0.1955   0.2812   0.1851  -0.1923   0.0595  -0.1294   0.00    0.0    3.23818    1.15140    0.80976   0.01732  0.02453  0.01911 -0.01121 -0.01161 -0.00838    0.15005    1.30256  286.28413   0.10394  0.11503  0.48811  0.06587 -0.05458 -0.09046
2046 358149.000  -2408531.7037   4698168.5178   3566723.1031   5  11   0.1851   0.2764   0.1793  -0.1844   0.0413  -0.1182   0.00    0.0    3.17919    1.21968    0.70659   0.01693  0.02404  0.01888 -0.01057 -0.01181 -0.00783   -0.11836    1.09924  285.81054   0.10390  0.11496  0.48812  0.06587 -0.05520 -0.09059
2046 358150.000  -2408528.5179   4698169.7175   3566723.8089   5  10   0.1840   0.2756   0.1778  -0.1837   0.0393  -0.1162   0.00    0.0    3.14044    1.17403    0.78547   0.01685  0.02373  0.01876 -0.01031 -0.01183 -0.00776    0.06306    1.57930  285.34390   0.10387  0.11488  0.48832  0.06586 -0.05531 -0.09052
2046 358151.000  -2408525.3171   4698170.9488   3566724.5522   5  10   0.1836   0.2754   0.1766  -0.1838   0.0390  -0.1148   0.00    0.0    3.23693    1.20568    0.70504   0.01681  0.02343  0.01868 -0.01011 -0.01185 -0.00767   -0.06825    1.63234  284.97823   0.10386  0.11484  0.48825  0.06589 -0.05589 -0.09072
2046 358152.000  -2408522.0059   4698172.1663   3566725.2346   5  10   0.1834   0.2750   0.1755  -0.1840   0.0403  -0.1139   0.00    0.0    3.30558    1.26825    0.75104   0.01676  0.02318  0.01863 -0.00991 -0.01190 -0.00757   -0.02953    1.88035  284.46777   0.10385  0.11480  0.48802  0.06592 -0.05659 -0.09108
2046 358153.000  -2408518.7762   4698173.4885   3566725.8433   5  10   0.1833   0.2751   0.1747  -0.1843   0.0402  -0.1131   0.00    0.0    3.14098    1.23896    0.67521   0.01671  0.02292  0.01854 -0.00965 -0.01186 -0.00757   -0.14424    1.61079  283.95539   0.10376  0.11472  0.48801  0.06589 -0.05733 -0.09092
2046 358154.000  -2408515.5991   4698174.6592   3566726.4856   5  10   0.1833   0.2751   0.1740  -0.1845   0.0403  -0.1124   0.00    0.0    3.17589    1.20683    0.68390   0.01664  0.02270  0.01848 -0.00945 -0.01189 -0.00749   -0.26550    1.58058  284.43852   0.10363  0.11463  0.48807  0.06585 -0.05802 -0.09084
2046 358155.000  -2408512.4710   4698175.9190   3566727.1099   5  11   0.1789   0.2734   0.1719  -0.1812   0.0283  -0.1074   0.00    0.0    3.15408    1.21333    0.70451   0.01626  0.02246  0.01833 -0.00904 -0.01203 -0.00698   -0.26587    1.47428  284.23077   0.10345  0.11451  0.48820  0.06578 -0.05861 -0.09076
2046 358156.000  -2408509.3741   4698177.2046   3566727.7684   5  11   0.1720   0.2702   0.1690  -0.1757  -0.0206  -0.1001   0.00    0.0    3.16324    1.26771    0.62011   0.01592  0.02216  0.01821 -0.00852 -0.01220 -0.00640   -0.27346    1.33118  283.04635   0.10318  0.11436  0.48797  0.06568 -0.05977 -0.09037
2046 358157.000  -2408506.1881   4698178.4786   3566728.2644   5  10   0.1725   0.2701   0.1690  -0.1757  -0.0223  -0.1003   0.00    0.0    3.25827    1.35149    0.58165   0.01604  0.02199  0.01830 -0.00830 -0.01234 -0.00639   -0.41000    0.95645  282.01897   0.10283  0.11415  0.48724  0.06556 -0.06167 -0.08997
2046 358158.000  -2408502.7849   4698179.8542   3566728.7877   5  10   0.1732   0.2699   0.1690  -0.1761  -0.0197  -0.1009   0.00    0.0    3.38552    1.46151    0.40142   0.01636  0.02182  0.01847 -0.00805 -0.01249 -0.00628   -0.35712    1.02783  279.58922   0.10218  0.11384  0.48453  0.06533 -0.06475 -0.08830
2046 358159.000  -2408499.3228   4698181.4618   3566729.0825   5  10   0.1741   0.2698   0.1690  -0.1767  -0.0150  -0.1015   0.00    0.0    3.49776    1.74394    0.25347   0.01695  0.02183  0.01892 -0.00766 -0.01294 -0.00598   -0.35734    0.96533  275.20076   0.10090  0.11316  0.47831  0.06485 -0.07002 -0.08425
2046 358160.000  -2408495.6434   4698183.3516   3566729.1233   5  10   0.1749   0.2699   0.1690  -0.1773  -0.0088  -0.1022   0.00    0.0    3.58999    2.02827   -0.15607   0.01817  0.02204  0.01972 -0.00658 -0.01369 -0.00584   -0.16982    0.34744  269.67013   0.09831  0.11170  0.46490  0.06364 -0.07711 -0.07332
2046 358161.000  -2408492.1205   4698185.5318   3566728.6040   5  10   0.1757   0.2704   0.1690  -0.1778   0.0049  -0.1027   0.00    0.0    3.34618    2.42193   -0.68724   0.01999  0.02290  0.02140 -0.00194 -0.01537 -0.00696    0.28359    0.44108  259.23612   0.09374  0.10811  0.44547  0.06077 -0.08494 -0.04939
2046 358162.000  -2408488.9685   4698188.1963   3566727.4846   5  11   0.1696   0.2675   0.1667  -0.1729  -0.0310  -0.0964   0.00    0.0    3.02233    2.71751   -1.31869   0.02087  0.02426  0.02411  0.00592 -0.01815 -0.00758    0.67626    0.04724  248.96540   0.08563  0.10042  0.42356  0.05473 -0.09007  0.04397
2046 358163.000  -2408486.1258   4698190.9543   3566725.9045   5  11   0.1645   0.2647   0.1648  -0.1684  -0.0426  -0.0911   0.00    0.0    2.65217    2.79921   -1.71558   0.02094  0.02549  0.02678  0.00708 -0.02068 -0.00722    0.39759    0.04566  242.11215   0.07634  0.08851  0.41336  0.04668 -0.08956  0.07283
2046 358164.000  -2408483.6455   4698193.7825   3566724.0659   5  11   0.1601   0.2620   0.1633  -0.1644  -0.0498  -0.0866   0.00    0.0    2.29619    2.79265   -1.92860   0.02078  0.02608  0.02827  0.00718 -0.02202 -0.00586    0.42042    0.05652  236.62232   0.06709  0.07493  0.41026  0.03874 -0.08227  0.08516
2046 358165.000  -2408481.4597   4698196.5213   3566722.0214   5  11   0.1565   0.2596   0.1620  -0.1609  -0.0553  -0.0829   0.00    0.0    2.06545    2.80247   -2.10375   0.02057  0.02618  0.02851  0.00714 -0.02235 -0.00442    0.91336   -0.24579  232.72655   0.05861  0.06267  0.40883  0.03204 -0.07311  0.08936
2046 358166.000  -2408479.4593   4698199.3903   3566719.7828   5  10   0.1582   0.2592   0.1626  -0.1614  -0.0535  -0.0849   0.00    0.0    1.85170    2.82273   -2.26492   0.02070  0.02604  0.02828  0.00751 -0.02223 -0.00508    0.26658    0.64673  228.67203   0.05172  0.05273  0.40681  0.02691 -0.06357  0.08914
2046 358167.000  -2408477.7894   4698202.1088   3566717.5017   5  10   0.1601   0.2592   0.1631  -0.1624  -0.0511  -0.0871   0.00    0.0    1.53511    2.71819   -2.36260   0.02060  0.02568  0.02781  0.00761 -0.02182 -0.00557    0.30931    0.83366  224.62425   0.04566  0.04489  0.40307  0.02301 -0.05314  0.08655
2046 358168.000  -2408476.3585   4698204.7739   3566715.1005   5  10   0.1620   0.2594   0.1637  -0.1636  -0.0485  -0.0891   0.00    0.0    1.31137    2.72984   -2.47324   0.02029  0.02526  0.02716  0.00748 -0.02130 -0.00606    0.30329    0.67354  221.30888   0.04054  0.03888  0.39943  0.01978 -0.04499  0.08310
2046 358169.000  -2408475.0166   4698207.4614   3566712.6572   5  10   0.1638   0.2598   0.1642  -0.1647  -0.0461  -0.0910   0.00    0.0    1.24458    2.69454   -2.51895   0.01991  0.02487  0.02634  0.00730 -0.02071 -0.00644    0.54024    0.51854  220.17919   0.03621  0.03435  0.39524  0.01713 -0.03904  0.07861
2046 358170.000  -2408473.7335   4698210.1134   3566710.1851   5  10   0.1654   0.2601   0.1647  -0.1658  -0.0436  -0.0927   0.00    0.0    1.27289    2.65075   -2.44373   0.01954  0.02456  0.02547  0.00727 -0.02014 -0.00678    0.45149    0.62082  220.18433   0.03251  0.03096  0.38925  0.01499 -0.03459  0.07279
2046 358171.000  -2408472.4586   4698212.8077   3566707.7991   5  11   0.1610   0.2584   0.1632  -0.1624  -0.0505  -0.0881   0.00    0.0    1.38044    2.67449   -2.37997   0.01861  0.02417  0.02444  0.00683 -0.01952 -0.00627    0.49095    0.25134  221.85767   0.02926  0.02846  0.38205  0.01315 -0.03229  0.06607
2046 358172.000  -2408471.0305   4698215.5171   3566705.4676   5  11   0.1572   0.2565   0.1620  -0.1591  -0.0559  -0.0842   0.00    0.0    1.50457    2.71727   -2.38300   0.01776  0.02370  0.02349  0.00633 -0.01890 -0.00603    0.42716    0.52249  223.53609   0.02683  0.02665  0.37541  0.01155 -0.03184  0.05998
2046 358173.000  -2408469.5390   4698218.2702   3566703.0982   5  11   0.1540   0.2547   0.1610  -0.1562  -0.0601  -0.0808   0.00    0.0    1.45813    2.78373   -2.44411   0.01700  0.02306  0.02262  0.00561 -0.01818 -0.00563    0.24838    0.63440  222.64392   0.02507  0.02532  0.37022  0.01017 -0.03191  0.05512
2046 358174.000  -2408468.0651   4698221.0492   3566700.5877   5  10   0.1558   0.2545   0.1617  -0.1569  -0.0587  -0.0830   0.00    0.0    1.41227    2.78430   -2.46085   0.01680  0.02257  0.02197  0.00539 -0.01760 -0.00602    0.28855    0.60372  221.45019   0.02387  0.02433  0.36563  0.00900 -0.03171  0.05116
2046 358175.000  -2408466.6782   4698223.8384   3566698.0192   5  10   0.1578   0.2553   0.1624  -0.1577  -0.0566  -0.0852   0.00    0.0    1.33098    2.83626   -2.57299   0.01673  0.02228  0.02142  0.00557 -0.01709 -0.00624    0.43278    0.42772  220.29805   0.02310  0.02360  0.36272  0.00779 -0.03208  0.04849
2046 358176.000  -2408465.2886   4698226.6007   3566695.4302   5   9   0.1598   0.2579   0.1630  -0.1583  -0.0541  -0.0873   0.00    0.0    1.35483    2.83513   -2.55678   0.01676  0.02220  0.02093  0.00611 -0.01671 -0.00655    0.50771    0.63123  220.39931   0.02248  0.02305  0.35939  0.00672 -0.03222  0.04575
2046 358177.000  -2408463.8687   4698229.3866   3566692.8585   5  10   0.1616   0.2592   0.1636  -0.1597  -0.0515  -0.0892   0.00    0.0    1.34281    2.79864   -2.56804   0.01643  0.02176  0.02041  0.00543 -0.01620 -0.00654    0.39230    0.67547  220.28826   0.02192  0.02263  0.35514  0.00595 -0.03164  0.04256
2046 358178.000  -2408462.4974   4698232.1590   3566690.3147   5  10   0.1632   0.2595   0.1641  -0.1612  -0.0490  -0.0909   0.00    0.0    1.31692    2.80796   -2.55789   0.01612  0.02132  0.01996  0.00465 -0.01575 -0.00648    0.40992    0.80338  219.91544   0.02154  0.02234  0.35132  0.00519 -0.03104  0.03983
2046 358179.000  -2408461.0844   4698235.0427   3566687.6426   5  10   0.1647   0.2596   0.1646  -0.1626  -0.0468  -0.0925   0.00    0.0    1.37578    3.02236   -2.76534   0.01564  0.02088  0.01968  0.00306 -0.01541 -0.00623    0.38830    0.88339  219.24680   0.02131  0.02216  0.34903  0.00430 -0.03153  0.03776
2046 358180.000  -2408459.6027   4698238.1689   3566684.7292   5  10   0.1661   0.2597   0.1651  -0.1638  -0.0444  -0.0938   0.00    0.0    1.48769    3.14910   -2.92988   0.01537  0.02054  0.01944  0.00147 -0.01512 -0.00602    0.34039    0.91019  219.03149   0.02118  0.02208  0.34694  0.00326 -0.03245  0.03588
2046 358181.000  -2408458.0308   4698241.4002   3566681.6993   5  10   0.1673   0.2598   0.1654  -0.1648  -0.0422  -0.0951   0.00    0.0    1.54601    3.32058   -3.11527   0.01517  0.02018  0.01919 -0.00211 -0.01479 -0.00567    0.38694    0.98578  218.74037   0.02113  0.02207  0.34494  0.00180 -0.03363  0.03417
2046 358182.000  -2408456.4028   4698244.8545   3566678.3935   5  10   0.1683   0.2599   0.1658  -0.1658  -0.0400  -0.0962   0.00    0.0    1.65265    3.61846   -3.31566   0.01505  0.01990  0.01909 -0.00328 -0.01458 -0.00513    0.33178    0.95874  218.70022   0.02112  0.02212  0.34222 -0.00191 -0.03516  0.03227
2046 358183.000  -2408454.7329   4698248.4635   3566674.9572   5  10   0.1693   0.2601   0.1661  -0.1667  -0.0382  -0.0971   0.00    0.0    1.65978    3.61298   -3.34479   0.01494  0.01967  0.01872 -0.00316 -0.01426 -0.00534    0.29984    0.76527  218.66075   0.02116  0.02220  0.34009 -0.00311 -0.03610  0.03049
2046 358184.000  -2408453.0991   4698251.9334   3566671.6717   5  10   0.1701   0.2602   0.1663  -0.1675  -0.0361  -0.0980   0.00    0.0    1.64905    3.51803   -3.25620   0.01490  0.01950  0.01833 -0.00259 -0.01397 -0.00567    0.35831    0.65668  219.15543   0.02123  0.02227  0.33831 -0.00388 -0.03625  0.02894
2046 358185.000  -2408451.3704   4698255.4367   3566668.4098   5  10   0.1709   0.2604   0.1666  -0.1682  -0.0345  -0.0987   0.00    0.0    1.69697    3.47838   -3.21517   0.01489  0.01934  0.01806 -0.00220 -0.01374 -0.00577    0.21774    0.78477  219.69311   0.02132  0.02236  0.33646 -0.00448 -0.03591  0.02753
2046 358186.000  -2408449.6701   4698258.8397   3566665.2051   5  10   0.1715   0.2604   0.1668  -0.1689  -0.0326  -0.0994   0.00    0.0    1.70774    3.47608   -3.16635   0.01490  0.01919  0.01782 -0.00183 -0.01352 -0.00580    0.37563    0.93856  219.87706   0.02142  0.02244  0.33452 -0.00500 -0.03517  0.02632
2046 358187.000  -2408448.0045   4698262.1586   3566662.0372   5  10   0.1721   0.2605   0.1669  -0.1695  -0.0307  -0.1000   0.00    0.0    1.62564    3.38901   -3.17104   0.01489  0.01897  0.01754 -0.00176 -0.01322 -0.00566    0.36910    0.78274  219.45212   0.02152  0.02252  0.33282 -0.00548 -0.03409  0.02558
2046 358188.000  -2408446.3302   4698265.5345   3566658.8329   5  10   0.1726   0.2606   0.1670  -0.1700  -0.0290  -0.1005   0.00    0.0    1.58661    3.39910   -3.11140   0.01490  0.01883  0.01736 -0.00154 -0.01304 -0.00556    0.33045    0.79481  219.08811   0.02162  0.02260  0.33111 -0.00592 -0.03269  0.02514
2046 358189.000  -2408444.6978   4698268.8712   3566655.7011   5  10   0.1731   0.2607   0.1671  -0.1704  -0.0274  -0.1009   0.00    0.0    1.56591    3.34610   -3.09935   0.01489  0.01869  0.01721 -0.00149 -0.01288 -0.00544    0.41755    0.40040  219.38801   0.02171  0.02267  0.32951 -0.00633 -0.03107  0.02499
2046 358190.000  -2408443.1052   4698272.1728   3566652.6624   5  11   0.1677   0.2584   0.1652  -0.1662  -0.0396  -0.0954   0.00    0.0    1.63898    3.27855   -3.00404   0.01477  0.01863  0.01707  0.00138 -0.01289 -0.00514    0.25895    0.71390  220.13965   0.02180  0.02274  0.32753 -0.00669 -0.02900  0.02495
2046 358191.000  -2408441.4228   4698275.4740   3566649.6575   5  10   0.1682   0.2581   0.1654  -0.1663  -0.0389  -0.0961   0.00    0.0    1.69457    3.27437   -2.98170   0.01478  0.01855  0.01704  0.00163 -0.01285 -0.00515    0.32543    0.83320  220.74727   0.02186  0.02281  0.32579 -0.00702 -0.02686  0.02491
2046 358192.000  -2408439.7080   4698278.6865   3566646.7063   5  10   0.1689   0.2581   0.1656  -0.1667  -0.0375  -0.0968   0.00    0.0    1.69381    3.22842   -2.91423   0.01481  0.01845  0.01699  0.00173 -0.01278 -0.00512    0.42686    1.13517  220.90592   0.02192  0.02288  0.32408 -0.00733 -0.02433  0.02506
2046 358193.000  -2408437.9951   4698281.8964   3566643.7140   5  10   0.1695   0.2581   0.1657  -0.1672  -0.0359  -0.0975   0.00    0.0    1.59533    3.21925   -2.94226   0.01475  0.01829  0.01692  0.00094 -0.01264 -0.00489    0.35217    0.99236  219.87690   0.02195  0.02294  0.32300 -0.00760 -0.02184  0.02538
2046 358194.000  -2408436.4065   4698285.0844   3566640.7237   5  10   0.1702   0.2582   0.1659  -0.1677  -0.0343  -0.0981   0.00    0.0    1.64317    3.20821   -2.89672   0.01474  0.01825  0.01694  0.00099 -0.01266 -0.00491    0.32022    1.02365  220.43052   0.02197  0.02299  0.32202 -0.00784 -0.01904  0.02556
2046 358195.000  -2408434.7166   4698288.2477   3566637.8650   5  10   0.1708   0.2583   0.1660  -0.1682  -0.0328  -0.0987   0.00    0.0    1.63159    3.04560   -2.80262   0.01479  0.01820  0.01688  0.00138 -0.01261 -0.00486    0.55063    1.27508  221.19705   0.02198  0.02303  0.32087 -0.00804 -0.01531  0.02612
2046 358196.000  -2408433.0329   4698291.3822   3566634.9899   5  10   0.1713   0.2584   0.1661  -0.1686  -0.0314  -0.0992   0.00    0.0    1.71274    3.14429   -2.80880   0.01470  0.01816  0.01698  0.00082 -0.01268 -0.00484    0.23517    0.93597  222.05559   0.02196  0.02307  0.32018 -0.00821 -0.01127  0.02612
2046 358197.000  -2408431.2753   4698294.4684   3566632.0864   5  11   0.1656   0.2561   0.1640  -0.1643  -0.0426  -0.0933   0.00    0.0    1.72275    3.16122   -2.86698   0.01435  0.01806  0.01691  0.00021 -0.01269 -0.00412    0.19745    0.88400  221.14424   0.02192  0.02307  0.31980 -0.00835 -0.00585  0.02584
2046 358198.000  -2408429.6456   4698297.5969   3566629.1903   5  10   0.1662   0.2558   0.1643  -0.1644  -0.0419  -0.0941   0.00    0.0    1.57138    3.13238   -2.93243   0.01435  0.01795  0.01688 -0.00056 -0.01261 -0.00404    0.51869    0.81661  219.75311   0.02188  0.02309  0.31986 -0.00848  0.00523  0.02575
2046 358199.000  -2408428.1346   4698300.6924   3566626.2599   5  10   0.1669   0.2558   0.1645  -0.1648  -0.0407  -0.0948   0.00    0.0    1.54181    3.12318   -2.89836   0.01438  0.01791  0.01691 -0.00021 -0.01262 -0.00412    0.23410    0.91910  219.40579   0.02182  0.02310  0.31999 -0.00858  0.00927  0.02563
2046 358200.000  -2408426.6238   4698303.7234   3566623.3363   5  10   0.1677   0.2558   0.1647  -0.1653  -0.0393  -0.0956   0.00    0.0    1.52769    3.08096   -2.83350   0.01440  0.01788  0.01692  0.00057 -0.01264 -0.00420    0.34269    1.51079  219.50661   0.02177  0.02309  0.32013 -0.00865  0.01216  0.02556
2046 358201.000  -2408425.1037   4698306.7577   3566620.4783   5  10   0.1684   0.2559   0.1649  -0.1658  -0.0378  -0.0963   0.00    0.0    1.49454    3.08937   -2.87744   0.01440  0.01784  0.01693  0.00032 -0.01264 -0.00419    0.26537    1.74354  219.21350   0.02171  0.02307  0.32035 -0.00870  0.01385  0.02535
2046 358202.000  -2408423.5972   4698309.8419   3566617.5911   5  10   0.1690   0.2560   0.1651  -0.1662  -0.0365  -0.0970   0.00    0.0    1.51793    3.09597   -2.92285   0.01440  0.01780  0.01696  0.00016 -0.01264 -0.00419    0.36187    1.60768  219.31610   0.02165  0.02304  0.32054 -0.00874  0.01489  0.02489
2046 358203.000  -2408422.0555   4698312.9450   3566614.6547   5  10   0.1696   0.2561   0.1653  -0.1667  -0.0352  -0.0976   0.00    0.0    1.53340    3.12078   -2.90068   0.01441  0.01778  0.01698  0.00036 -0.01266 -0.00421    0.25055    1.55045  219.53631   0.02159  0.02299  0.32069 -0.00877  0.01572  0.02431
2046 358204.000  -2408420.4570   4698316.0947   3566611.7306   5  10   0.1702   0.2562   0.1654  -0.1671  -0.0339  -0.0981   0.00    0.0    1.64480    3.13210   -2.92098   0.01441  0.01776  0.01701 -0.00029 -0.01268 -0.00420    0.08613    1.65995  220.11052   0.02152  0.02295  0.32070 -0.00877  0.01637  0.02338
2046 358205.000  -2408418.8508   4698319.1941   3566608.8429   5  10   0.1706   0.2563   0.1656  -0.1674  -0.0328  -0.0986   0.00    0.0    1.59417    3.13737   -2.94072   0.01441  0.01773  0.01700  0.00053 -0.01267 -0.00419    0.25002    1.60196  219.96372   0.02145  0.02290  0.32072 -0.00877  0.01662  0.02248
2046 358206.000  -2408417.2818   4698322.3422   3566605.9176   5  10   0.1711   0.2565   0.1657  -0.1677  -0.0316  -0.0990   0.00    0.0    1.51541    3.13564   -2.93513   0.01441  0.01772  0.01698  0.00092 -0.01265 -0.00422    0.38005    1.41084  219.04149   0.02139  0.02284  0.32083 -0.00875  0.01666  0.02180
2046 358207.000  -2408415.8192   4698325.4521   3566602.9985   5  10   0.1715   0.2567   0.1658  -0.1680  -0.0303  -0.0994   0.00    0.0    1.46997    3.14329   -2.98938   0.01441  0.01770  0.01696  0.00116 -0.01263 -0.00422    0.33826    1.37757  217.99242   0.02133  0.02277  0.32085 -0.00872  0.01626  0.02110
2046 358208.000  -2408414.3731   4698328.5719   3566599.9429   5  10   0.1718   0.2569   0.1659  -0.1682  -0.0290  -0.0997   0.00    0.0    1.42763    3.18062   -3.04292   0.01441  0.01768  0.01695  0.00133 -0.01262 -0.00423    0.36045    1.26743  217.62129   0.02127  0.02269  0.32075 -0.00869  0.01545  0.02034
2046 358209.000  -2408412.9114   4698331.7552   3566596.8571   5  10   0.1721   0.2573   0.1660  -0.1684  -0.0275  -0.1000   0.00    0.0    1.53463    3.28640   -3.12146   0.01450  0.01766  0.01698  0.00160 -0.01259 -0.00407    0.34132    1.17863  218.06850   0.02122  0.02263  0.32027 -0.00863  0.01431  0.01894
2046 358210.000  -2408411.3060   4698335.1042   3566593.6503   5  11   0.1661   0.2551   0.1640  -0.1639  -0.0402  -0.0939   0.00    0.0    1.61040    3.41954   -3.22311   0.01427  0.01760  0.01692  0.00171 -0.01260 -0.00326    0.47930    1.25222  218.48368   0.02116  0.02251  0.31914 -0.00857  0.01197  0.01679
2046 358211.000  -2408409.6098   4698338.5244   3566590.4215   5  11   0.1610   0.2529   0.1623  -0.1597  -0.0486  -0.0887   0.00    0.0    1.72560    3.42954   -3.26200   0.01403  0.01754  0.01687  0.00171 -0.01262 -0.00269    0.22517    1.27368  219.19197   0.02111  0.02242  0.31812 -0.00851  0.00966  0.01426
2046 358212.000  -2408407.9267   4698341.9365   3566587.1745   5  11   0.1567   0.2507   0.1610  -0.1561  -0.0547  -0.0844   0.00    0.0    1.70450    3.40699   -3.15611   0.01379  0.01750  0.01678  0.00187 -0.01266 -0.00256    0.12936    1.06002  219.56376   0.02107  0.02234  0.31785 -0.00843  0.00833  0.01219
2046 358213.000  -2408406.2181   4698345.2887   3566584.0351   5  10   0.1577   0.2503   0.1614  -0.1562  -0.0540  -0.0856   0.00    0.0    1.73431    3.35611   -3.10995   0.01385  0.01748  0.01678  0.00202 -0.01267 -0.00304    0.26467    1.10647  220.10994   0.02103  0.02230  0.31791 -0.00837  0.00806  0.01038
2046 358214.000  -2408404.5846   4698348.5851   3566580.9491   5  10   0.1589   0.2502   0.1619  -0.1568  -0.0529  -0.0870   0.00    0.0    1.64252    3.15986   -2.98243   0.01390  0.01747  0.01673  0.00214 -0.01266 -0.00341    0.27541    1.10893  219.60555   0.02100  0.02226  0.31833 -0.00829  0.00952  0.01051
2046 358215.000  -2408403.0486   4698351.7006   3566577.9933   5  10   0.1601   0.2503   0.1623  -0.1575  -0.0516  -0.0883   0.00    0.0    1.51852    3.05925   -2.90047   0.01398  0.01746  0.01672  0.00214 -0.01266 -0.00353    0.36584    0.83591  219.27236   0.02097  0.02221  0.31871 -0.00822  0.01124  0.01187
2046 358216.000  -2408401.6050   4698354.7603   3566575.1148   5  10   0.1613   0.2504   0.1627  -0.1582  -0.0502  -0.0896   0.00    0.0    1.43663    3.01089   -2.86537   0.01404  0.01745  0.01672  0.00209 -0.01265 -0.00362    0.25020    0.74488  218.82191   0.02094  0.02216  0.31905 -0.00813  0.01274  0.01350
2046 358217.000  -2408400.1445   4698357.8124   3566572.2413   5  10   0.1624   0.2505   0.1630  -0.1589  -0.0488  -0.0908   0.00    0.0    1.51701    3.03724   -2.82197   0.01409  0.01743  0.01672  0.00206 -0.01264 -0.00379    0.50909    0.58900  219.90919   0.02091  0.02212  0.31944 -0.00805  0.01417  0.01448
2046 358218.000  -2408398.5922   4698360.8143   3566569.4445   5  10   0.1634   0.2507   0.1633  -0.1596  -0.0475  -0.0918   0.00    0.0    1.50812    3.01911   -2.81831   0.01411  0.01741  0.01673  0.00198 -0.01263 -0.00386    0.27339    0.70482  219.75608   0.02089  0.02207  0.31988 -0.00796  0.01526  0.01537
2046 358219.000  -2408397.1234   4698363.8045   3566566.6335   5  10   0.1643   0.2508   0.1636  -0.1603  -0.0462  -0.0928   0.00    0.0    1.48443    3.05181   -2.82802   0.01413  0.01739  0.01674  0.00193 -0.01262 -0.00393    0.56029    0.59353  219.45136   0.02086  0.02202  0.32035 -0.00788  0.01594  0.01599
2046 358220.000  -2408395.6008   4698366.9593   3566563.6484   5  10   0.1652   0.2514   0.1641  -0.1610  -0.0460  -0.0936   0.00    0.0    1.62102    3.23413   -2.99709   0.01419  0.01737  0.01679  0.00184 -0.01261 -0.00392    0.45638    0.70180  219.75403   0.02083  0.02198  0.32052 -0.00780  0.01557  0.01514
2046 358221.000  -2408393.9151   4698370.3333   3566560.5464   5  10   0.1660   0.2518   0.1645  -0.1617  -0.0455  -0.0944   0.00    0.0    1.65813    3.36250   -3.20604   0.01430  0.01734  0.01682  0.00197 -0.01257 -0.00383    0.52992    0.80595  219.36856   0.02079  0.02193  0.32005 -0.00773  0.01401  0.01338
2046 358222.000  -2408392.2678   4698373.7254   3566557.3287   5  10   0.1667   0.2518   0.1647  -0.1622  -0.0439  -0.0952   0.00    0.0    1.68435    3.40046   -3.17774   0.01428  0.01732  0.01681  0.00183 -0.01255 -0.00390    0.30170    0.81188  219.27196   0.02076  0.02188  0.31978 -0.00766  0.01264  0.01152
2046 358223.000  -2408390.6276   4698377.0885   3566554.1747   5  10   0.1673   0.2520   0.1649  -0.1627  -0.0425  -0.0959   0.00    0.0    1.63256    3.32864   -3.13549   0.01422  0.01732  0.01675  0.00178 -0.01253 -0.00404    0.39551    0.61525  219.22465   0.02073  0.02184  0.31996 -0.00759  0.01177  0.01046
2046 358224.000  -2408388.9804   4698380.3634   3566551.1466   5  10   0.1679   0.2521   0.1651  -0.1631  -0.0412  -0.0965   0.00    0.0    1.59500    3.22305   -3.02345   0.01418  0.01732  0.01671  0.00167 -0.01252 -0.00410    0.35476    0.91674  219.61721   0.02071  0.02181  0.32042 -0.00752  0.01188  0.01058
2046 358225.000  -2408387.3771   4698383.5626   3566548.1650   5  10   0.1684   0.2525   0.1653  -0.1636  -0.0406  -0.0970   0.00    0.0    1.61908    3.15297   -2.92428   0.01418  0.01734  0.01670  0.00159 -0.01252 -0.00411    0.53211    0.79902  220.28054   0.02069  0.02177  0.32092 -0.00745  0.01283  0.01117
2046 358226.000  -2408385.7589   4698386.7156   3566545.2918   5  10   0.1689   0.2526   0.1654  -0.1640  -0.0394  -0.0975   0.00    0.0    1.64370    3.11512   -2.84188   0.01419  0.01735  0.01668  0.00157 -0.01251 -0.00411    0.49749    0.92238  220.84757   0.02067  0.02174  0.32137 -0.00738  0.01414  0.01190
2046 358227.000  -2408384.0848   4698389.8325   3566542.4733   5  10   0.1693   0.2529   0.1656  -0.1645  -0.0387  -0.0979   0.00    0.0    1.63592    3.09484   -2.83968   0.01419  0.01735  0.01668  0.00151 -0.01250 -0.00409    0.39190    1.19328  220.44327   0.02066  0.02172  0.32186 -0.00732  0.01519  0.01265
2046 358228.000  -2408382.5673   4698392.9038   3566539.6641   5  10   0.1698   0.2536   0.1659  -0.1647  -0.0385  -0.0982   0.00    0.0    1.64123    2.99368   -2.82402   0.01427  0.01742  0.01666  0.00213 -0.01250 -0.00408    0.39903    1.06658  220.35992   0.02064  0.02173  0.32233 -0.00724  0.01625  0.01345
2046 358229.000  -2408380.9682   4698395.9167   3566536.8649   5  10   0.1702   0.2537   0.1659  -0.1650  -0.0371  -0.0986   0.00    0.0    1.59845    3.09449   -2.82147   0.01424  0.01741  0.01666  0.00200 -0.01249 -0.00408    0.36299    1.65157  220.39825   0.02062  0.02169  0.32285 -0.00720  0.01685  0.01382
2046 358230.000  -2408379.4860   4698398.9242   3566534.0166   5  10   0.1705   0.2537   0.1660  -0.1654  -0.0359  -0.0990   0.00    0.0    1.51756    3.00939   -2.76183   0.01422  0.01740  0.01664  0.00186 -0.01248 -0.00404    0.18147    1.24647  219.38694   0.02060  0.02166  0.32335 -0.00714  0.01767  0.01472
2046 358231.000  -2408378.1068   4698401.9060   3566531.1791   5  10   0.1708   0.2538   0.1660  -0.1657  -0.0348  -0.0993   0.00    0.0    1.46167    3.02666   -2.76486   0.01420  0.01739  0.01663  0.00174 -0.01247 -0.00404    0.45645   -0.18807  218.54824   0.02058  0.02163  0.32387 -0.00709  0.01816  0.01557
2046 358232.000  -2408376.7411   4698405.0100   3566528.4112   5  11   0.1652   0.2522   0.1642  -0.1617  -0.0456  -0.0934   0.00    0.0    1.53174    3.03010   -2.84197   0.01392  0.01736  0.01654  0.00167 -0.01247 -0.00348    0.40903    0.09554  219.92684   0.02057  0.02157  0.32439 -0.00703  0.01821  0.01586
2046 358233.000  -2408375.3100   4698408.0728   3566525.5789   5  11   0.1602   0.2502   0.1625  -0.1578  -0.0530  -0.0883   0.00    0.0    1.61502    3.07947   -2.76781   0.01374  0.01734  0.01650  0.00172 -0.01250 -0.00300    0.33989   -0.07539  221.13810   0.02055  0.02152  0.32488 -0.00698  0.01851  0.01563
2046 358234.000  -2408373.7434   4698411.1392   3566522.7771   5  10   0.1608   0.2497   0.1628  -0.1578  -0.0522  -0.0892   0.00    0.0    1.49198    3.01633   -2.76036   0.01381  0.01731  0.01650  0.00192 -0.01249 -0.00322    0.07357    0.15935  220.38287   0.02054  0.02152  0.32542 -0.00695  0.01874  0.01601
2046 358235.000  -2408372.3301   4698414.0085   3566520.1321   5   9   0.1618   0.2518   0.1632  -0.1577  -0.0514  -0.0902   0.00    0.0    1.30535    2.81445   -2.62788   0.01406  0.01750  0.01651  0.00294 -0.01251 -0.00329    0.46718   -0.18768  219.08624   0.02053  0.02157  0.32581 -0.00689  0.01942  0.01757
2046 358236.000  -2408370.9831   4698416.9039   3566517.4420   5  10   0.1627   0.2519   0.1635  -0.1585  -0.0499  -0.0912   0.00    0.0    1.41393    2.66299   -2.70297   0.01404  0.01744  0.01648  0.00268 -0.01247 -0.00349    0.34250    0.51396  218.91893   0.02053  0.02155  0.32626 -0.00685  0.02020  0.01870
2046 358237.000  -2408369.6166   4698419.6914   3566514.7245   5  10   0.1636   0.2519   0.1638  -0.1592  -0.0484  -0.0922   0.00    0.0    1.37927    2.91385   -2.64202   0.01408  0.01742  0.01653  0.00255 -0.01249 -0.00363    0.18629    0.66704  218.75496   0.02053  0.02153  0.32683 -0.00682  0.02041  0.01909
2046 358238.000  -2408368.2642   4698422.5733   3566511.9550   5  10   0.1645   0.2519   0.1640  -0.1599  -0.0469  -0.0931   0.00    0.0    1.33508    2.92327   -2.74894   0.01409  0.01737  0.01653  0.00241 -0.01246 -0.00374    0.32919    0.73585  217.89057   0.02052  0.02149  0.32730 -0.00680  0.02010  0.01925
2046 358239.000  -2408366.9535   4698425.4719   3566509.1508   5   9   0.1654   0.2541   0.1644  -0.1600  -0.0460  -0.0938   0.00    0.0    1.33160    2.93197   -2.82551   0.01429  0.01752  0.01653  0.00325 -0.01246 -0.00384    0.34717    0.77091  217.69166   0.02051  0.02153  0.32769 -0.00677  0.01965  0.01921
2046 358240.000  -2408365.5897   4698428.4055   3566506.3147   5   9   0.1662   0.2564   0.1646  -0.1601  -0.0442  -0.0946   0.00    0.0    1.38627    2.96478   -2.90482   0.01446  0.01764  0.01653  0.00380 -0.01244 -0.00389    0.43510    1.09714  218.02143   0.02050  0.02154  0.32788 -0.00675  0.01886  0.01875
2046 358241.000  -2408364.2267   4698431.3142   3566503.5081   5  10   0.1669   0.2572   0.1648  -0.1609  -0.0423  -0.0953   0.00    0.0    1.34423    2.89436   -2.74159   0.01433  0.01761  0.01651  0.00336 -0.01244 -0.00397    0.28860    0.90734  218.60405   0.02050  0.02148  0.32835 -0.00675  0.01852  0.01871
2046 358242.000  -2408362.8650   4698434.0924   3566500.8790   5  10   0.1675   0.2582   0.1650  -0.1616  -0.0411  -0.0959   0.00    0.0    1.29219    2.68076   -2.48836   0.01428  0.01762  0.01649  0.00301 -0.01244 -0.00394    0.02919    0.84917  219.48692   0.02050  0.02144  0.32881 -0.00673  0.01961  0.01957
2046 358243.000  -2408361.6006   4698436.6436   3566498.4837   5  10   0.1681   0.2592   0.1653  -0.1624  -0.0404  -0.0964   0.00    0.0    1.20514    2.43816   -2.32428   0.01431  0.01763  0.01648  0.00270 -0.01244 -0.00375    0.03453    0.96885  219.35758   0.02052  0.02143  0.32871 -0.00668  0.02136  0.02106
2046 358244.000  -2408360.4194   4698438.9603   3566496.2741   5  10   0.1686   0.2596   0.1655  -0.1631  -0.0392  -0.0969   0.00    0.0    1.08480    2.27667   -2.10814   0.01437  0.01762  0.01649  0.00238 -0.01243 -0.00349   -0.03656    0.83948  219.21237   0.02053  0.02142  0.32795 -0.00661  0.02342  0.02289
2046 358245.000  -2408359.4077   4698441.1311   3566494.2331   5  10   0.1690   0.2598   0.1657  -0.1639  -0.0386  -0.0974   0.00    0.0    0.94339    2.05991   -1.92295   0.01444  0.01761  0.01652  0.00196 -0.01244 -0.00311    0.27010    0.92825  217.99436   0.02056  0.02143  0.32640 -0.00652  0.02562  0.02496
2046 358246.000  -2408358.5700   4698443.0363   3566492.4549   5  10   0.1694   0.2600   0.1659  -0.1644  -0.0372  -0.0978   0.00    0.0    0.86369    1.88380   -1.78173   0.01443  0.01760  0.01651  0.00165 -0.01242 -0.00305    0.40268    0.56850  218.15524   0.02059  0.02145  0.32477 -0.00640  0.02766  0.02689
2046 358247.000  -2408357.5969   4698445.0833   3566490.4946   5  10   0.1698   0.2605   0.1659  -0.1648  -0.0355  -0.0982   0.00    0.0    1.04193    2.24372   -2.12651   0.01413  0.01752  0.01645  0.00151 -0.01240 -0.00393    0.38103    0.56435  218.48627   0.02060  0.02144  0.32537 -0.00638  0.02792  0.02725
2046 358248.000  -2408356.4259   4698447.5496   3566488.1850   5  10   0.1702   0.2609   0.1662  -0.1655  -0.0361  -0.0985   0.00    0.0    1.25874    2.54688   -2.32544   0.01426  0.01747  0.01657  0.00107 -0.01241 -0.00364    0.34447    0.63191  219.77295   0.02057  0.02142  0.32496 -0.00642  0.02705  0.02623
2046 358249.000  -2408355.0582   4698450.1738   3566485.8193   5  10   0.1705   0.2605   0.1664  -0.1661  -0.0356  -0.0988   0.00    0.0    1.43748    2.65787   -2.37039   0.01434  0.01742  0.01669 -0.00083 -0.01245 -0.00333    0.34881    0.76588  221.83666   0.02054  0.02139  0.32381 -0.00649  0.02589  0.02447
2046 358250.000  -2408353.5737   4698452.8646   3566483.3838   5  10   0.1708   0.2601   0.1665  -0.1666  -0.0349  -0.0992   0.00    0.0    1.47683    2.73441   -2.41449   0.01439  0.01738  0.01672 -0.00104 -0.01244 -0.00323    0.15639    0.77447  222.30866   0.02050  0.02138  0.32237 -0.00655  0.02453  0.02234
2046 358251.000  -2408352.1218   4698455.5643   3566480.9543   5  10   0.1710   0.2595   0.1666  -0.1669  -0.0337  -0.0995   0.00    0.0    1.40140    2.69767   -2.47232   0.01438  0.01734  0.01665 -0.00039 -0.01238 -0.00346    0.22169    0.81574  221.05182   0.02046  0.02136  0.32129 -0.00660  0.02311  0.02038
2046 358252.000  -2408350.7564   4698458.2657   3566478.4801   5  10   0.1713   0.2591   0.1667  -0.1672  -0.0332  -0.0997   0.00    0.0    1.34793    2.69562   -2.55787   0.01439  0.01732  0.01661  0.00083 -0.01234 -0.00358    0.27115    0.93932  219.42827   0.02043  0.02134  0.32025 -0.00665  0.02147  0.01843
2046 358253.000  -2408349.3725   4698461.0093   3566475.8572   5   9   0.1716   0.2607   0.1667  -0.1669  -0.0319  -0.1000   0.00    0.0    1.39396    2.74192   -2.57286   0.01455  0.01746  0.01661  0.00237 -0.01235 -0.00363    0.23608    0.93485  219.68730   0.02040  0.02138  0.31953 -0.00666  0.02027  0.01632
2046 358254.000  -2408348.0304   4698463.7300   3566473.2800   5   9   0.1719   0.2625   0.1667  -0.1667  -0.0297  -0.1002   0.00    0.0    1.36769    2.75753   -2.55541   0.01464  0.01761  0.01659  0.00319 -0.01235 -0.00379    0.29170    0.87118  219.46730   0.02038  0.02140  0.31907 -0.00667  0.01905  0.01426
2046 358255.000  -2408346.7669   4698466.4888   3566470.6731   5   9   0.1722   0.2645   0.1666  -0.1666  -0.0273  -0.1005   0.00    0.0    1.37286    2.78849   -2.59721   0.01474  0.01773  0.01658  0.00371 -0.01234 -0.00386    0.09541    0.62918  218.94607   0.02035  0.02142  0.31863 -0.00669  0.01769  0.01192
2046 358256.000  -2408345.3662   4698469.3664   3566467.8822   5   9   0.1725   0.2665   0.1666  -0.1666  -0.0249  -0.1007   0.00    0.0    1.44541    2.99646   -2.75845   0.01495  0.01783  0.01663  0.00413 -0.01233 -0.00362    0.22813    0.90553  218.58827   0.02033  0.02141  0.31735 -0.00671  0.01537  0.00762
2046 358257.000  -2408343.9313   4698472.3744   3566465.0541   5  10   0.1726   0.2662   0.1666  -0.1673  -0.0228  -0.1009   0.00    0.0    1.45414    2.97950   -2.86040   0.01475  0.01772  0.01659  0.00362 -0.01230 -0.00377    0.29211    0.60672  218.93224   0.02032  0.02134  0.31606 -0.00673  0.01179 -0.00402
2046 358258.000  -2408342.4288   4698475.3773   3566462.2116   5  10   0.1727   0.2652   0.1666  -0.1680  -0.0211  -0.1011   0.00    0.0    1.48473    3.05972   -2.85787   0.01459  0.01761  0.01659  0.00302 -0.01230 -0.00383    0.28752    0.51759  219.35323   0.02031  0.02129  0.31514 -0.00674  0.00761 -0.00919
2046 358259.000  -2408340.9674   4698478.3889   3566459.4154   5  10   0.1729   0.2642   0.1666  -0.1684  -0.0197  -0.1012   0.00    0.0    1.53102    3.03694   -2.83202   0.01443  0.01752  0.01657  0.00243 -0.01230 -0.00396    0.23849    0.54209  219.77351   0.02030  0.02126  0.31480 -0.00673  0.00144 -0.01192
2046 358260.000  -2408339.4446   4698481.4065   3566456.5887   5  10   0.1730   0.2632   0.1666  -0.1687  -0.0185  -0.1014   0.00    0.0    1.50025    3.01251   -2.74720   0.01430  0.01746  0.01653  0.00202 -0.01230 -0.00413    0.34652    0.56751  219.88394   0.02029  0.02124  0.31505 -0.00672 -0.00515 -0.01337
2046 358261.000  -2408337.9731   4698484.3681   3566453.8201   5  10   0.1731   0.2626   0.1667  -0.1690  -0.0189  -0.1015   0.00    0.0    1.49987    2.98388   -2.74658   0.01424  0.01742  0.01651  0.00170 -0.01230 -0.00418    0.22032    0.64582  219.94995   0.02029  0.02122  0.31549 -0.00670 -0.00654 -0.01432
2046 358262.000  -2408336.4029   4698487.3628   3566451.1269   5  10   0.1732   0.2622   0.1668  -0.1692  -0.0198  -0.1015   0.00    0.0    1.57785    2.91801   -2.73315   0.01419  0.01740  0.01650  0.00141 -0.01230 -0.00421    0.20135    0.67912  221.06912   0.02028  0.02121  0.31604 -0.00669 -0.00655 -0.01496
2046 358263.000  -2408334.8241   4698490.3025   3566448.4405   5  10   0.1732   0.2617   0.1669  -0.1694  -0.0190  -0.1016   0.00    0.0    1.56579    2.94449   -2.70251   0.01418  0.01737  0.01650  0.00126 -0.01230 -0.00422    0.52839    0.82642  221.22578   0.02028  0.02120  0.31664 -0.00668 -0.00602 -0.01539
2046 358264.000  -2408333.2971   4698493.2490   3566445.6970   5  10   0.1733   0.2609   0.1668  -0.1694  -0.0176  -0.1018   0.00    0.0    1.50242    2.93104   -2.71376   0.01416  0.01734  0.01648  0.00112 -0.01228 -0.00421    0.41767    0.47412  220.31623   0.02026  0.02120  0.31727 -0.00667 -0.00505 -0.01539
2046 358265.000  -2408331.8425   4698496.1395   3566442.9576   5  10   0.1733   0.2603   0.1668  -0.1695  -0.0167  -0.1019   0.00    0.0    1.46293    2.94452   -2.73430   0.01415  0.01731  0.01647  0.00097 -0.01227 -0.00420    0.33786    0.41679  219.78209   0.02025  0.02119  0.31792 -0.00667 -0.00418 -0.01523
2046 358266.000  -2408330.3762   4698499.1211   3566440.1265   5  10   0.1733   0.2597   0.1668  -0.1696  -0.0160  -0.1020   0.00    0.0    1.53938    3.06764   -2.86944   0.01416  0.01727  0.01649  0.00082 -0.01226 -0.00419    0.44396    0.66501  219.45988   0.02024  0.02118  0.31847 -0.00665 -0.00553 -0.01576
2046 358267.000  -2408328.8926   4698502.1119   3566437.2781   5  10   0.1733   0.2592   0.1667  -0.1696  -0.0155  -0.1020   0.00    0.0    1.42633    2.90421   -2.75131   0.01414  0.01728  0.01645  0.00077 -0.01225 -0.00417    0.14096    0.89076  218.91219   0.02023  0.02117  0.31908 -0.00664 -0.00344 -0.01515
2046 358268.000  -2408327.5655   4698504.8916   3566434.5879   5  10   0.1734   0.2587   0.1667  -0.1696  -0.0151  -0.1021   0.00    0.0    1.28203    2.71167   -2.55651   0.01421  0.01730  0.01645  0.00068 -0.01225 -0.00391    0.19964    1.01269  218.40838   0.02022  0.02116  0.31906 -0.00665  0.00679 -0.01313
2046 358269.000  -2408326.3717   4698507.4681   3566432.0841   5  10   0.1734   0.2583   0.1667  -0.1696  -0.0148  -0.1022   0.00    0.0    1.12611    2.47799   -2.36090   0.01436  0.01732  0.01649  0.00034 -0.01226 -0.00338    0.26140    0.89269  217.72982   0.02021  0.02114  0.31783 -0.00664  0.01179 -0.00893
2046 358270.000  -2408325.3098   4698509.8091   3566429.8005   5  10   0.1734   0.2579   0.1666  -0.1696  -0.0146  -0.1022   0.00    0.0    1.03124    2.46464   -2.40331   0.01424  0.01732  0.01649 -0.00072 -0.01227 -0.00352    0.37684    0.73439  216.87634   0.02021  0.02113  0.31721 -0.00663  0.01451  0.00226
2046 358271.000  -2408324.1865   4698512.3606   3566427.3487   5  10   0.1734   0.2575   0.1666  -0.1696  -0.0144  -0.1023   0.00    0.0    1.15912    2.59614   -2.54414   0.01411  0.01728  0.01641  0.00022 -0.01224 -0.00400    0.20961    0.89636  216.91851   0.02021  0.02112  0.31765 -0.00661  0.01560  0.00694
2046 358272.000  -2408323.0329   4698514.9155   3566424.8551   5  10   0.1734   0.2572   0.1666  -0.1695  -0.0143  -0.1023   0.00    0.0    1.12294    2.50793   -2.40564   0.01414  0.01729  0.01640  0.00022 -0.01223 -0.00390    0.03255    0.94268  217.05066   0.02022  0.02111  0.31787 -0.00659  0.01712  0.00989
2046 358273.000  -2408321.9745   4698517.3453   3566422.5212   5   9   0.1736   0.2585   0.1666  -0.1688  -0.0088  -0.1022   0.00    0.0    0.99657    2.40294   -2.35506   0.01441  0.01749  0.01642  0.00262 -0.01222 -0.00369    0.08340    0.66546  216.17281   0.02023  0.02119  0.31804 -0.00654  0.01813  0.01256
2046 358274.000  -2408320.9254   4698519.8085   3566420.1865   5   9   0.1737   0.2610   0.1669  -0.1685  -0.0142  -0.1020   0.00    0.0    1.02690    2.34360   -2.28478   0.01453  0.01767  0.01641  0.00334 -0.01225 -0.00378    0.41463    0.79274  216.49005   0.02024  0.02121  0.31817 -0.00653  0.01950  0.01462
2046 358275.000  -2408319.9383   4698521.9939   3566418.0449   5   9   0.1738   0.2634   0.1670  -0.1682  -0.0136  -0.1021   0.00    0.0    0.93460    2.13094   -2.01641   0.01476  0.01785  0.01641  0.00388 -0.01226 -0.00347    0.36975    0.66427  217.23183   0.02026  0.02124  0.31744 -0.00650  0.02156  0.01701
2046 358276.000  -2408318.9407   4698524.1858   3566415.9098   5   9   0.1739   0.2647   0.1672  -0.1681  -0.0075  -0.1019   0.00    0.0    1.09291    2.25787   -2.11661   0.01464  0.01788  0.01636  0.00399 -0.01224 -0.00390    0.42098    0.99137  217.83677   0.02027  0.02124  0.31778 -0.00646  0.02283  0.01794
2046 358277.000  -2408317.8646   4698526.4530   3566413.7786   5   9   0.1740   0.2658   0.1673  -0.1680   0.0110  -0.1019   0.00    0.0    1.14653    2.38510   -2.26023   0.01460  0.01788  0.01638  0.00398 -0.01221 -0.00393    0.44067    0.76911  218.73422   0.02028  0.02123  0.31846 -0.00643  0.02324  0.01808
2046 358278.000  -2408316.6690   4698528.9225   3566411.4308   5   9   0.1741   0.2668   0.1673  -0.1680   0.0177  -0.1019   0.00    0.0    1.35289    2.65717   -2.45844   0.01471  0.01786  0.01648  0.00391 -0.01221 -0.00363    0.02007    1.30789  219.70620   0.02027  0.02121  0.31852 -0.00644  0.02260  0.01662
2046 358279.000  -2408315.2819   4698531.5884   3566408.9541   5   9   0.1742   0.2678   0.1674  -0.1680   0.0216  -0.1018   0.00    0.0    1.47259    2.73798   -2.46633   0.01475  0.01788  0.01654  0.00384 -0.01223 -0.00346    0.03770    0.87200  221.31062   0.02026  0.02120  0.31831 -0.00646  0.02184  0.01445
2046 358280.000  -2408313.7440   4698534.3218   3566406.4730   5   9   0.1743   0.2687   0.1676  -0.1681   0.0243  -0.1018   0.00    0.0    1.64617    2.83727   -2.47835   0.01479  0.01791  0.01665  0.00371 -0.01228 -0.00323   -0.01920    0.71101  223.18783   0.02025  0.02120  0.31771 -0.00648  0.02097  0.01100
2046 358281.000  -2408312.0723   4698537.1504   3566404.0041   5   9   0.1744   0.2697   0.1677  -0.1682   0.0261  -0.1018   0.00    0.0    1.64921    2.84150   -2.51555   0.01480  0.01791  0.01661  0.00377 -0.01224 -0.00331    0.12202    0.61242  223.31865   0.02024  0.02119  0.31729 -0.00650  0.02010  0.00633
2046 358282.000  -2408310.4596   4698540.0567   3566401.4491   5   8   0.1746   0.2740   0.1679  -0.1673   0.0306  -0.1017   0.00    0.0    1.56932    2.91784   -2.57106   0.01509  0.01817  0.01658  0.00484 -0.01218 -0.00336    0.47913    0.32979  221.91495   0.02022  0.02127  0.31708 -0.00649  0.01939 -0.00542
2046 358283.000  -2408308.9381   4698542.9212   3566398.8303   5   9   0.1746   0.2760   0.1679  -0.1677   0.0304  -0.1019   0.00    0.0    1.53823    2.98694   -2.71126   0.01511  0.01823  0.01656  0.00491 -0.01219 -0.00353    0.82539    0.44459  220.38786   0.02019  0.02125  0.31648 -0.00653  0.01768 -0.01011
2046 358284.000  -2408307.3957   4698545.9826   3566396.0190   5   9   0.1747   0.2781   0.1680  -0.1679   0.0313  -0.1021   0.00    0.0    1.56064    3.14269   -2.86028   0.01518  0.01827  0.01657  0.00499 -0.01219 -0.00354    0.75716    0.63722  219.80710   0.02017  0.02123  0.31540 -0.00655  0.01529 -0.01351
2046 358285.000  -2408305.8489   4698549.1210   3566393.0678   5   9   0.1748   0.2799   0.1679  -0.1682   0.0327  -0.1023   0.00    0.0    1.57907    3.18149   -2.93293   0.01512  0.01830  0.01654  0.00497 -0.01220 -0.00375    0.54564    0.79726  219.45501   0.02016  0.02122  0.31458 -0.00655  0.01266 -0.01595
