% program   : GINav v0.1.0
% obs start : 2019/03/28 03:17:33.0
% obs end   : 2019/03/28 03:59:01.0
% mode      : PPD
% system    : GPS BDS 
% nfreqs    : 2
% elev mask : 10.0 deg
% ephemeris : broadcast
% ionos opt : off
% trops opt : off
%
%  GPST              x-ecef(m)      y-ecef(m)      z-ecef(m)   Q  ns   sdx(m)   sdy(m)   sdz(m)  sdxy(m)  sdyz(m)  sdzx(m) age(s)  ratio    vx(m/s)    vy(m/s)    vz(m/s)      sdvx     sdvy     sdvz    sdvxy    sdvyz    sdvzx
2046 357455.000  -2408694.3158   4698104.1971   3566698.9255   4   4   3.2957  22.8942   7.4386  -8.5233 -12.9343   4.7360   0.00    0.0    0.02317   -0.14639    0.01154   0.00000  0.00000  0.00000  0.00000  0.00000  0.00000
2046 357456.000  -2408694.4303   4698104.1984   3566699.1399   4   4   3.3017  22.9362   7.4463  -8.5394 -12.9532   4.7435   0.00    0.0   -0.00081    0.01943    0.00291   0.00000  0.00000  0.00000  0.00000  0.00000  0.00000
2046 357457.000  -2408695.4536   4698106.7675   3566699.3010   4   6   0.8306   1.2545   1.0012  -0.8452   0.6716  -0.5477   0.00    0.0    0.00974   -0.01669   -0.01391   0.00000  0.00000  0.00000  0.00000  0.00000  0.00000
2046 357458.000  -2408695.3821   4698106.7152   3566699.2180   4   6   0.8307   1.2545   1.0010  -0.8452   0.6716  -0.5478   0.00    0.0   -0.00909    0.01088   -0.02622   0.00000  0.00000  0.00000  0.00000  0.00000  0.00000
2046 357459.000  -2408695.3496   4698106.9065   3566698.8970   4  10   0.5638   1.0815   0.7892  -0.6122   0.6595  -0.4159   0.00    0.0   -0.00222    0.00877   -0.00895   0.00000  0.00000  0.00000  0.00000  0.00000  0.00000
2046 357460.000  -2408695.2104   4698107.3664   3566698.7026   4  11   0.5011   1.0074   0.6988  -0.5420   0.6652  -0.3718   0.00    0.0    0.02148   -0.02520   -0.01903   0.00000  0.00000  0.00000  0.00000  0.00000  0.00000
2046 357461.000  -2408695.1681   4698107.2795   3566698.8587   4  12   0.5012   0.9666   0.6616  -0.5414   0.6153  -0.3711   0.00    0.0   -0.00091   -0.00666   -0.02199   0.00000  0.00000  0.00000  0.00000  0.00000  0.00000
2046 357462.000  -2408695.1117   4698107.0611   3566698.8432   4  14   0.4780   0.8784   0.6117  -0.5107   0.5312  -0.3291   0.00    0.0    0.00075   -0.00895   -0.00913   0.00000  0.00000  0.00000  0.00000  0.00000  0.00000
2046 357463.000  -2408695.0489   4698106.7784   3566698.8154   4  14   0.4701   0.7788   0.6077  -0.4749   0.5039  -0.3199   0.00    0.0   -0.00023   -0.00041    0.00615   0.00000  0.00000  0.00000  0.00000  0.00000  0.00000
2046 357464.000  -2408695.0187   4698106.8066   3566698.8659   4  14   0.4701   0.7788   0.6077  -0.4749   0.5039  -0.3199   0.00    0.0    0.00173   -0.00610    0.01170   0.00000  0.00000  0.00000  0.00000  0.00000  0.00000
2046 357465.000  -2408695.0576   4698106.8423   3566698.8694   4  18   0.4545   0.7255   0.5413  -0.4575   0.4251  -0.3022   0.00    0.0   -0.00066   -0.02780   -0.01466   0.00000  0.00000  0.00000  0.00000  0.00000  0.00000
2046 357466.000  -2408695.0421   4698106.8853   3566698.9118   4  18   0.4546   0.7256   0.5413  -0.4575   0.4251  -0.3023   0.00    0.0    0.00462   -0.00376   -0.01514   0.00000  0.00000  0.00000  0.00000  0.00000  0.00000
2046 357467.000  -2408695.0342   4698106.9266   3566698.9257   4  18   0.4546   0.7256   0.5413  -0.4575   0.4251  -0.3023   0.00    0.0    0.00162   -0.00585   -0.00848   0.00000  0.00000  0.00000  0.00000  0.00000  0.00000
2046 357468.000  -2408695.0395   4698106.9528   3566698.9677   4  18   0.4546   0.7256   0.5413  -0.4576   0.4251  -0.3023   0.00    0.0   -0.00930    0.00109    0.00429   0.00000  0.00000  0.00000  0.00000  0.00000  0.00000
2046 357469.000  -2408695.0300   4698106.9432   3566698.9785   4  18   0.4547   0.7256   0.5413  -0.4576   0.4251  -0.3023   0.00    0.0   -0.00748    0.00100    0.00282   0.00000  0.00000  0.00000  0.00000  0.00000  0.00000
2046 357470.000  -2408695.0239   4698106.9339   3566699.0025   4  18   0.4547   0.7256   0.5412  -0.4576   0.4251  -0.3024   0.00    0.0   -0.00174    0.01121   -0.00129   0.00000  0.00000  0.00000  0.00000  0.00000  0.00000
2046 357471.000  -2408695.0090   4698106.9187   3566699.0002   4  18   0.4547   0.7256   0.5412  -0.4577   0.4251  -0.3024   0.00    0.0    0.00832    0.00652    0.00442   0.00000  0.00000  0.00000  0.00000  0.00000  0.00000
2046 357472.000  -2408695.0121   4698106.9132   3566698.9968   4  18   0.4548   0.7256   0.5412  -0.4577   0.4251  -0.3024   0.00    0.0   -0.00322   -0.00447   -0.01208   0.00000  0.00000  0.00000  0.00000  0.00000  0.00000
2046 357473.000  -2408695.0047   4698106.8881   3566698.9889   4  18   0.4548   0.7256   0.5412  -0.4577   0.4251  -0.3024   0.00    0.0    0.01353   -0.00375    0.00550   0.00000  0.00000  0.00000  0.00000  0.00000  0.00000
2046 357474.000  -2408694.9996   4698106.8809   3566698.9922   4  18   0.4548   0.7256   0.5412  -0.4578   0.4251  -0.3024   0.00    0.0    0.00313   -0.00127   -0.00785   0.00000  0.00000  0.00000  0.00000  0.00000  0.00000
2046 357475.000  -2408695.0016   4698106.8742   3566699.0153   4  18   0.4548   0.7256   0.5412  -0.4578   0.4251  -0.3025   0.00    0.0    0.00723    0.00502   -0.00759   0.00000  0.00000  0.00000  0.00000  0.00000  0.00000
2046 357476.000  -2408694.9981   4698106.8595   3566699.0036   4  18   0.4549   0.7257   0.5411  -0.4578   0.4251  -0.3025   0.00    0.0   -0.00763    0.00430    0.00772   0.00000  0.00000  0.00000  0.00000  0.00000  0.00000
2046 357477.000  -2408694.9903   4698106.8437   3566699.0042   4  18   0.4549   0.7257   0.5411  -0.4579   0.4250  -0.3025   0.00    0.0    0.00443    0.00331    0.00943   0.00000  0.00000  0.00000  0.00000  0.00000  0.00000
2046 357478.000  -2408694.9770   4698106.8184   3566698.9906   4  18   0.4549   0.7257   0.5411  -0.4579   0.4250  -0.3025   0.00    0.0   -0.02250   -0.01385   -0.01471   0.00000  0.00000  0.00000  0.00000  0.00000  0.00000
2046 357479.000  -2408694.9687   4698106.8024   3566698.9725   4  18   0.4550   0.7257   0.5411  -0.4579   0.4250  -0.3025   0.00    0.0   -0.00848   -0.03859   -0.03013   0.00000  0.00000  0.00000  0.00000  0.00000  0.00000
2046 357480.000  -2408694.9670   4698106.7955   3566698.9596   4  18   0.4550   0.7257   0.5411  -0.4580   0.4250  -0.3026   0.00    0.0   -0.00249    0.00401    0.01045   0.00000  0.00000  0.00000  0.00000  0.00000  0.00000
2046 357481.000  -2408694.9639   4698106.7903   3566698.9476   4  18   0.4550   0.7257   0.5411  -0.4580   0.4250  -0.3026   0.00    0.0   -0.00327    0.02521    0.00425   0.00000  0.00000  0.00000  0.00000  0.00000  0.00000
2046 357482.000  -2408694.9541   4698106.7886   3566698.9521   4  18   0.4551   0.7257   0.5411  -0.4580   0.4250  -0.3026   0.00    0.0    0.00399    0.01412   -0.00777   0.00000  0.00000  0.00000  0.00000  0.00000  0.00000
2046 357483.000  -2408694.9530   4698106.7793   3566698.9337   4  18   0.4551   0.7257   0.5410  -0.4581   0.4250  -0.3026   0.00    0.0    0.00013    0.00521    0.00789   0.00000  0.00000  0.00000  0.00000  0.00000  0.00000
2046 357484.000  -2408694.9537   4698106.7865   3566698.9303   4  18   0.4551   0.7257   0.5410  -0.4581   0.4250  -0.3026   0.00    0.0   -0.01089    0.00178   -0.00983   0.00000  0.00000  0.00000  0.00000  0.00000  0.00000
2046 357485.000  -2408694.9558   4698106.7907   3566698.9323   4  18   0.4551   0.7258   0.5410  -0.4581   0.4250  -0.3027   0.00    0.0   -0.01785    0.02754    0.02140   0.00000  0.00000  0.00000  0.00000  0.00000  0.00000
2046 357486.000  -2408694.9277   4698106.7516   3566698.9182   4  17   0.4614   0.7355   0.5451  -0.4679   0.4342  -0.3108   0.00    0.0    0.01847   -0.02338   -0.01346   0.00000  0.00000  0.00000  0.00000  0.00000  0.00000
2046 357487.000  -2408694.9348   4698106.7507   3566698.9077   4  17   0.4614   0.7355   0.5450  -0.4679   0.4342  -0.3109   0.00    0.0    0.00265   -0.01287   -0.01217   0.00000  0.00000  0.00000  0.00000  0.00000  0.00000
2046 357488.000  -2408694.9321   4698106.7391   3566698.9097   4  17   0.4614   0.7355   0.5450  -0.4679   0.4342  -0.3109   0.00    0.0   -0.00021   -0.00820    0.02074   0.00000  0.00000  0.00000  0.00000  0.00000  0.00000
2046 357489.000  -2408694.9296   4698106.7385   3566698.9043   4  17   0.4615   0.7355   0.5450  -0.4680   0.4342  -0.3109   0.00    0.0   -0.00629    0.00755   -0.01268   0.00000  0.00000  0.00000  0.00000  0.00000  0.00000
2046 357490.000  -2408694.9274   4698106.7254   3566698.8960   4  17   0.4615   0.7355   0.5450  -0.4680   0.4342  -0.3109   0.00    0.0   -0.00815   -0.00107   -0.00042   0.00000  0.00000  0.00000  0.00000  0.00000  0.00000
2046 357491.000  -2408694.9241   4698106.7053   3566698.8870   4  17   0.4615   0.7355   0.5450  -0.4680   0.4342  -0.3109   0.00    0.0    0.01089   -0.00230    0.00442   0.00000  0.00000  0.00000  0.00000  0.00000  0.00000
2046 357492.000  -2408694.9186   4698106.6887   3566698.8706   4  17   0.4616   0.7356   0.5449  -0.4681   0.4342  -0.3109   0.00    0.0    0.01124    0.00016   -0.01185   0.00000  0.00000  0.00000  0.00000  0.00000  0.00000
2046 357493.000  -2408694.9148   4698106.6763   3566698.8633   4  17   0.4616   0.7356   0.5449  -0.4681   0.4341  -0.3110   0.00    0.0   -0.01755    0.03012    0.00201   0.00000  0.00000  0.00000  0.00000  0.00000  0.00000
2046 357494.000  -2408694.9162   4698106.6721   3566698.8562   4  17   0.4616   0.7356   0.5449  -0.4681   0.4341  -0.3110   0.00    0.0   -0.00519   -0.01109   -0.01476   0.00000  0.00000  0.00000  0.00000  0.00000  0.00000
2046 357495.000  -2408694.9175   4698106.6722   3566698.8561   4  17   0.4617   0.7356   0.5449  -0.4682   0.4341  -0.3110   0.00    0.0   -0.00023   -0.00775    0.00435   0.00000  0.00000  0.00000  0.00000  0.00000  0.00000
2046 357496.000  -2408694.9128   4698106.6686   3566698.8516   4  17   0.4617   0.7356   0.5449  -0.4682   0.4341  -0.3110   0.00    0.0   -0.02085    0.02049    0.00474   0.00000  0.00000  0.00000  0.00000  0.00000  0.00000
2046 357497.000  -2408694.9028   4698106.6656   3566698.8426   4  17   0.4617   0.7356   0.5449  -0.4682   0.4341  -0.3110   0.00    0.0   -0.01866    0.00660    0.00439   0.00000  0.00000  0.00000  0.00000  0.00000  0.00000
2046 357498.000  -2408694.8998   4698106.6624   3566698.8565   4  17   0.4617   0.7356   0.5448  -0.4683   0.4341  -0.3110   0.00    0.0   -0.00077   -0.00062    0.01851   0.00000  0.00000  0.00000  0.00000  0.00000  0.00000
2046 357499.000  -2408694.9040   4698106.6604   3566698.8527   4  17   0.4618   0.7356   0.5448  -0.4683   0.4341  -0.3111   0.00    0.0   -0.00743    0.03076    0.00358   0.00000  0.00000  0.00000  0.00000  0.00000  0.00000
2046 357500.000  -2408694.9068   4698106.6680   3566698.8611   4  17   0.4618   0.7357   0.5448  -0.4683   0.4341  -0.3111   0.00    0.0   -0.00979   -0.00507   -0.00580   0.00000  0.00000  0.00000  0.00000  0.00000  0.00000
2046 357501.000  -2408694.9003   4698106.6652   3566698.8590   4  17   0.4618   0.7357   0.5448  -0.4684   0.4341  -0.3111   0.00    0.0   -0.00790   -0.00387   -0.00353   0.00000  0.00000  0.00000  0.00000  0.00000  0.00000
2046 357502.000  -2408694.9024   4698106.6694   3566698.8637   4  17   0.4619   0.7357   0.5448  -0.4684   0.4341  -0.3111   0.00    0.0   -0.01117    0.01285    0.00497   0.00000  0.00000  0.00000  0.00000  0.00000  0.00000
2046 357503.000  -2408694.8959   4698106.6716   3566698.8679   4  17   0.4619   0.7357   0.5448  -0.4684   0.4341  -0.3111   0.00    0.0   -0.00379    0.01731    0.01012   0.00000  0.00000  0.00000  0.00000  0.00000  0.00000
2046 357504.000  -2408694.8852   4698106.6672   3566698.8696   4  17   0.4619   0.7357   0.5447  -0.4685   0.4341  -0.3112   0.00    0.0   -0.00716    0.02171   -0.00045   0.00000  0.00000  0.00000  0.00000  0.00000  0.00000
2046 357505.000  -2408694.8826   4698106.6650   3566698.8729   4  17   0.4620   0.7357   0.5447  -0.4685   0.4340  -0.3112   0.00    0.0   -0.00342    0.01278   -0.00997   0.00000  0.00000  0.00000  0.00000  0.00000  0.00000
2046 357506.000  -2408694.8803   4698106.6758   3566698.8852   4  17   0.4620   0.7357   0.5447  -0.4685   0.4340  -0.3112   0.00    0.0    0.00084    0.01720    0.00932   0.00000  0.00000  0.00000  0.00000  0.00000  0.00000
2046 357507.000  -2408694.8725   4698106.6721   3566698.8866   4  17   0.4620   0.7358   0.5447  -0.4686   0.4340  -0.3112   0.00    0.0   -0.00750   -0.00075   -0.00613   0.00000  0.00000  0.00000  0.00000  0.00000  0.00000
2046 357508.000  -2408694.8757   4698106.6656   3566698.8910   4  17   0.4621   0.7358   0.5447  -0.4686   0.4340  -0.3112   0.00    0.0    0.00101   -0.00582   -0.01421   0.00000  0.00000  0.00000  0.00000  0.00000  0.00000
2046 357509.000  -2408694.8732   4698106.6670   3566698.8926   4  17   0.4621   0.7358   0.5446  -0.4687   0.4340  -0.3112   0.00    0.0    0.00720    0.00881   -0.00026   0.00000  0.00000  0.00000  0.00000  0.00000  0.00000
2046 357510.000  -2408694.8713   4698106.6665   3566698.8986   4  17   0.4621   0.7358   0.5446  -0.4687   0.4340  -0.3113   0.00    0.0   -0.00366    0.01359   -0.00521   0.00000  0.00000  0.00000  0.00000  0.00000  0.00000
2046 357511.000  -2408694.9967   4698106.8277   3566698.8127   4   8   0.4992   0.8743   0.7455  -0.4983   0.6348  -0.3508   0.00    0.0   -0.00782   -0.00406    0.01799   0.00000  0.00000  0.00000  0.00000  0.00000  0.00000
2046 357512.000  -2408694.9976   4698106.8205   3566698.8144   4   8   0.4992   0.8743   0.7454  -0.4983   0.6347  -0.3508   0.00    0.0   -0.01004   -0.00009   -0.00319   0.00000  0.00000  0.00000  0.00000  0.00000  0.00000
2046 357513.000  -2408694.9913   4698106.8155   3566698.8114   4   8   0.4992   0.8743   0.7454  -0.4983   0.6346  -0.3508   0.00    0.0   -0.01349    0.02370   -0.00457   0.00000  0.00000  0.00000  0.00000  0.00000  0.00000
2046 357514.000  -2408694.9901   4698106.8063   3566698.8061   4   8   0.4993   0.8743   0.7453  -0.4984   0.6346  -0.3508   0.00    0.0   -0.01490    0.03590   -0.00887   0.00000  0.00000  0.00000  0.00000  0.00000  0.00000
2046 357515.000  -2408694.9888   4698106.8096   3566698.8218   4   8   0.4993   0.8742   0.7452  -0.4984   0.6345  -0.3508   0.00    0.0   -0.01046    0.02433    0.01995   0.00000  0.00000  0.00000  0.00000  0.00000  0.00000
2046 357516.000  -2408694.9838   4698106.8074   3566698.8085   4   8   0.4993   0.8742   0.7451  -0.4984   0.6344  -0.3508   0.00    0.0    0.00546    0.00840   -0.00357   0.00000  0.00000  0.00000  0.00000  0.00000  0.00000
2046 357517.000  -2408694.9884   4698106.8176   3566698.8203   4   8   0.4994   0.8742   0.7451  -0.4985   0.6344  -0.3508   0.00    0.0   -0.00907    0.00818   -0.00662   0.00000  0.00000  0.00000  0.00000  0.00000  0.00000
2046 357518.000  -2408694.9878   4698106.8126   3566698.8090   4   8   0.4994   0.8742   0.7450  -0.4985   0.6343  -0.3508   0.00    0.0    0.00291    0.00537   -0.00550   0.00000  0.00000  0.00000  0.00000  0.00000  0.00000
2046 357519.000  -2408694.9981   4698106.8399   3566698.8276   4   8   0.4994   0.8742   0.7449  -0.4985   0.6342  -0.3508   0.00    0.0    0.01423   -0.00158    0.02926   0.00000  0.00000  0.00000  0.00000  0.00000  0.00000
2046 357520.000  -2408695.0031   4698106.8424   3566698.8290   4   8   0.4995   0.8741   0.7448  -0.4985   0.6341  -0.3508   0.00    0.0   -0.01612    0.02916    0.00566   0.00000  0.00000  0.00000  0.00000  0.00000  0.00000
2046 357521.000  -2408694.9959   4698106.8337   3566698.8218   4   8   0.4995   0.8741   0.7448  -0.4986   0.6341  -0.3508   0.00    0.0   -0.01144    0.01811   -0.00128   0.00000  0.00000  0.00000  0.00000  0.00000  0.00000
2046 357522.000  -2408695.0082   4698106.8437   3566698.8237   4   8   0.4996   0.8741   0.7447  -0.4986   0.6340  -0.3508   0.00    0.0    0.00632   -0.00954   -0.01552   0.00000  0.00000  0.00000  0.00000  0.00000  0.00000
2046 357523.000  -2408695.0042   4698106.8508   3566698.8330   4   8   0.4996   0.8741   0.7446  -0.4986   0.6339  -0.3508   0.00    0.0    0.00855   -0.01977   -0.01157   0.00000  0.00000  0.00000  0.00000  0.00000  0.00000
2046 357524.000  -2408695.0051   4698106.8572   3566698.8353   4   8   0.4996   0.8740   0.7445  -0.4987   0.6339  -0.3508   0.00    0.0    0.00857   -0.01219    0.00067   0.00000  0.00000  0.00000  0.00000  0.00000  0.00000
2046 357525.000  -2408695.0053   4698106.8529   3566698.8287   4   8   0.4997   0.8740   0.7445  -0.4987   0.6338  -0.3508   0.00    0.0    0.00003   -0.00147    0.01944   0.00000  0.00000  0.00000  0.00000  0.00000  0.00000
2046 357526.000  -2408695.0133   4698106.8609   3566698.8346   4   8   0.4997   0.8740   0.7444  -0.4987   0.6337  -0.3508   0.00    0.0   -0.00697    0.00876   -0.01408   0.00000  0.00000  0.00000  0.00000  0.00000  0.00000
2046 357527.000  -2408695.0036   4698106.8511   3566698.8309   4   8   0.4997   0.8740   0.7443  -0.4987   0.6337  -0.3507   0.00    0.0   -0.00277    0.02409    0.01445   0.00000  0.00000  0.00000  0.00000  0.00000  0.00000
2046 357528.000  -2408695.0122   4698106.8618   3566698.8380   4   8   0.4998   0.8740   0.7442  -0.4988   0.6336  -0.3507   0.00    0.0   -0.00458   -0.00246   -0.00271   0.00000  0.00000  0.00000  0.00000  0.00000  0.00000
2046 357529.000  -2408695.0145   4698106.8699   3566698.8297   4   8   0.4998   0.8739   0.7442  -0.4988   0.6335  -0.3507   0.00    0.0    0.00255    0.00779    0.00726   0.00000  0.00000  0.00000  0.00000  0.00000  0.00000
2046 357530.000  -2408695.0187   4698106.8549   3566698.8270   4   8   0.4999   0.8739   0.7441  -0.4988   0.6335  -0.3507   0.00    0.0   -0.00632    0.00468    0.00575   0.00000  0.00000  0.00000  0.00000  0.00000  0.00000
2046 357531.000  -2408695.0161   4698106.8596   3566698.8262   4   8   0.4999   0.8739   0.7440  -0.4989   0.6334  -0.3507   0.00    0.0   -0.01147    0.00773   -0.00115   0.00000  0.00000  0.00000  0.00000  0.00000  0.00000
2046 357532.000  -2408695.0198   4698106.8509   3566698.8112   4   8   0.4999   0.8739   0.7439  -0.4989   0.6333  -0.3507   0.00    0.0    0.00061    0.01069   -0.00699   0.00000  0.00000  0.00000  0.00000  0.00000  0.00000
2046 357533.000  -2408695.0165   4698106.8675   3566698.8326   4   8   0.5000   0.8738   0.7439  -0.4989   0.6332  -0.3507   0.00    0.0    0.00457    0.00040   -0.01879   0.00000  0.00000  0.00000  0.00000  0.00000  0.00000
2046 357534.000  -2408695.0137   4698106.8600   3566698.8302   4   8   0.5000   0.8738   0.7438  -0.4989   0.6332  -0.3507   0.00    0.0    0.00487   -0.01893    0.00040   0.00000  0.00000  0.00000  0.00000  0.00000  0.00000
2046 357535.000  -2408695.0141   4698106.8590   3566698.8167   4   8   0.5000   0.8738   0.7437  -0.4990   0.6331  -0.3507   0.00    0.0    0.01301   -0.00802   -0.00249   0.00000  0.00000  0.00000  0.00000  0.00000  0.00000
2046 357536.000  -2408695.0086   4698106.8572   3566698.8151   4   8   0.5001   0.8738   0.7436  -0.4990   0.6330  -0.3507   0.00    0.0   -0.00012    0.01622   -0.00139   0.00000  0.00000  0.00000  0.00000  0.00000  0.00000
2046 357537.000  -2408695.0140   4698106.8662   3566698.8248   4   8   0.5001   0.8737   0.7436  -0.4990   0.6330  -0.3507   0.00    0.0    0.01645   -0.00365    0.00219   0.00000  0.00000  0.00000  0.00000  0.00000  0.00000
2046 357538.000  -2408695.0051   4698106.8584   3566698.8106   4   8   0.5001   0.8737   0.7435  -0.4991   0.6329  -0.3507   0.00    0.0    0.00348    0.01591    0.00360   0.00000  0.00000  0.00000  0.00000  0.00000  0.00000
2046 357539.000  -2408695.0010   4698106.8562   3566698.8017   4   8   0.5002   0.8737   0.7434  -0.4991   0.6328  -0.3507   0.00    0.0    0.00358   -0.00894   -0.00057   0.00000  0.00000  0.00000  0.00000  0.00000  0.00000
2046 357540.000  -2408695.0065   4698106.8567   3566698.7970   4   8   0.5002   0.8737   0.7433  -0.4991   0.6328  -0.3507   0.00    0.0   -0.01548    0.00585    0.00345   0.00000  0.00000  0.00000  0.00000  0.00000  0.00000
2046 357541.000  -2408694.9945   4698106.8449   3566698.7837   4   8   0.5003   0.8737   0.7432  -0.4991   0.6327  -0.3507   0.00    0.0    0.00252    0.00820    0.00822   0.00000  0.00000  0.00000  0.00000  0.00000  0.00000
2046 357542.000  -2408694.9963   4698106.8620   3566698.7926   4   8   0.5003   0.8736   0.7432  -0.4992   0.6326  -0.3507   0.00    0.0   -0.01700    0.02615    0.00003   0.00000  0.00000  0.00000  0.00000  0.00000  0.00000
2046 357543.000  -2408694.9926   4698106.8574   3566698.7821   4   8   0.5003   0.8736   0.7431  -0.4992   0.6325  -0.3507   0.00    0.0    0.00875    0.00028   -0.00216   0.00000  0.00000  0.00000  0.00000  0.00000  0.00000
2046 357544.000  -2408694.9925   4698106.8577   3566698.7821   4   8   0.5004   0.8736   0.7430  -0.4992   0.6325  -0.3507   0.00    0.0   -0.01675    0.02214    0.01615   0.00000  0.00000  0.00000  0.00000  0.00000  0.00000
2046 357545.000  -2408694.9858   4698106.8496   3566698.7724   4   8   0.5004   0.8736   0.7429  -0.4993   0.6324  -0.3506   0.00    0.0   -0.00412    0.01354   -0.00131   0.00000  0.00000  0.00000  0.00000  0.00000  0.00000
2046 357546.000  -2408694.9862   4698106.8534   3566698.7704   4   8   0.5004   0.8735   0.7429  -0.4993   0.6323  -0.3506   0.00    0.0    0.00718   -0.01058   -0.00701   0.00000  0.00000  0.00000  0.00000  0.00000  0.00000
2046 357547.000  -2408694.9797   4698106.8435   3566698.7720   4   8   0.5005   0.8735   0.7428  -0.4993   0.6323  -0.3506   0.00    0.0   -0.00810    0.00595    0.00914   0.00000  0.00000  0.00000  0.00000  0.00000  0.00000
2046 357548.000  -2408694.9822   4698106.8416   3566698.7574   4   8   0.5005   0.8735   0.7427  -0.4993   0.6322  -0.3506   0.00    0.0    0.01025   -0.02957   -0.02984   0.00000  0.00000  0.00000  0.00000  0.00000  0.00000
2046 357549.000  -2408694.9745   4698106.8417   3566698.7498   4   8   0.5005   0.8735   0.7426  -0.4994   0.6321  -0.3506   0.00    0.0   -0.00285    0.01790   -0.00737   0.00000  0.00000  0.00000  0.00000  0.00000  0.00000
2046 357550.000  -2408694.9682   4698106.8340   3566698.7379   4   8   0.5006   0.8735   0.7426  -0.4994   0.6321  -0.3506   0.00    0.0    0.00278   -0.02026   -0.01561   0.00000  0.00000  0.00000  0.00000  0.00000  0.00000
2046 357551.000  -2408694.9695   4698106.8455   3566698.7517   4   8   0.5006   0.8734   0.7425  -0.4994   0.6320  -0.3506   0.00    0.0    0.00069    0.02130    0.00503   0.00000  0.00000  0.00000  0.00000  0.00000  0.00000
2046 357552.000  -2408694.9675   4698106.8335   3566698.7446   4   8   0.5007   0.8734   0.7424  -0.4995   0.6319  -0.3506   0.00    0.0    0.00152    0.00601   -0.00378   0.00000  0.00000  0.00000  0.00000  0.00000  0.00000
2046 357553.000  -2408694.9627   4698106.8263   3566698.7395   4   8   0.5007   0.8734   0.7423  -0.4995   0.6318  -0.3506   0.00    0.0    0.01095   -0.00369    0.00700   0.00000  0.00000  0.00000  0.00000  0.00000  0.00000
2046 357554.000  -2408694.9659   4698106.8409   3566698.7454   4   8   0.5007   0.8734   0.7423  -0.4995   0.6318  -0.3506   0.00    0.0   -0.00144    0.00450   -0.02578   0.00000  0.00000  0.00000  0.00000  0.00000  0.00000
2046 357555.000  -2408694.9597   4698106.8216   3566698.7308   4   8   0.5008   0.8733   0.7422  -0.4995   0.6317  -0.3506   0.00    0.0    0.00455   -0.00386   -0.00179   0.00000  0.00000  0.00000  0.00000  0.00000  0.00000
2046 357556.000  -2408694.9566   4698106.8194   3566698.7310   4   8   0.5008   0.8733   0.7421  -0.4996   0.6316  -0.3506   0.00    0.0    0.00536    0.00302   -0.00244   0.00000  0.00000  0.00000  0.00000  0.00000  0.00000
2046 357557.000  -2408694.9497   4698106.8173   3566698.7361   4   8   0.5008   0.8733   0.7420  -0.4996   0.6316  -0.3506   0.00    0.0   -0.01272    0.01813    0.00667   0.00000  0.00000  0.00000  0.00000  0.00000  0.00000
2046 357558.000  -2408694.9513   4698106.8093   3566698.7172   4   8   0.5009   0.8733   0.7419  -0.4996   0.6315  -0.3506   0.00    0.0   -0.00914    0.01176    0.01440   0.00000  0.00000  0.00000  0.00000  0.00000  0.00000
2046 357559.000  -2408694.9406   4698106.8057   3566698.7200   4   8   0.5009   0.8733   0.7419  -0.4997   0.6314  -0.3506   0.00    0.0    0.01496   -0.00241    0.00161   0.00000  0.00000  0.00000  0.00000  0.00000  0.00000
2046 357560.000  -2408694.9490   4698106.8080   3566698.7145   4   8   0.5010   0.8732   0.7418  -0.4997   0.6313  -0.3506   0.00    0.0   -0.01119   -0.00267   -0.00689   0.00000  0.00000  0.00000  0.00000  0.00000  0.00000
2046 357561.000  -2408694.9439   4698106.8055   3566698.7147   4   8   0.5010   0.8732   0.7417  -0.4997   0.6313  -0.3505   0.00    0.0   -0.00131   -0.00048   -0.00149   0.00000  0.00000  0.00000  0.00000  0.00000  0.00000
2046 357562.000  -2408694.9433   4698106.8054   3566698.7093   4   8   0.5010   0.8732   0.7416  -0.4997   0.6312  -0.3505   0.00    0.0   -0.01841   -0.00186   -0.01120   0.00000  0.00000  0.00000  0.00000  0.00000  0.00000
2046 357563.000  -2408694.9375   4698106.8043   3566698.7000   4   8   0.5011   0.8732   0.7416  -0.4998   0.6311  -0.3505   0.00    0.0    0.00042    0.00230   -0.00662   0.00000  0.00000  0.00000  0.00000  0.00000  0.00000
2046 357564.000  -2408694.9411   4698106.8026   3566698.7052   4   8   0.5011   0.8731   0.7415  -0.4998   0.6311  -0.3505   0.00    0.0    0.00467    0.00332   -0.00273   0.00000  0.00000  0.00000  0.00000  0.00000  0.00000
2046 357565.000  -2408694.9370   4698106.8012   3566698.7075   4   8   0.5011   0.8731   0.7414  -0.4998   0.6310  -0.3505   0.00    0.0    0.00237    0.00578    0.00551   0.00000  0.00000  0.00000  0.00000  0.00000  0.00000
2046 357566.000  -2408694.9345   4698106.7919   3566698.6957   4   8   0.5012   0.8731   0.7413  -0.4999   0.6309  -0.3505   0.00    0.0    0.00083    0.00276   -0.00018   0.00000  0.00000  0.00000  0.00000  0.00000  0.00000
2046 357567.000  -2408694.9272   4698106.7967   3566698.6924   4   8   0.5012   0.8731   0.7413  -0.4999   0.6309  -0.3505   0.00    0.0   -0.00336    0.01521    0.00955   0.00000  0.00000  0.00000  0.00000  0.00000  0.00000
2046 357568.000  -2408694.9280   4698106.7950   3566698.6913   4   8   0.5012   0.8731   0.7412  -0.4999   0.6308  -0.3505   0.00    0.0    0.00181   -0.00093   -0.00854   0.00000  0.00000  0.00000  0.00000  0.00000  0.00000
2046 357569.000  -2408694.9185   4698106.7841   3566698.6804   4   8   0.5013   0.8730   0.7411  -0.5000   0.6307  -0.3505   0.00    0.0   -0.00153    0.02420   -0.00492   0.00000  0.00000  0.00000  0.00000  0.00000  0.00000
2046 357570.000  -2408694.9186   4698106.7981   3566698.6964   4   8   0.5013   0.8730   0.7410  -0.5000   0.6306  -0.3505   0.00    0.0    0.00724    0.00903   -0.02172   0.00000  0.00000  0.00000  0.00000  0.00000  0.00000
2046 357571.000  -2408694.9162   4698106.7775   3566698.6766   4   8   0.5014   0.8730   0.7409  -0.5000   0.6306  -0.3505   0.00    0.0    0.00992   -0.01361   -0.01715   0.00000  0.00000  0.00000  0.00000  0.00000  0.00000
2046 357572.000  -2408694.9165   4698106.7796   3566698.6778   4   8   0.5014   0.8730   0.7409  -0.5000   0.6305  -0.3505   0.00    0.0   -0.00163   -0.00198    0.00506   0.00000  0.00000  0.00000  0.00000  0.00000  0.00000
2046 357573.000  -2408694.9199   4698106.7807   3566698.6660   4   8   0.5014   0.8729   0.7408  -0.5001   0.6304  -0.3505   0.00    0.0   -0.01007   -0.00187   -0.02278   0.00000  0.00000  0.00000  0.00000  0.00000  0.00000
2046 357574.000  -2408694.9106   4698106.7860   3566698.6824   4   8   0.5015   0.8729   0.7407  -0.5001   0.6304  -0.3505   0.00    0.0    0.00134    0.01242    0.01491   0.00000  0.00000  0.00000  0.00000  0.00000  0.00000
2046 357575.000  -2408694.9108   4698106.7723   3566698.6711   4   8   0.5015   0.8729   0.7406  -0.5001   0.6303  -0.3505   0.00    0.0    0.00889    0.00325    0.00266   0.00000  0.00000  0.00000  0.00000  0.00000  0.00000
2046 357576.000  -2408694.9089   4698106.7804   3566698.6828   4   8   0.5015   0.8729   0.7406  -0.5002   0.6302  -0.3504   0.00    0.0   -0.01396    0.02130   -0.00583   0.00000  0.00000  0.00000  0.00000  0.00000  0.00000
2046 357577.000  -2408694.9001   4698106.7732   3566698.6695   4   8   0.5016   0.8729   0.7405  -0.5002   0.6301  -0.3504   0.00    0.0    0.01231   -0.01671   -0.00179   0.00000  0.00000  0.00000  0.00000  0.00000  0.00000
2046 357578.000  -2408694.9048   4698106.7818   3566698.6722   4   8   0.5016   0.8728   0.7404  -0.5002   0.6301  -0.3504   0.00    0.0    0.00471   -0.00078    0.00029   0.00000  0.00000  0.00000  0.00000  0.00000  0.00000
2046 357579.000  -2408694.8987   4698106.7575   3566698.6640   4   8   0.5017   0.8728   0.7403  -0.5002   0.6300  -0.3504   0.00    0.0   -0.00995    0.01266   -0.01381   0.00000  0.00000  0.00000  0.00000  0.00000  0.00000
2046 357580.000  -2408694.8955   4698106.7656   3566698.6725   4   8   0.5017   0.8728   0.7403  -0.5003   0.6299  -0.3504   0.00    0.0   -0.00351   -0.00439    0.00103   0.00000  0.00000  0.00000  0.00000  0.00000  0.00000
2046 357581.000  -2408694.8919   4698106.7663   3566698.6813   4   8   0.5017   0.8728   0.7402  -0.5003   0.6299  -0.3504   0.00    0.0   -0.00063   -0.00029   -0.00060   0.00000  0.00000  0.00000  0.00000  0.00000  0.00000
2046 357582.000  -2408694.8928   4698106.7754   3566698.6809   4   8   0.5018   0.8727   0.7401  -0.5003   0.6298  -0.3504   0.00    0.0   -0.00707   -0.00805   -0.00981   0.00000  0.00000  0.00000  0.00000  0.00000  0.00000
2046 357583.000  -2408694.8868   4698106.7596   3566698.6794   4   8   0.5018   0.8727   0.7400  -0.5004   0.6297  -0.3504   0.00    0.0    0.00456    0.01071    0.00965   0.00000  0.00000  0.00000  0.00000  0.00000  0.00000
2046 357584.000  -2408694.8959   4698106.7697   3566698.6828   4   8   0.5018   0.8727   0.7399  -0.5004   0.6296  -0.3504   0.00    0.0   -0.00636    0.00587    0.00954   0.00000  0.00000  0.00000  0.00000  0.00000  0.00000
2046 357585.000  -2408694.8895   4698106.7665   3566698.6842   4   8   0.5019   0.8727   0.7399  -0.5004   0.6296  -0.3504   0.00    0.0    0.01059   -0.02165   -0.01151   0.00000  0.00000  0.00000  0.00000  0.00000  0.00000
2046 357586.000  -2408694.8924   4698106.7768   3566698.6957   4   8   0.5019   0.8727   0.7398  -0.5004   0.6295  -0.3504   0.00    0.0   -0.00798   -0.00339   -0.01462   0.00000  0.00000  0.00000  0.00000  0.00000  0.00000
2046 357587.000  -2408694.8780   4698106.7607   3566698.6878   4   8   0.5020   0.8726   0.7397  -0.5005   0.6294  -0.3504   0.00    0.0    0.00335    0.00138    0.00508   0.00000  0.00000  0.00000  0.00000  0.00000  0.00000
2046 357588.000  -2408694.8824   4698106.7638   3566698.6848   4   8   0.5020   0.8726   0.7396  -0.5005   0.6294  -0.3504   0.00    0.0   -0.00762    0.01066    0.00686   0.00000  0.00000  0.00000  0.00000  0.00000  0.00000
2046 357589.000  -2408694.8764   4698106.7686   3566698.6911   4   8   0.5020   0.8726   0.7396  -0.5005   0.6293  -0.3504   0.00    0.0    0.00851   -0.02125    0.00303   0.00000  0.00000  0.00000  0.00000  0.00000  0.00000
2046 357590.000  -2408694.8723   4698106.7602   3566698.6976   4   8   0.5021   0.8726   0.7395  -0.5006   0.6292  -0.3504   0.00    0.0    0.00331   -0.00430   -0.01286   0.00000  0.00000  0.00000  0.00000  0.00000  0.00000
2046 357591.000  -2408694.8801   4698106.7599   3566698.6958   4   8   0.5021   0.8726   0.7394  -0.5006   0.6292  -0.3503   0.00    0.0   -0.00592    0.01920    0.00621   0.00000  0.00000  0.00000  0.00000  0.00000  0.00000
2046 357592.000  -2408694.8700   4698106.7462   3566698.7003   4   8   0.5021   0.8725   0.7393  -0.5006   0.6291  -0.3503   0.00    0.0   -0.00285    0.00337    0.00591   0.00000  0.00000  0.00000  0.00000  0.00000  0.00000
2046 357593.000  -2408694.8712   4698106.7527   3566698.7071   4   8   0.5022   0.8725   0.7392  -0.5006   0.6290  -0.3503   0.00    0.0    0.00007   -0.00896   -0.00552   0.00000  0.00000  0.00000  0.00000  0.00000  0.00000
2046 357594.000  -2408694.8685   4698106.7476   3566698.7057   4   8   0.5022   0.8725   0.7392  -0.5007   0.6289  -0.3503   0.00    0.0   -0.00630   -0.00137   -0.02072   0.00000  0.00000  0.00000  0.00000  0.00000  0.00000
2046 357595.000  -2408694.8645   4698106.7529   3566698.7114   4   8   0.5023   0.8725   0.7391  -0.5007   0.6289  -0.3503   0.00    0.0   -0.00285    0.01049    0.00938   0.00000  0.00000  0.00000  0.00000  0.00000  0.00000
2046 357596.000  -2408694.8614   4698106.7400   3566698.7013   4   8   0.5023   0.8724   0.7390  -0.5007   0.6288  -0.3503   0.00    0.0    0.01013   -0.00419   -0.01734   0.00000  0.00000  0.00000  0.00000  0.00000  0.00000
2046 357597.000  -2408694.8646   4698106.7358   3566698.7033   4   8   0.5023   0.8724   0.7389  -0.5008   0.6287  -0.3503   0.00    0.0   -0.00496    0.00262   -0.00663   0.00000  0.00000  0.00000  0.00000  0.00000  0.00000
2046 357598.000  -2408694.8615   4698106.7309   3566698.6963   4   8   0.5024   0.8724   0.7389  -0.5008   0.6287  -0.3503   0.00    0.0    0.00124   -0.01163   -0.01640   0.00000  0.00000  0.00000  0.00000  0.00000  0.00000
2046 357599.000  -2408694.8541   4698106.7231   3566698.6991   4   8   0.5024   0.8724   0.7388  -0.5008   0.6286  -0.3503   0.00    0.0    0.00502   -0.01517   -0.02578   0.00000  0.00000  0.00000  0.00000  0.00000  0.00000
2046 357600.000  -2408694.8518   4698106.7196   3566698.7016   4   8   0.5024   0.8724   0.7387  -0.5008   0.6285  -0.3503   0.00    0.0   -0.00938    0.00021   -0.00615   0.00000  0.00000  0.00000  0.00000  0.00000  0.00000
2046 357601.000  -2408694.8516   4698106.7120   3566698.6931   4   8   0.5025   0.8723   0.7386  -0.5009   0.6284  -0.3503   0.00    0.0   -0.01244   -0.00145    0.01450   0.00000  0.00000  0.00000  0.00000  0.00000  0.00000
2046 357602.000  -2408694.8419   4698106.7107   3566698.6964   4   8   0.5025   0.8723   0.7385  -0.5009   0.6284  -0.3503   0.00    0.0   -0.01268    0.00617   -0.01427   0.00000  0.00000  0.00000  0.00000  0.00000  0.00000
2046 357603.000  -2408694.8451   4698106.7169   3566698.7064   4   8   0.5026   0.8723   0.7385  -0.5009   0.6283  -0.3503   0.00    0.0    0.01259   -0.00495    0.00785   0.00000  0.00000  0.00000  0.00000  0.00000  0.00000
2046 357604.000  -2408694.8418   4698106.7142   3566698.7173   4   8   0.5026   0.8723   0.7384  -0.5010   0.6282  -0.3503   0.00    0.0    0.00474    0.01267   -0.02118   0.00000  0.00000  0.00000  0.00000  0.00000  0.00000
2046 357605.000  -2408694.8457   4698106.7163   3566698.7154   4   8   0.5026   0.8722   0.7383  -0.5010   0.6282  -0.3502   0.00    0.0   -0.00530    0.01133    0.00225   0.00000  0.00000  0.00000  0.00000  0.00000  0.00000
2046 357606.000  -2408694.8390   4698106.7189   3566698.7199   4   8   0.5027   0.8722   0.7382  -0.5010   0.6281  -0.3502   0.00    0.0    0.07854   -0.05270   -0.08354   0.00000  0.00000  0.00000  0.00000  0.00000  0.00000
2046 357607.000  -2408695.3797   4698107.5065   3566698.8951   4   9   0.4786   0.8426   0.7364  -0.4652   0.6189  -0.3390   0.00    0.0   -0.00787    0.00100    0.00790   0.00000  0.00000  0.00000  0.00000  0.00000  0.00000
2046 357608.000  -2408695.3810   4698107.5157   3566698.8992   4   9   0.4787   0.8426   0.7363  -0.4652   0.6188  -0.3389   0.00    0.0    0.00790    0.00551   -0.00851   0.00000  0.00000  0.00000  0.00000  0.00000  0.00000
2046 357609.000  -2408695.3827   4698107.5128   3566698.9070   4   9   0.4787   0.8425   0.7363  -0.4652   0.6187  -0.3389   0.00    0.0    0.00488   -0.00149   -0.00349   0.00000  0.00000  0.00000  0.00000  0.00000  0.00000
2046 357610.000  -2408695.3840   4698107.5174   3566698.9084   4   9   0.4787   0.8425   0.7362  -0.4652   0.6186  -0.3389   0.00    0.0    0.00675    0.00620    0.01105   0.00000  0.00000  0.00000  0.00000  0.00000  0.00000
2046 357611.000  -2408695.3923   4698107.5331   3566698.9184   4   9   0.4787   0.8424   0.7361  -0.4652   0.6186  -0.3389   0.00    0.0    0.00309    0.00072   -0.00872   0.00000  0.00000  0.00000  0.00000  0.00000  0.00000
2046 357612.000  -2408695.3881   4698107.5241   3566698.9132   4   9   0.4787   0.8424   0.7360  -0.4652   0.6185  -0.3389   0.00    0.0    0.01014   -0.00103   -0.00755   0.00000  0.00000  0.00000  0.00000  0.00000  0.00000
2046 357613.000  -2408695.3850   4698107.5225   3566698.9258   4   9   0.4788   0.8424   0.7360  -0.4652   0.6184  -0.3389   0.00    0.0   -0.00282   -0.00318   -0.00642   0.00000  0.00000  0.00000  0.00000  0.00000  0.00000
2046 357614.000  -2408695.3880   4698107.5229   3566698.9262   4   9   0.4788   0.8423   0.7359  -0.4653   0.6184  -0.3389   0.00    0.0    0.00251    0.00933    0.02077   0.00000  0.00000  0.00000  0.00000  0.00000  0.00000
2046 357615.000  -2408695.3704   4698107.4947   3566698.9272   4   9   0.4788   0.8423   0.7358  -0.4653   0.6183  -0.3389   0.00    0.0   -0.00198    0.00193   -0.00719   0.00000  0.00000  0.00000  0.00000  0.00000  0.00000
2046 357616.000  -2408695.3754   4698107.5045   3566698.9295   4   9   0.4788   0.8423   0.7357  -0.4653   0.6182  -0.3389   0.00    0.0    0.00323   -0.00372   -0.00402   0.00000  0.00000  0.00000  0.00000  0.00000  0.00000
2046 357617.000  -2408695.3668   4698107.4961   3566698.9431   4   9   0.4788   0.8422   0.7356  -0.4653   0.6181  -0.3389   0.00    0.0    0.06840   -0.05192   -0.08815   0.00000  0.00000  0.00000  0.00000  0.00000  0.00000
2046 357618.000  -2408695.3747   4698107.5110   3566698.9559   4   9   0.4788   0.8422   0.7356  -0.4653   0.6181  -0.3389   0.00    0.0   -0.01781    0.02085    0.01693   0.00000  0.00000  0.00000  0.00000  0.00000  0.00000
2046 357619.000  -2408695.3794   4698107.5200   3566698.9571   4   9   0.4789   0.8421   0.7355  -0.4653   0.6180  -0.3388   0.00    0.0   -0.00686   -0.00323    0.01069   0.00000  0.00000  0.00000  0.00000  0.00000  0.00000
2046 357620.000  -2408695.3874   4698107.5301   3566698.9642   4   9   0.4789   0.8421   0.7354  -0.4653   0.6179  -0.3388   0.00    0.0    0.00039   -0.01385   -0.01341   0.00000  0.00000  0.00000  0.00000  0.00000  0.00000
2046 357621.000  -2408695.3794   4698107.5139   3566698.9609   4   9   0.4789   0.8421   0.7353  -0.4653   0.6179  -0.3388   0.00    0.0    0.00709   -0.00596   -0.01905   0.00000  0.00000  0.00000  0.00000  0.00000  0.00000
2046 357622.000  -2408695.3737   4698107.5074   3566698.9659   4   9   0.4789   0.8420   0.7353  -0.4653   0.6178  -0.3388   0.00    0.0    0.00441   -0.00871   -0.00769   0.00000  0.00000  0.00000  0.00000  0.00000  0.00000
2046 357623.000  -2408695.3656   4698107.4924   3566698.9652   4   9   0.4789   0.8420   0.7352  -0.4653   0.6177  -0.3388   0.00    0.0    0.01248   -0.00560   -0.00316   0.00000  0.00000  0.00000  0.00000  0.00000  0.00000
2046 357624.000  -2408695.3575   4698107.5031   3566698.9911   4   9   0.4790   0.8419   0.7351  -0.4653   0.6176  -0.3388   0.00    0.0   -0.00646    0.00514    0.00951   0.00000  0.00000  0.00000  0.00000  0.00000  0.00000
2046 357625.000  -2408695.3531   4698107.4835   3566698.9688   4   9   0.4790   0.8419   0.7350  -0.4653   0.6176  -0.3388   0.00    0.0   -0.01825    0.00943    0.01462   0.00000  0.00000  0.00000  0.00000  0.00000  0.00000
2046 357626.000  -2408695.3423   4698107.4760   3566698.9810   4   9   0.4790   0.8419   0.7350  -0.4653   0.6175  -0.3388   0.00    0.0   -0.00412    0.01269    0.01286   0.00000  0.00000  0.00000  0.00000  0.00000  0.00000
2046 357627.000  -2408695.3356   4698107.4628   3566698.9802   4   9   0.4790   0.8418   0.7349  -0.4653   0.6174  -0.3388   0.00    0.0   -0.00660   -0.00611    0.00561   0.00000  0.00000  0.00000  0.00000  0.00000  0.00000
2046 357628.000  -2408695.3223   4698107.4488   3566698.9786   4   9   0.4790   0.8418   0.7348  -0.4653   0.6173  -0.3388   0.00    0.0   -0.01028    0.01947   -0.01022   0.00000  0.00000  0.00000  0.00000  0.00000  0.00000
2046 357629.000  -2408694.8897   4698106.8148   3566698.8513   4   8   0.5035   0.8717   0.7364  -0.5017   0.6264  -0.3501   0.00    0.0    0.00951   -0.00747    0.01715   0.00000  0.00000  0.00000  0.00000  0.00000  0.00000
2046 357630.000  -2408694.8943   4698106.8191   3566698.8504   4   8   0.5036   0.8717   0.7364  -0.5017   0.6264  -0.3501   0.00    0.0   -0.01383    0.01183    0.00263   0.00000  0.00000  0.00000  0.00000  0.00000  0.00000
2046 357631.000  -2408695.2937   4698107.3956   3566698.9865   4   9   0.4791   0.8417   0.7346  -0.4653   0.6171  -0.3387   0.00    0.0    0.01765   -0.00860    0.00933   0.00000  0.00000  0.00000  0.00000  0.00000  0.00000
2046 357632.000  -2408695.2820   4698107.3854   3566698.9758   4   9   0.4791   0.8416   0.7345  -0.4653   0.6171  -0.3387   0.00    0.0   -0.00031    0.00216   -0.00990   0.00000  0.00000  0.00000  0.00000  0.00000  0.00000
2046 357633.000  -2408694.8969   4698106.8330   3566698.8739   4   8   0.5037   0.8717   0.7361  -0.5018   0.6261  -0.3500   0.00    0.0   -0.00340   -0.00514   -0.01225   0.00000  0.00000  0.00000  0.00000  0.00000  0.00000
2046 357634.000  -2408694.8901   4698106.8129   3566698.8675   4   8   0.5037   0.8716   0.7360  -0.5018   0.6261  -0.3500   0.00    0.0   -0.00926    0.01590    0.00795   0.00000  0.00000  0.00000  0.00000  0.00000  0.00000
2046 357635.000  -2408694.9032   4698106.8254   3566698.8774   4   8   0.5038   0.8716   0.7360  -0.5019   0.6260  -0.3500   0.00    0.0   -0.00208    0.00550   -0.01128   0.00000  0.00000  0.00000  0.00000  0.00000  0.00000
2046 357636.000  -2408694.8965   4698106.8154   3566698.8786   4   8   0.5038   0.8716   0.7359  -0.5019   0.6259  -0.3500   0.00    0.0    0.00276    0.01246   -0.01779   0.00000  0.00000  0.00000  0.00000  0.00000  0.00000
2046 357637.000  -2408695.2237   4698107.2918   3566698.9716   4   9   0.4792   0.8414   0.7341  -0.4654   0.6167  -0.3387   0.00    0.0    0.00309    0.00204   -0.00931   0.00000  0.00000  0.00000  0.00000  0.00000  0.00000
2046 357638.000  -2408695.2186   4698107.2795   3566698.9770   4   9   0.4792   0.8414   0.7340  -0.4654   0.6166  -0.3387   0.00    0.0    0.01044    0.01095    0.00644   0.00000  0.00000  0.00000  0.00000  0.00000  0.00000
2046 357639.000  -2408695.1952   4698107.2428   3566698.9635   4   9   0.4792   0.8414   0.7339  -0.4654   0.6165  -0.3387   0.00    0.0    0.04024   -0.04797   -0.01116   0.00000  0.00000  0.00000  0.00000  0.00000  0.00000
2046 357640.000  -2408695.1850   4698107.2277   3566698.9663   4   9   0.4792   0.8413   0.7339  -0.4654   0.6165  -0.3387   0.00    0.0    0.01042   -0.01506    0.00667   0.00000  0.00000  0.00000  0.00000  0.00000  0.00000
2046 357641.000  -2408695.1828   4698107.2227   3566698.9755   4   9   0.4793   0.8413   0.7338  -0.4654   0.6164  -0.3387   0.00    0.0    0.00156    0.01863   -0.00005   0.00000  0.00000  0.00000  0.00000  0.00000  0.00000
2046 357642.000  -2408695.1696   4698107.2048   3566698.9641   4   9   0.4793   0.8412   0.7337  -0.4654   0.6163  -0.3386   0.00    0.0   -0.00418   -0.02465   -0.00338   0.00000  0.00000  0.00000  0.00000  0.00000  0.00000
2046 357643.000  -2408695.1633   4698107.1886   3566698.9619   4   9   0.4793   0.8412   0.7336  -0.4654   0.6163  -0.3386   0.00    0.0   -0.01094    0.01058    0.00913   0.00000  0.00000  0.00000  0.00000  0.00000  0.00000
2046 357644.000  -2408695.1644   4698107.1840   3566698.9605   4   9   0.4793   0.8412   0.7336  -0.4654   0.6162  -0.3386   0.00    0.0    0.00849    0.00176    0.00613   0.00000  0.00000  0.00000  0.00000  0.00000  0.00000
2046 357645.000  -2408695.1465   4698107.1691   3566698.9530   4   9   0.4793   0.8411   0.7335  -0.4654   0.6161  -0.3386   0.00    0.0   -0.00586   -0.00686   -0.00160   0.00000  0.00000  0.00000  0.00000  0.00000  0.00000
2046 357646.000  -2408695.1408   4698107.1465   3566698.9473   4   9   0.4794   0.8411   0.7334  -0.4654   0.6160  -0.3386   0.00    0.0   -0.00012   -0.00409   -0.00165   0.00000  0.00000  0.00000  0.00000  0.00000  0.00000
2046 357647.000  -2408695.1335   4698107.1370   3566698.9551   4   9   0.4794   0.8411   0.7333  -0.4654   0.6160  -0.3386   0.00    0.0   -0.01565    0.01498    0.01437   0.00000  0.00000  0.00000  0.00000  0.00000  0.00000
2046 357648.000  -2408695.1215   4698107.1293   3566698.9425   4   9   0.4794   0.8410   0.7332  -0.4654   0.6159  -0.3386   0.00    0.0    0.00242   -0.00556   -0.01872   0.00000  0.00000  0.00000  0.00000  0.00000  0.00000
2046 357649.000  -2408695.1190   4698107.1138   3566698.9465   4   9   0.4794   0.8410   0.7332  -0.4654   0.6158  -0.3386   0.00    0.0    0.00830   -0.00939   -0.01351   0.00000  0.00000  0.00000  0.00000  0.00000  0.00000
2046 357650.000  -2408695.1134   4698107.1083   3566698.9511   4   9   0.4794   0.8409   0.7331  -0.4654   0.6157  -0.3386   0.00    0.0    0.01305   -0.02302   -0.01098   0.00000  0.00000  0.00000  0.00000  0.00000  0.00000
2046 357651.000  -2408695.1139   4698107.1040   3566698.9490   4   9   0.4794   0.8409   0.7330  -0.4654   0.6157  -0.3386   0.00    0.0    0.01070    0.00368    0.00444   0.00000  0.00000  0.00000  0.00000  0.00000  0.00000
2046 357652.000  -2408695.1117   4698107.0981   3566698.9474   4   9   0.4795   0.8409   0.7329  -0.4654   0.6156  -0.3386   0.00    0.0    0.00683   -0.00482   -0.00411   0.00000  0.00000  0.00000  0.00000  0.00000  0.00000
2046 357653.000  -2408695.1046   4698107.0933   3566698.9418   4   9   0.4795   0.8408   0.7329  -0.4654   0.6155  -0.3385   0.00    0.0   -0.02183    0.01631    0.01108   0.00000  0.00000  0.00000  0.00000  0.00000  0.00000
2046 357654.000  -2408695.1022   4698107.0893   3566698.9412   4   9   0.4795   0.8408   0.7328  -0.4654   0.6154  -0.3385   0.00    0.0    0.01011   -0.00203    0.01301   0.00000  0.00000  0.00000  0.00000  0.00000  0.00000
2046 357655.000  -2408695.0957   4698107.0652   3566698.9320   4   9   0.4795   0.8407   0.7327  -0.4655   0.6154  -0.3385   0.00    0.0   -0.00048   -0.02007   -0.00795   0.00000  0.00000  0.00000  0.00000  0.00000  0.00000
2046 357656.000  -2408695.0938   4698107.0689   3566698.9364   4   9   0.4795   0.8407   0.7326  -0.4655   0.6153  -0.3385   0.00    0.0    0.00112   -0.01021   -0.02207   0.00000  0.00000  0.00000  0.00000  0.00000  0.00000
2046 357657.000  -2408695.0923   4698107.0693   3566698.9431   4   9   0.4796   0.8407   0.7325  -0.4655   0.6152  -0.3385   0.00    0.0    0.00424   -0.01886   -0.01504   0.00000  0.00000  0.00000  0.00000  0.00000  0.00000
2046 357658.000  -2408695.0864   4698107.0543   3566698.9370   4   9   0.4796   0.8406   0.7325  -0.4655   0.6152  -0.3385   0.00    0.0    0.00263    0.00887    0.00651   0.00000  0.00000  0.00000  0.00000  0.00000  0.00000
2046 357659.000  -2408695.0846   4698107.0514   3566698.9228   4   9   0.4796   0.8406   0.7324  -0.4655   0.6151  -0.3385   0.00    0.0    0.00333    0.00030    0.00142   0.00000  0.00000  0.00000  0.00000  0.00000  0.00000
2046 357660.000  -2408695.0844   4698107.0524   3566698.9212   4   9   0.4796   0.8406   0.7323  -0.4655   0.6150  -0.3385   0.00    0.0    0.00154   -0.02061    0.00645   0.00000  0.00000  0.00000  0.00000  0.00000  0.00000
2046 357661.000  -2408695.0684   4698107.0361   3566698.9176   4   9   0.4796   0.8405   0.7322  -0.4655   0.6149  -0.3385   0.00    0.0   -0.00366    0.01465   -0.01703   0.00000  0.00000  0.00000  0.00000  0.00000  0.00000
2046 357662.000  -2408695.0721   4698107.0311   3566698.9119   4   9   0.4797   0.8405   0.7322  -0.4655   0.6149  -0.3385   0.00    0.0   -0.00433    0.00993   -0.00197   0.00000  0.00000  0.00000  0.00000  0.00000  0.00000
2046 357663.000  -2408695.0669   4698107.0366   3566698.9122   4   9   0.4797   0.8404   0.7321  -0.4655   0.6148  -0.3385   0.00    0.0    0.00116    0.00077   -0.00012   0.00000  0.00000  0.00000  0.00000  0.00000  0.00000
2046 357664.000  -2408695.0652   4698107.0326   3566698.9191   4   9   0.4797   0.8404   0.7320  -0.4655   0.6147  -0.3384   0.00    0.0    0.00157   -0.00078    0.00727   0.00000  0.00000  0.00000  0.00000  0.00000  0.00000
2046 357665.000  -2408695.0544   4698107.0220   3566698.9015   4   9   0.4797   0.8404   0.7319  -0.4655   0.6146  -0.3384   0.00    0.0    0.00972   -0.00728   -0.01370   0.00000  0.00000  0.00000  0.00000  0.00000  0.00000
2046 357666.000  -2408695.0561   4698107.0208   3566698.9088   4   9   0.4797   0.8403   0.7318  -0.4655   0.6146  -0.3384   0.00    0.0   -0.00399   -0.00973   -0.00090   0.00000  0.00000  0.00000  0.00000  0.00000  0.00000
2046 357667.000  -2408695.0499   4698107.0220   3566698.9079   4   9   0.4797   0.8403   0.7318  -0.4655   0.6145  -0.3384   0.00    0.0   -0.00021   -0.00084    0.00774   0.00000  0.00000  0.00000  0.00000  0.00000  0.00000
2046 357668.000  -2408695.0472   4698107.0371   3566698.9176   4   9   0.4798   0.8403   0.7317  -0.4655   0.6144  -0.3384   0.00    0.0    0.00242    0.01144   -0.01191   0.00000  0.00000  0.00000  0.00000  0.00000  0.00000
2046 357669.000  -2408695.0415   4698107.0337   3566698.9145   4   9   0.4798   0.8402   0.7316  -0.4655   0.6144  -0.3384   0.00    0.0    0.00972   -0.00589    0.00352   0.00000  0.00000  0.00000  0.00000  0.00000  0.00000
2046 357670.000  -2408695.0307   4698107.0236   3566698.9073   4   9   0.4798   0.8402   0.7315  -0.4655   0.6143  -0.3384   0.00    0.0    0.00772   -0.01486   -0.01575   0.00000  0.00000  0.00000  0.00000  0.00000  0.00000
2046 357671.000  -2408695.0291   4698107.0059   3566698.9003   4   9   0.4798   0.8401   0.7314  -0.4655   0.6142  -0.3384   0.00    0.0   -0.00079   -0.00846    0.00853   0.00000  0.00000  0.00000  0.00000  0.00000  0.00000
2046 357672.000  -2408695.0188   4698106.9980   3566698.8971   4   9   0.4798   0.8401   0.7314  -0.4655   0.6141  -0.3384   0.00    0.0    0.00583    0.00420    0.01316   0.00000  0.00000  0.00000  0.00000  0.00000  0.00000
2046 357673.000  -2408695.0182   4698106.9928   3566698.9006   4   9   0.4799   0.8401   0.7313  -0.4655   0.6141  -0.3384   0.00    0.0    0.01275   -0.01231    0.00674   0.00000  0.00000  0.00000  0.00000  0.00000  0.00000
2046 357674.000  -2408695.0096   4698106.9831   3566698.8921   4   9   0.4799   0.8400   0.7312  -0.4655   0.6140  -0.3384   0.00    0.0    0.00357   -0.00289    0.01073   0.00000  0.00000  0.00000  0.00000  0.00000  0.00000
2046 357675.000  -2408694.9986   4698106.9725   3566698.8869   4   9   0.4799   0.8400   0.7311  -0.4656   0.6139  -0.3383   0.00    0.0    0.00519    0.00917    0.00254   0.00000  0.00000  0.00000  0.00000  0.00000  0.00000
2046 357676.000  -2408694.9965   4698106.9717   3566698.8821   4   9   0.4799   0.8399   0.7311  -0.4656   0.6138  -0.3383   0.00    0.0   -0.01648    0.02348    0.02574   0.00000  0.00000  0.00000  0.00000  0.00000  0.00000
2046 357677.000  -2408694.9858   4698106.9511   3566698.8733   4   9   0.4799   0.8399   0.7310  -0.4656   0.6138  -0.3383   0.00    0.0   -0.00141    0.00189   -0.00276   0.00000  0.00000  0.00000  0.00000  0.00000  0.00000
2046 357678.000  -2408694.9816   4698106.9458   3566698.8673   4   9   0.4800   0.8399   0.7309  -0.4656   0.6137  -0.3383   0.00    0.0    0.00442   -0.00695   -0.00171   0.00000  0.00000  0.00000  0.00000  0.00000  0.00000
2046 357679.000  -2408694.9682   4698106.9374   3566698.8714   4   9   0.4800   0.8398   0.7308  -0.4656   0.6136  -0.3383   0.00    0.0   -0.00322   -0.00036   -0.01855   0.00000  0.00000  0.00000  0.00000  0.00000  0.00000
2046 357680.000  -2408694.9640   4698106.9352   3566698.8700   4   9   0.4800   0.8398   0.7307  -0.4656   0.6135  -0.3383   0.00    0.0   -0.01030    0.00139   -0.00338   0.00000  0.00000  0.00000  0.00000  0.00000  0.00000
2046 357681.000  -2408694.9502   4698106.9200   3566698.8495   4   9   0.4800   0.8398   0.7307  -0.4656   0.6135  -0.3383   0.00    0.0   -0.00360    0.00015   -0.01181   0.00000  0.00000  0.00000  0.00000  0.00000  0.00000
2046 357682.000  -2408694.9394   4698106.9019   3566698.8529   4   9   0.4800   0.8397   0.7306  -0.4656   0.6134  -0.3383   0.00    0.0   -0.00294   -0.01191   -0.01543   0.00000  0.00000  0.00000  0.00000  0.00000  0.00000
2046 357683.000  -2408694.9301   4698106.8986   3566698.8490   4   9   0.4800   0.8397   0.7305  -0.4656   0.6133  -0.3383   0.00    0.0    0.00805   -0.02216   -0.02042   0.00000  0.00000  0.00000  0.00000  0.00000  0.00000
2046 357684.000  -2408694.9192   4698106.8884   3566698.8486   4   9   0.4801   0.8396   0.7304  -0.4656   0.6132  -0.3383   0.00    0.0    0.01654   -0.00982    0.00300   0.00000  0.00000  0.00000  0.00000  0.00000  0.00000
2046 357685.000  -2408694.9026   4698106.8775   3566698.8478   4   9   0.4801   0.8396   0.7304  -0.4656   0.6132  -0.3382   0.00    0.0    0.01670   -0.00631   -0.00699   0.00000  0.00000  0.00000  0.00000  0.00000  0.00000
2046 357686.000  -2408694.8945   4698106.8678   3566698.8352   4   9   0.4801   0.8396   0.7303  -0.4656   0.6131  -0.3382   0.00    0.0    0.01402   -0.00899   -0.01496   0.00000  0.00000  0.00000  0.00000  0.00000  0.00000
2046 357687.000  -2408694.8904   4698106.8606   3566698.8430   4   9   0.4801   0.8395   0.7302  -0.4656   0.6130  -0.3382   0.00    0.0    0.01798   -0.00660   -0.01751   0.00000  0.00000  0.00000  0.00000  0.00000  0.00000
2046 357688.000  -2408694.8852   4698106.8555   3566698.8367   4   9   0.4801   0.8395   0.7301  -0.4656   0.6130  -0.3382   0.00    0.0   -0.00471   -0.00773   -0.00179   0.00000  0.00000  0.00000  0.00000  0.00000  0.00000
2046 357689.000  -2408694.8030   4698106.7425   3566698.8185   4   8   0.5058   0.8705   0.7317  -0.5035   0.6221  -0.3496   0.00    0.0   -0.00268   -0.01432    0.00112   0.00000  0.00000  0.00000  0.00000  0.00000  0.00000
2046 357690.000  -2408694.8028   4698106.7440   3566698.8181   4   8   0.5059   0.8705   0.7316  -0.5035   0.6220  -0.3496   0.00    0.0    0.00488   -0.01343   -0.01467   0.00000  0.00000  0.00000  0.00000  0.00000  0.00000
2046 357691.000  -2408694.7965   4698106.7329   3566698.8153   4   8   0.5059   0.8705   0.7315  -0.5035   0.6219  -0.3496   0.00    0.0   -0.00312   -0.00747   -0.00481   0.00000  0.00000  0.00000  0.00000  0.00000  0.00000
2046 357692.000  -2408694.7904   4698106.7364   3566698.8086   4   8   0.5059   0.8705   0.7315  -0.5035   0.6218  -0.3496   0.00    0.0   -0.00828    0.00131   -0.00401   0.00000  0.00000  0.00000  0.00000  0.00000  0.00000
2046 357693.000  -2408694.7850   4698106.7263   3566698.8059   4   8   0.5060   0.8704   0.7314  -0.5036   0.6218  -0.3496   0.00    0.0    0.00935   -0.00819   -0.00478   0.00000  0.00000  0.00000  0.00000  0.00000  0.00000
2046 357694.000  -2408694.7986   4698106.7535   3566698.8304   4   8   0.5060   0.8704   0.7313  -0.5036   0.6217  -0.3495   0.00    0.0   -0.01781    0.02963    0.00302   0.00000  0.00000  0.00000  0.00000  0.00000  0.00000
2046 357695.000  -2408694.7943   4698106.7469   3566698.8279   4   8   0.5061   0.8704   0.7312  -0.5036   0.6216  -0.3495   0.00    0.0    0.00093   -0.00911   -0.01471   0.00000  0.00000  0.00000  0.00000  0.00000  0.00000
2046 357696.000  -2408694.7875   4698106.7473   3566698.8275   4   8   0.5061   0.8704   0.7311  -0.5037   0.6215  -0.3495   0.00    0.0   -0.00943    0.00258    0.00859   0.00000  0.00000  0.00000  0.00000  0.00000  0.00000
2046 357697.000  -2408694.7918   4698106.7579   3566698.8450   4   8   0.5061   0.8704   0.7311  -0.5037   0.6215  -0.3495   0.00    0.0   -0.00190   -0.00858   -0.00615   0.00000  0.00000  0.00000  0.00000  0.00000  0.00000
2046 357698.000  -2408694.7962   4698106.7682   3566698.8407   4   8   0.5062   0.8703   0.7310  -0.5037   0.6214  -0.3495   0.00    0.0    0.00741   -0.01212    0.00874   0.00000  0.00000  0.00000  0.00000  0.00000  0.00000
2046 357699.000  -2408694.7895   4698106.7617   3566698.8371   4   8   0.5062   0.8703   0.7309  -0.5037   0.6213  -0.3495   0.00    0.0   -0.00589    0.00967   -0.00983   0.00000  0.00000  0.00000  0.00000  0.00000  0.00000
2046 357700.000  -2408694.7923   4698106.7639   3566698.8489   4   8   0.5063   0.8703   0.7308  -0.5038   0.6213  -0.3495   0.00    0.0   -0.01033    0.00595   -0.00995   0.00000  0.00000  0.00000  0.00000  0.00000  0.00000
2046 357701.000  -2408694.7841   4698106.7588   3566698.8470   4   8   0.5063   0.8703   0.7307  -0.5038   0.6212  -0.3495   0.00    0.0    0.00429    0.00140   -0.00487   0.00000  0.00000  0.00000  0.00000  0.00000  0.00000
2046 357702.000  -2408694.7804   4698106.7526   3566698.8433   4   8   0.5063   0.8703   0.7307  -0.5038   0.6211  -0.3495   0.00    0.0   -0.00648   -0.01837   -0.01501   0.00000  0.00000  0.00000  0.00000  0.00000  0.00000
2046 357703.000  -2408694.7768   4698106.7539   3566698.8380   4   8   0.5064   0.8702   0.7306  -0.5039   0.6210  -0.3495   0.00    0.0    0.01184    0.00378    0.00841   0.00000  0.00000  0.00000  0.00000  0.00000  0.00000
2046 357704.000  -2408694.7831   4698106.7626   3566698.8337   4   8   0.5064   0.8702   0.7305  -0.5039   0.6210  -0.3495   0.00    0.0   -0.01787    0.00548    0.01148   0.00000  0.00000  0.00000  0.00000  0.00000  0.00000
2046 357705.000  -2408694.7820   4698106.7714   3566698.8552   4   8   0.5064   0.8702   0.7304  -0.5039   0.6209  -0.3494   0.00    0.0    0.00059   -0.00581    0.00805   0.00000  0.00000  0.00000  0.00000  0.00000  0.00000
2046 357706.000  -2408694.7727   4698106.7706   3566698.8476   4   8   0.5065   0.8702   0.7303  -0.5040   0.6208  -0.3494   0.00    0.0    0.00592    0.01365   -0.00762   0.00000  0.00000  0.00000  0.00000  0.00000  0.00000
2046 357707.000  -2408694.7778   4698106.7744   3566698.8502   4   8   0.5065   0.8702   0.7303  -0.5040   0.6207  -0.3494   0.00    0.0    0.00121   -0.01085   -0.00617   0.00000  0.00000  0.00000  0.00000  0.00000  0.00000
2046 357708.000  -2408694.7697   4698106.7661   3566698.8572   4   8   0.5066   0.8701   0.7302  -0.5040   0.6207  -0.3494   0.00    0.0    0.00011    0.00335   -0.01297   0.00000  0.00000  0.00000  0.00000  0.00000  0.00000
2046 357709.000  -2408694.7708   4698106.7619   3566698.8552   4   8   0.5066   0.8701   0.7301  -0.5040   0.6206  -0.3494   0.00    0.0   -0.00234   -0.00283   -0.00075   0.00000  0.00000  0.00000  0.00000  0.00000  0.00000
2046 357710.000  -2408694.7748   4698106.7688   3566698.8615   4   8   0.5066   0.8701   0.7300  -0.5041   0.6205  -0.3494   0.00    0.0   -0.00155    0.01748    0.01316   0.00000  0.00000  0.00000  0.00000  0.00000  0.00000
2046 357711.000  -2408694.7632   4698106.7613   3566698.8544   4   8   0.5067   0.8701   0.7299  -0.5041   0.6204  -0.3494   0.00    0.0   -0.00766    0.00422    0.00287   0.00000  0.00000  0.00000  0.00000  0.00000  0.00000
2046 357712.000  -2408694.7598   4698106.7626   3566698.8587   4   8   0.5067   0.8701   0.7299  -0.5041   0.6204  -0.3494   0.00    0.0   -0.01201    0.00644    0.00105   0.00000  0.00000  0.00000  0.00000  0.00000  0.00000
2046 357713.000  -2408694.7577   4698106.7626   3566698.8653   4   8   0.5068   0.8700   0.7298  -0.5042   0.6203  -0.3494   0.00    0.0    0.01582    0.01224    0.04295   0.00000  0.00000  0.00000  0.00000  0.00000  0.00000
2046 357714.000  -2408694.7529   4698106.7608   3566698.8694   4   8   0.5068   0.8700   0.7297  -0.5042   0.6202  -0.3494   0.00    0.0   -0.01660    0.02210   -0.00884   0.00000  0.00000  0.00000  0.00000  0.00000  0.00000
2046 357715.000  -2408694.7600   4698106.7665   3566698.8772   4   8   0.5068   0.8700   0.7296  -0.5042   0.6201  -0.3494   0.00    0.0   -0.01750   -0.00502    0.00239   0.00000  0.00000  0.00000  0.00000  0.00000  0.00000
2046 357716.000  -2408694.7601   4698106.7618   3566698.8637   4   8   0.5069   0.8700   0.7295  -0.5043   0.6201  -0.3493   0.00    0.0   -0.01477    0.01192   -0.00126   0.00000  0.00000  0.00000  0.00000  0.00000  0.00000
2046 357717.000  -2408694.7561   4698106.7666   3566698.8817   4   8   0.5069   0.8700   0.7295  -0.5043   0.6200  -0.3493   0.00    0.0   -0.02324    0.02794   -0.00916   0.00000  0.00000  0.00000  0.00000  0.00000  0.00000
2046 357718.000  -2408694.7684   4698106.7810   3566698.8793   4   8   0.5070   0.8700   0.7294  -0.5043   0.6199  -0.3493   0.00    0.0    0.00223    0.01008   -0.00763   0.00000  0.00000  0.00000  0.00000  0.00000  0.00000
