% program   : GINav v0.1.0
% obs start : 2019/03/28 03:17:40.0
% obs end   : 2019/03/28 03:59:50.0
% mode      : PPP Kinematic
% system    : GPS GLONASS 
% nfreqs    : 2
% elev mask : 10.0 deg
% ephemeris : precise
% ionos opt : iono-free LC
% trops opt : ZTD estimation
%
%  GPST              x-ecef(m)      y-ecef(m)      z-ecef(m)   Q  ns   sdx(m)   sdy(m)   sdz(m)  sdxy(m)  sdyz(m)  sdzx(m) age(s)  ratio    vx(m/s)    vy(m/s)    vz(m/s)      sdvx     sdvy     sdvz    sdvxy    sdvyz    sdvzx
2046 357460.000  -2408693.6096   4698106.2396   3566699.2092   6   7   2.6158   6.4459   3.9602  -3.1729   4.0452  -2.0361   0.00    0.0    0.01883   -0.02699   -0.02071   0.00000  0.00000  0.00000  0.00000  0.00000  0.00000
2046 357461.000  -2408693.7894   4698106.5998   3566699.1603   6   8   1.8557   4.5744   2.8085  -2.2552   2.8733  -1.4488   0.00    0.0   -0.00357    0.00642   -0.01782   0.00000  0.00000  0.00000  0.00000  0.00000  0.00000
2046 357462.000  -2408693.9238   4698106.9191   3566699.1280   6   8   1.5179   3.7423   2.2964  -1.8463   2.3516  -1.1870   0.00    0.0   -0.00860    0.02527    0.01012   0.00000  0.00000  0.00000  0.00000  0.00000  0.00000
2046 357463.000  -2408693.9768   4698106.8665   3566699.0011   6   9   1.2842   2.7989   1.9365  -1.4461   1.8450  -0.9638   0.00    0.0   -0.00035    0.00601    0.00967   0.00000  0.00000  0.00000  0.00000  0.00000  0.00000
2046 357464.000  -2408694.0222   4698106.8438   3566698.9013   6   9   1.1395   2.3464   1.7154  -1.2419   1.5851  -0.8416   0.00    0.0    0.01195   -0.01747   -0.01323   0.00000  0.00000  0.00000  0.00000  0.00000  0.00000
2046 357465.000  -2408694.0844   4698106.9263   3566698.8164   6  11   1.0326   2.0123   1.5579  -1.0907   1.4202  -0.7608   0.00    0.0    0.00455   -0.02344   -0.00473   0.00000  0.00000  0.00000  0.00000  0.00000  0.00000
2046 357466.000  -2408694.1256   4698106.9763   3566698.7323   6  11   0.9528   1.7972   1.4376  -0.9891   1.3013  -0.7012   0.00    0.0   -0.01394    0.01743    0.01801   0.00000  0.00000  0.00000  0.00000  0.00000  0.00000
2046 357467.000  -2408694.1563   4698107.0010   3566698.6706   6  11   0.8897   1.6424   1.3415  -0.9135   1.2093  -0.6544   0.00    0.0    0.00160   -0.00312    0.00555   0.00000  0.00000  0.00000  0.00000  0.00000  0.00000
2046 357468.000  -2408694.1835   4698107.0090   3566698.6172   6  11   0.8381   1.5234   1.2624  -0.8542   1.1350  -0.6164   0.00    0.0   -0.02102    0.03285    0.02727   0.00000  0.00000  0.00000  0.00000  0.00000  0.00000
2046 357469.000  -2408694.1686   4698107.0027   3566698.6108   6  12   0.7937   1.4279   1.1953  -0.8054   1.0734  -0.5857   0.00    0.0   -0.02554    0.02442    0.03159   0.00000  0.00000  0.00000  0.00000  0.00000  0.00000
2046 357470.000  -2408694.1647   4698106.9997   3566698.6118   6  12   0.7562   1.3490   1.1378  -0.7647   1.0209  -0.5591   0.00    0.0   -0.00312    0.00240   -0.00325   0.00000  0.00000  0.00000  0.00000  0.00000  0.00000
2046 357471.000  -2408694.1643   4698106.9983   3566698.6067   6  12   0.7238   1.2824   1.0878  -0.7301   0.9755  -0.5359   0.00    0.0   -0.00348    0.02250    0.00444   0.00000  0.00000  0.00000  0.00000  0.00000  0.00000
2046 357472.000  -2408694.1677   4698106.9965   3566698.5976   6  12   0.6954   1.2250   1.0436  -0.7001   0.9356  -0.5154   0.00    0.0   -0.02537    0.03345    0.03407   0.00000  0.00000  0.00000  0.00000  0.00000  0.00000
2046 357473.000  -2408694.1680   4698106.9841   3566698.5746   6  12   0.6702   1.1749   1.0043  -0.6737   0.9003  -0.4972   0.00    0.0    0.01354    0.01458    0.00798   0.00000  0.00000  0.00000  0.00000  0.00000  0.00000
2046 357474.000  -2408694.1627   4698106.9624   3566698.5418   6  12   0.6477   1.1307   0.9689  -0.6503   0.8686  -0.4809   0.00    0.0    0.01554   -0.00288   -0.00143   0.00000  0.00000  0.00000  0.00000  0.00000  0.00000
2046 357475.000  -2408694.1572   4698106.9386   3566698.5036   6  12   0.6274   1.0912   0.9369  -0.6293   0.8401  -0.4661   0.00    0.0    0.00580   -0.00990   -0.00334   0.00000  0.00000  0.00000  0.00000  0.00000  0.00000
2046 357476.000  -2408694.1496   4698106.9140   3566698.4682   6  12   0.6090   1.0557   0.9077  -0.6103   0.8141  -0.4526   0.00    0.0   -0.00614    0.01984    0.01571   0.00000  0.00000  0.00000  0.00000  0.00000  0.00000
2046 357477.000  -2408694.1447   4698106.8877   3566698.4290   6  12   0.5921   1.0235   0.8808  -0.5931   0.7903  -0.4403   0.00    0.0    0.00532   -0.01369   -0.00634   0.00000  0.00000  0.00000  0.00000  0.00000  0.00000
2046 357478.000  -2408694.1361   4698106.8588   3566698.3898   6  12   0.5767   0.9942   0.8561  -0.5774   0.7685  -0.4290   0.00    0.0   -0.00942   -0.02162   -0.00493   0.00000  0.00000  0.00000  0.00000  0.00000  0.00000
2046 357479.000  -2408694.1303   4698106.8320   3566698.3558   6  12   0.5624   0.9673   0.8331  -0.5629   0.7483  -0.4185   0.00    0.0   -0.01433   -0.01226   -0.00164   0.00000  0.00000  0.00000  0.00000  0.00000  0.00000
2046 357480.000  -2408694.1257   4698106.7983   3566698.3162   6  12   0.5492   0.9425   0.8118  -0.5495   0.7295  -0.4088   0.00    0.0   -0.01653    0.03790    0.02431   0.00000  0.00000  0.00000  0.00000  0.00000  0.00000
2046 357481.000  -2408694.1197   4698106.7712   3566698.2840   6  12   0.5370   0.9195   0.7918  -0.5371   0.7120  -0.3998   0.00    0.0   -0.00510    0.01110    0.01168   0.00000  0.00000  0.00000  0.00000  0.00000  0.00000
2046 357482.000  -2408694.1169   4698106.7486   3566698.2556   6  12   0.5255   0.8982   0.7731  -0.5256   0.6957  -0.3914   0.00    0.0    0.00789   -0.00465   -0.00271   0.00000  0.00000  0.00000  0.00000  0.00000  0.00000
2046 357483.000  -2408694.1141   4698106.7235   3566698.2199   6  12   0.5148   0.8783   0.7555  -0.5148   0.6804  -0.3834   0.00    0.0   -0.00009   -0.00891   -0.00448   0.00000  0.00000  0.00000  0.00000  0.00000  0.00000
2046 357484.000  -2408694.1082   4698106.6981   3566698.1860   6  12   0.5048   0.8597   0.7389  -0.5047   0.6659  -0.3760   0.00    0.0   -0.01982    0.01560    0.00531   0.00000  0.00000  0.00000  0.00000  0.00000  0.00000
2046 357485.000  -2408694.0997   4698106.6723   3566698.1550   6  12   0.4953   0.8422   0.7233  -0.4953   0.6523  -0.3690   0.00    0.0   -0.01521    0.00091    0.00270   0.00000  0.00000  0.00000  0.00000  0.00000  0.00000
2046 357486.000  -2408694.0959   4698106.6577   3566698.1371   6  12   0.4864   0.8258   0.7085  -0.4864   0.6395  -0.3624   0.00    0.0    0.02712   -0.04192   -0.02637   0.00000  0.00000  0.00000  0.00000  0.00000  0.00000
2046 357487.000  -2408694.0931   4698106.6480   3566698.1217   6  12   0.4780   0.8103   0.6944  -0.4780   0.6273  -0.3561   0.00    0.0    0.00669   -0.00103   -0.00142   0.00000  0.00000  0.00000  0.00000  0.00000  0.00000
2046 357488.000  -2408694.0899   4698106.6336   3566698.1030   6  12   0.4701   0.7957   0.6810  -0.4700   0.6158  -0.3502   0.00    0.0   -0.00384    0.01850    0.03459   0.00000  0.00000  0.00000  0.00000  0.00000  0.00000
2046 357489.000  -2408694.0879   4698106.6182   3566698.0810   6  12   0.4625   0.7818   0.6683  -0.4625   0.6048  -0.3446   0.00    0.0    0.00423   -0.00531   -0.00933   0.00000  0.00000  0.00000  0.00000  0.00000  0.00000
2046 357490.000  -2408694.0824   4698106.6050   3566698.0622   6  12   0.4554   0.7687   0.6562  -0.4554   0.5944  -0.3392   0.00    0.0    0.00080    0.01149    0.01585   0.00000  0.00000  0.00000  0.00000  0.00000  0.00000
2046 357491.000  -2408694.0748   4698106.5864   3566698.0393   6  12   0.4486   0.7562   0.6446  -0.4486   0.5844  -0.3341   0.00    0.0    0.00092   -0.00369    0.00120   0.00000  0.00000  0.00000  0.00000  0.00000  0.00000
2046 357492.000  -2408694.0677   4698106.5672   3566698.0176   6  12   0.4421   0.7444   0.6335  -0.4422   0.5749  -0.3293   0.00    0.0   -0.00530    0.01689    0.00825   0.00000  0.00000  0.00000  0.00000  0.00000  0.00000
2046 357493.000  -2408694.0589   4698106.5479   3566697.9966   6  12   0.4359   0.7330   0.6229  -0.4360   0.5659  -0.3246   0.00    0.0   -0.02461    0.00771    0.02274   0.00000  0.00000  0.00000  0.00000  0.00000  0.00000
2046 357494.000  -2408694.0507   4698106.5268   3566697.9705   6  12   0.4299   0.7222   0.6128  -0.4301   0.5572  -0.3202   0.00    0.0   -0.00759   -0.01238    0.00092   0.00000  0.00000  0.00000  0.00000  0.00000  0.00000
2046 357495.000  -2408694.0436   4698106.5061   3566697.9426   6  12   0.4243   0.7119   0.6030  -0.4245   0.5489  -0.3160   0.00    0.0   -0.01390    0.01955    0.01853   0.00000  0.00000  0.00000  0.00000  0.00000  0.00000
2046 357496.000  -2408694.0375   4698106.4872   3566697.9217   6  12   0.4188   0.7020   0.5935  -0.4192   0.5408  -0.3119   0.00    0.0   -0.01795    0.00497    0.00203   0.00000  0.00000  0.00000  0.00000  0.00000  0.00000
2046 357497.000  -2408694.0271   4698106.4653   3566697.9011   6  12   0.4136   0.6924   0.5843  -0.4140   0.5329  -0.3079   0.00    0.0   -0.00295    0.01576    0.02548   0.00000  0.00000  0.00000  0.00000  0.00000  0.00000
2046 357498.000  -2408694.0172   4698106.4445   3566697.8881   6  12   0.4085   0.6832   0.5753  -0.4090   0.5253  -0.3041   0.00    0.0   -0.00251    0.01430    0.02768   0.00000  0.00000  0.00000  0.00000  0.00000  0.00000
2046 357499.000  -2408694.0058   4698106.4200   3566697.8735   6  13   0.4036   0.6741   0.5666  -0.4041   0.5179  -0.3004   0.00    0.0   -0.01446    0.02805    0.02408   0.00000  0.00000  0.00000  0.00000  0.00000  0.00000
2046 357500.000  -2408693.9925   4698106.3889   3566697.8601   6  13   0.3989   0.6653   0.5581  -0.3993   0.5108  -0.2968   0.00    0.0   -0.02530    0.02279    0.01949   0.00000  0.00000  0.00000  0.00000  0.00000  0.00000
2046 357501.000  -2408693.9784   4698106.3565   3566697.8475   6  13   0.3944   0.6569   0.5498  -0.3948   0.5038  -0.2934   0.00    0.0   -0.02175    0.02134    0.01631   0.00000  0.00000  0.00000  0.00000  0.00000  0.00000
2046 357502.000  -2408693.9661   4698106.3289   3566697.8383   6  13   0.3900   0.6488   0.5418  -0.3904   0.4971  -0.2900   0.00    0.0   -0.01013    0.01409    0.01444   0.00000  0.00000  0.00000  0.00000  0.00000  0.00000
2046 357503.000  -2408693.9575   4698106.3043   3566697.8276   6  13   0.3858   0.6410   0.5339  -0.3862   0.4905  -0.2868   0.00    0.0   -0.00932    0.02859    0.02554   0.00000  0.00000  0.00000  0.00000  0.00000  0.00000
2046 357504.000  -2408693.9498   4698106.2834   3566697.8215   6  13   0.3817   0.6334   0.5263  -0.3821   0.4841  -0.2836   0.00    0.0   -0.01032    0.02015    0.00671   0.00000  0.00000  0.00000  0.00000  0.00000  0.00000
2046 357505.000  -2408693.9416   4698106.2571   3566697.8141   6  13   0.3778   0.6261   0.5188  -0.3781   0.4780  -0.2806   0.00    0.0   -0.01782    0.01507    0.00493   0.00000  0.00000  0.00000  0.00000  0.00000  0.00000
2046 357506.000  -2408693.9335   4698106.2335   3566697.8073   6  13   0.3740   0.6190   0.5116  -0.3743   0.4720  -0.2777   0.00    0.0   -0.00395    0.01842    0.01502   0.00000  0.00000  0.00000  0.00000  0.00000  0.00000
2046 357507.000  -2408693.9256   4698106.2125   3566697.8036   6  13   0.3703   0.6122   0.5046  -0.3707   0.4662  -0.2748   0.00    0.0   -0.01072    0.01848    0.01744   0.00000  0.00000  0.00000  0.00000  0.00000  0.00000
2046 357508.000  -2408693.9187   4698106.1976   3566697.8059   6  13   0.3667   0.6056   0.4977  -0.3671   0.4605  -0.2721   0.00    0.0   -0.01287    0.03345    0.01620   0.00000  0.00000  0.00000  0.00000  0.00000  0.00000
2046 357509.000  -2408693.9157   4698106.1901   3566697.8142   6  13   0.3633   0.5992   0.4911  -0.3637   0.4550  -0.2694   0.00    0.0    0.00467    0.00797   -0.01109   0.00000  0.00000  0.00000  0.00000  0.00000  0.00000
2046 357510.000  -2408693.9149   4698106.1889   3566697.8239   6  13   0.3599   0.5930   0.4846  -0.3603   0.4497  -0.2668   0.00    0.0   -0.00799    0.01638    0.00051   0.00000  0.00000  0.00000  0.00000  0.00000  0.00000
2046 357511.000  -2408693.9156   4698106.1884   3566697.8331   6  13   0.3567   0.5870   0.4783  -0.3571   0.4445  -0.2643   0.00    0.0   -0.00313    0.01054    0.00892   0.00000  0.00000  0.00000  0.00000  0.00000  0.00000
2046 357512.000  -2408693.9172   4698106.1849   3566697.8401   6  13   0.3535   0.5811   0.4722  -0.3540   0.4395  -0.2618   0.00    0.0   -0.01477    0.01192    0.02139   0.00000  0.00000  0.00000  0.00000  0.00000  0.00000
2046 357513.000  -2408693.9153   4698106.1807   3566697.8467   6  13   0.3505   0.5755   0.4663  -0.3510   0.4347  -0.2595   0.00    0.0    0.00063    0.00214    0.00505   0.00000  0.00000  0.00000  0.00000  0.00000  0.00000
2046 357514.000  -2408693.9127   4698106.1751   3566697.8536   6  13   0.3475   0.5700   0.4605  -0.3481   0.4300  -0.2572   0.00    0.0   -0.02559    0.04547    0.02388   0.00000  0.00000  0.00000  0.00000  0.00000  0.00000
2046 357515.000  -2408693.9107   4698106.1693   3566697.8584   6  13   0.3446   0.5647   0.4549  -0.3452   0.4254  -0.2550   0.00    0.0   -0.01877    0.01204    0.01333   0.00000  0.00000  0.00000  0.00000  0.00000  0.00000
2046 357516.000  -2408693.9089   4698106.1692   3566697.8717   6  13   0.3418   0.5596   0.4495  -0.3425   0.4210  -0.2528   0.00    0.0    0.00318   -0.00249   -0.01685   0.00000  0.00000  0.00000  0.00000  0.00000  0.00000
2046 357517.000  -2408693.9091   4698106.1702   3566697.8833   6  13   0.3391   0.5546   0.4442  -0.3398   0.4167  -0.2508   0.00    0.0    0.00129    0.01653    0.01606   0.00000  0.00000  0.00000  0.00000  0.00000  0.00000
2046 357518.000  -2408693.9089   4698106.1663   3566697.8872   6  13   0.3365   0.5498   0.4391  -0.3372   0.4126  -0.2487   0.00    0.0   -0.01849    0.02688    0.02627   0.00000  0.00000  0.00000  0.00000  0.00000  0.00000
2046 357519.000  -2408693.9058   4698106.1582   3566697.8873   6  13   0.3339   0.5451   0.4341  -0.3347   0.4085  -0.2468   0.00    0.0    0.01025   -0.01860   -0.00805   0.00000  0.00000  0.00000  0.00000  0.00000  0.00000
2046 357520.000  -2408693.9023   4698106.1490   3566697.8861   6  13   0.3314   0.5406   0.4293  -0.3323   0.4046  -0.2449   0.00    0.0   -0.02104    0.02731    0.02625   0.00000  0.00000  0.00000  0.00000  0.00000  0.00000
2046 357521.000  -2408693.8997   4698106.1437   3566697.8851   6  13   0.3290   0.5361   0.4247  -0.3299   0.4008  -0.2431   0.00    0.0   -0.00863    0.00970    0.02157   0.00000  0.00000  0.00000  0.00000  0.00000  0.00000
2046 357522.000  -2408693.8985   4698106.1354   3566697.8833   6  13   0.3266   0.5318   0.4202  -0.3276   0.3972  -0.2413   0.00    0.0   -0.00891    0.00909    0.02156   0.00000  0.00000  0.00000  0.00000  0.00000  0.00000
2046 357523.000  -2408693.8960   4698106.1221   3566697.8758   6  13   0.3243   0.5277   0.4158  -0.3254   0.3936  -0.2395   0.00    0.0   -0.00291    0.00565   -0.00171   0.00000  0.00000  0.00000  0.00000  0.00000  0.00000
2046 357524.000  -2408693.8953   4698106.1137   3566697.8732   6  13   0.3220   0.5236   0.4116  -0.3232   0.3902  -0.2379   0.00    0.0   -0.00081    0.01820    0.02418   0.00000  0.00000  0.00000  0.00000  0.00000  0.00000
2046 357525.000  -2408693.8928   4698106.1048   3566697.8689   6  13   0.3198   0.5197   0.4075  -0.3211   0.3869  -0.2362   0.00    0.0    0.00304    0.01027    0.00250   0.00000  0.00000  0.00000  0.00000  0.00000  0.00000
2046 357526.000  -2408693.8906   4698106.0970   3566697.8642   6  13   0.3177   0.5158   0.4033  -0.3190   0.3835  -0.2346   0.00    0.0   -0.02420    0.04133    0.01734   0.00000  0.00000  0.00000  0.00000  0.00000  0.00000
2046 357527.000  -2408693.8895   4698106.0909   3566697.8608   6  13   0.3155   0.5119   0.3992  -0.3170   0.3802  -0.2331   0.00    0.0   -0.00604    0.01983    0.02533   0.00000  0.00000  0.00000  0.00000  0.00000  0.00000
2046 357528.000  -2408693.8888   4698106.0837   3566697.8568   6  13   0.3134   0.5082   0.3951  -0.3150   0.3769  -0.2315   0.00    0.0   -0.01970    0.03375    0.03399   0.00000  0.00000  0.00000  0.00000  0.00000  0.00000
2046 357529.000  -2408693.8880   4698106.0778   3566697.8534   6  13   0.3114   0.5044   0.3910  -0.3130   0.3737  -0.2300   0.00    0.0   -0.00285    0.00338    0.01783   0.00000  0.00000  0.00000  0.00000  0.00000  0.00000
2046 357530.000  -2408693.8856   4698106.0736   3566697.8565   6  13   0.3094   0.5008   0.3870  -0.3111   0.3705  -0.2284   0.00    0.0   -0.00663    0.00828    0.01145   0.00000  0.00000  0.00000  0.00000  0.00000  0.00000
2046 357531.000  -2408693.8852   4698106.0758   3566697.8645   6  13   0.3074   0.4972   0.3831  -0.3092   0.3673  -0.2270   0.00    0.0   -0.00797    0.00861    0.01044   0.00000  0.00000  0.00000  0.00000  0.00000  0.00000
2046 357532.000  -2408693.8836   4698106.0751   3566697.8719   6  13   0.3055   0.4937   0.3791  -0.3073   0.3642  -0.2255   0.00    0.0   -0.01238    0.04037    0.02878   0.00000  0.00000  0.00000  0.00000  0.00000  0.00000
2046 357533.000  -2408693.8848   4698106.0711   3566697.8706   6  13   0.3036   0.4902   0.3753  -0.3055   0.3611  -0.2241   0.00    0.0    0.02230   -0.03712   -0.01912   0.00000  0.00000  0.00000  0.00000  0.00000  0.00000
2046 357534.000  -2408693.8852   4698106.0696   3566697.8643   6  13   0.3018   0.4869   0.3714  -0.3037   0.3581  -0.2227   0.00    0.0   -0.00176    0.02920    0.02984   0.00000  0.00000  0.00000  0.00000  0.00000  0.00000
2046 357535.000  -2408693.8875   4698106.0705   3566697.8618   6  13   0.2999   0.4836   0.3677  -0.3019   0.3552  -0.2213   0.00    0.0    0.00703    0.00391   -0.00416   0.00000  0.00000  0.00000  0.00000  0.00000  0.00000
2046 357536.000  -2408693.8898   4698106.0700   3566697.8584   6  13   0.2982   0.4803   0.3640  -0.3002   0.3523  -0.2199   0.00    0.0   -0.00865    0.01043   -0.00038   0.00000  0.00000  0.00000  0.00000  0.00000  0.00000
2046 357537.000  -2408693.8903   4698106.0690   3566697.8560   6  13   0.2964   0.4771   0.3604  -0.2985   0.3494  -0.2186   0.00    0.0    0.01318   -0.00166   -0.00541   0.00000  0.00000  0.00000  0.00000  0.00000  0.00000
2046 357538.000  -2408693.8901   4698106.0642   3566697.8550   6  13   0.2947   0.4740   0.3568  -0.2969   0.3467  -0.2173   0.00    0.0    0.01684   -0.00049    0.01485   0.00000  0.00000  0.00000  0.00000  0.00000  0.00000
2046 357539.000  -2408693.8882   4698106.0593   3566697.8557   6  13   0.2930   0.4710   0.3533  -0.2953   0.3439  -0.2161   0.00    0.0   -0.00917    0.00977    0.00730   0.00000  0.00000  0.00000  0.00000  0.00000  0.00000
2046 357540.000  -2408693.8905   4698106.0575   3566697.8617   6  13   0.2914   0.4680   0.3499  -0.2937   0.3413  -0.2148   0.00    0.0   -0.02125    0.00563    0.01096   0.00000  0.00000  0.00000  0.00000  0.00000  0.00000
2046 357541.000  -2408693.8934   4698106.0585   3566697.8682   6  13   0.2898   0.4651   0.3466  -0.2921   0.3387  -0.2136   0.00    0.0   -0.01455    0.04737    0.03060   0.00000  0.00000  0.00000  0.00000  0.00000  0.00000
2046 357542.000  -2408693.8928   4698106.0548   3566697.8704   6  13   0.2882   0.4622   0.3433  -0.2906   0.3362  -0.2124   0.00    0.0   -0.01342    0.02386    0.01667   0.00000  0.00000  0.00000  0.00000  0.00000  0.00000
2046 357543.000  -2408693.8912   4698106.0481   3566697.8655   6  13   0.2867   0.4594   0.3402  -0.2891   0.3337  -0.2113   0.00    0.0   -0.00731    0.00640    0.00065   0.00000  0.00000  0.00000  0.00000  0.00000  0.00000
2046 357544.000  -2408693.8891   4698106.0396   3566697.8598   6  13   0.2852   0.4567   0.3371  -0.2877   0.3313  -0.2101   0.00    0.0   -0.01144    0.00942    0.01356   0.00000  0.00000  0.00000  0.00000  0.00000  0.00000
2046 357545.000  -2408693.8856   4698106.0339   3566697.8561   6  13   0.2837   0.4541   0.3341  -0.2863   0.3289  -0.2091   0.00    0.0    0.00026    0.01104    0.00995   0.00000  0.00000  0.00000  0.00000  0.00000  0.00000
2046 357546.000  -2408693.8828   4698106.0320   3566697.8573   6  13   0.2822   0.4515   0.3312  -0.2849   0.3267  -0.2080   0.00    0.0   -0.00460   -0.01358   -0.01536   0.00000  0.00000  0.00000  0.00000  0.00000  0.00000
2046 357547.000  -2408693.8822   4698106.0290   3566697.8578   6  13   0.2808   0.4489   0.3283  -0.2835   0.3245  -0.2069   0.00    0.0   -0.00142    0.00242    0.02955   0.00000  0.00000  0.00000  0.00000  0.00000  0.00000
2046 357548.000  -2408693.8847   4698106.0232   3566697.8497   6  13   0.2794   0.4464   0.3256  -0.2822   0.3223  -0.2059   0.00    0.0    0.00387    0.00600    0.00214   0.00000  0.00000  0.00000  0.00000  0.00000  0.00000
2046 357549.000  -2408693.8832   4698106.0159   3566697.8399   6  13   0.2780   0.4440   0.3229  -0.2809   0.3202  -0.2049   0.00    0.0   -0.00451    0.00041   -0.00224   0.00000  0.00000  0.00000  0.00000  0.00000  0.00000
2046 357550.000  -2408693.8795   4698106.0035   3566697.8289   6  13   0.2767   0.4416   0.3203  -0.2797   0.3182  -0.2040   0.00    0.0    0.00781   -0.01395   -0.01177   0.00000  0.00000  0.00000  0.00000  0.00000  0.00000
2046 357551.000  -2408693.8797   4698105.9955   3566697.8235   6  13   0.2754   0.4393   0.3178  -0.2784   0.3162  -0.2030   0.00    0.0   -0.00262    0.02475    0.00641   0.00000  0.00000  0.00000  0.00000  0.00000  0.00000
2046 357552.000  -2408693.8793   4698105.9898   3566697.8185   6  13   0.2741   0.4371   0.3154  -0.2772   0.3143  -0.2021   0.00    0.0   -0.00482    0.00675    0.00187   0.00000  0.00000  0.00000  0.00000  0.00000  0.00000
2046 357553.000  -2408693.8815   4698105.9871   3566697.8120   6  13   0.2728   0.4349   0.3130  -0.2760   0.3125  -0.2012   0.00    0.0   -0.01819    0.01117    0.00566   0.00000  0.00000  0.00000  0.00000  0.00000  0.00000
2046 357554.000  -2408693.8854   4698105.9862   3566697.8064   6  13   0.2716   0.4327   0.3107  -0.2749   0.3106  -0.2004   0.00    0.0   -0.01420    0.02402   -0.00655   0.00000  0.00000  0.00000  0.00000  0.00000  0.00000
2046 357555.000  -2408693.8871   4698105.9854   3566697.7999   6  13   0.2704   0.4306   0.3085  -0.2738   0.3089  -0.1995   0.00    0.0    0.00243    0.00009    0.00286   0.00000  0.00000  0.00000  0.00000  0.00000  0.00000
2046 357556.000  -2408693.8872   4698105.9847   3566697.7945   6  13   0.2692   0.4285   0.3062  -0.2726   0.3071  -0.1987   0.00    0.0    0.01472   -0.01371   -0.01814   0.00000  0.00000  0.00000  0.00000  0.00000  0.00000
2046 357557.000  -2408693.8878   4698105.9828   3566697.7906   6  13   0.2679   0.4263   0.3039  -0.2715   0.3053  -0.1978   0.00    0.0   -0.00561    0.01441    0.02602   0.00000  0.00000  0.00000  0.00000  0.00000  0.00000
2046 357558.000  -2408693.8887   4698105.9802   3566697.7856   6  13   0.2667   0.4242   0.3016  -0.2703   0.3035  -0.1970   0.00    0.0   -0.02127    0.01471    0.02259   0.00000  0.00000  0.00000  0.00000  0.00000  0.00000
2046 357559.000  -2408693.8885   4698105.9753   3566697.7825   6  13   0.2655   0.4221   0.2992  -0.2692   0.3017  -0.1961   0.00    0.0    0.00831    0.00557    0.00477   0.00000  0.00000  0.00000  0.00000  0.00000  0.00000
2046 357560.000  -2408693.8894   4698105.9715   3566697.7811   6  13   0.2643   0.4201   0.2969  -0.2681   0.2999  -0.1953   0.00    0.0   -0.01605    0.01777    0.01843   0.00000  0.00000  0.00000  0.00000  0.00000  0.00000
2046 357561.000  -2408693.8915   4698105.9716   3566697.7828   6  13   0.2632   0.4180   0.2946  -0.2670   0.2981  -0.1945   0.00    0.0   -0.00020    0.00219    0.00373   0.00000  0.00000  0.00000  0.00000  0.00000  0.00000
2046 357562.000  -2408693.8940   4698105.9753   3566697.7880   6  13   0.2620   0.4160   0.2924  -0.2659   0.2964  -0.1936   0.00    0.0   -0.01145   -0.00150    0.01770   0.00000  0.00000  0.00000  0.00000  0.00000  0.00000
2046 357563.000  -2408693.8965   4698105.9806   3566697.7958   6  13   0.2609   0.4140   0.2901  -0.2649   0.2947  -0.1928   0.00    0.0    0.00774   -0.00810   -0.01753   0.00000  0.00000  0.00000  0.00000  0.00000  0.00000
2046 357564.000  -2408693.9030   4698105.9888   3566697.8058   6  13   0.2598   0.4120   0.2879  -0.2638   0.2929  -0.1920   0.00    0.0   -0.01791   -0.00052    0.00767   0.00000  0.00000  0.00000  0.00000  0.00000  0.00000
2046 357565.000  -2408693.9109   4698105.9995   3566697.8157   6  13   0.2587   0.4101   0.2857  -0.2628   0.2913  -0.1912   0.00    0.0   -0.00987    0.00561    0.01711   0.00000  0.00000  0.00000  0.00000  0.00000  0.00000
2046 357566.000  -2408693.9186   4698106.0096   3566697.8267   6  13   0.2576   0.4081   0.2835  -0.2617   0.2896  -0.1905   0.00    0.0   -0.01483    0.02065    0.01265   0.00000  0.00000  0.00000  0.00000  0.00000  0.00000
2046 357567.000  -2408693.9220   4698106.0182   3566697.8387   6  13   0.2565   0.4062   0.2814  -0.2607   0.2880  -0.1897   0.00    0.0   -0.00425    0.00321    0.01145   0.00000  0.00000  0.00000  0.00000  0.00000  0.00000
2046 357568.000  -2408693.9265   4698106.0221   3566697.8447   6  13   0.2554   0.4044   0.2793  -0.2597   0.2863  -0.1890   0.00    0.0   -0.01206    0.02358    0.01931   0.00000  0.00000  0.00000  0.00000  0.00000  0.00000
2046 357569.000  -2408693.9331   4698106.0301   3566697.8559   6  13   0.2544   0.4025   0.2772  -0.2587   0.2848  -0.1882   0.00    0.0   -0.01349    0.03476    0.00304   0.00000  0.00000  0.00000  0.00000  0.00000  0.00000
2046 357570.000  -2408693.9391   4698106.0389   3566697.8651   6  13   0.2533   0.4007   0.2752  -0.2578   0.2832  -0.1875   0.00    0.0    0.01049   -0.00016    0.00997   0.00000  0.00000  0.00000  0.00000  0.00000  0.00000
2046 357571.000  -2408693.9451   4698106.0501   3566697.8763   6  13   0.2523   0.3990   0.2732  -0.2568   0.2817  -0.1868   0.00    0.0    0.01399    0.00151    0.00379   0.00000  0.00000  0.00000  0.00000  0.00000  0.00000
2046 357572.000  -2408693.9522   4698106.0624   3566697.8850   6  13   0.2513   0.3972   0.2713  -0.2559   0.2802  -0.1861   0.00    0.0   -0.00390    0.01367    0.02063   0.00000  0.00000  0.00000  0.00000  0.00000  0.00000
2046 357573.000  -2408693.9564   4698106.0699   3566697.8893   6  13   0.2503   0.3955   0.2694  -0.2549   0.2788  -0.1854   0.00    0.0   -0.01641    0.01971    0.00936   0.00000  0.00000  0.00000  0.00000  0.00000  0.00000
2046 357574.000  -2408693.9626   4698106.0780   3566697.8937   6  13   0.2494   0.3938   0.2675  -0.2540   0.2773  -0.1847   0.00    0.0   -0.00194    0.01200   -0.00063   0.00000  0.00000  0.00000  0.00000  0.00000  0.00000
2046 357575.000  -2408693.9695   4698106.0857   3566697.9002   6  13   0.2484   0.3922   0.2657  -0.2531   0.2760  -0.1840   0.00    0.0    0.00862   -0.01612   -0.00410   0.00000  0.00000  0.00000  0.00000  0.00000  0.00000
2046 357576.000  -2408693.9758   4698106.0918   3566697.9073   6  13   0.2475   0.3905   0.2640  -0.2522   0.2746  -0.1834   0.00    0.0   -0.02123    0.03491    0.01402   0.00000  0.00000  0.00000  0.00000  0.00000  0.00000
2046 357577.000  -2408693.9833   4698106.0985   3566697.9177   6  13   0.2466   0.3890   0.2623  -0.2514   0.2733  -0.1827   0.00    0.0    0.00678    0.02023    0.01574   0.00000  0.00000  0.00000  0.00000  0.00000  0.00000
2046 357578.000  -2408693.9881   4698106.1031   3566697.9247   6  13   0.2456   0.3874   0.2606  -0.2505   0.2720  -0.1821   0.00    0.0    0.00134    0.01058    0.00237   0.00000  0.00000  0.00000  0.00000  0.00000  0.00000
2046 357579.000  -2408693.9920   4698106.1039   3566697.9263   6  13   0.2448   0.3859   0.2590  -0.2497   0.2707  -0.1815   0.00    0.0   -0.01000    0.02046    0.01341   0.00000  0.00000  0.00000  0.00000  0.00000  0.00000
2046 357580.000  -2408693.9948   4698106.1044   3566697.9310   6  13   0.2439   0.3844   0.2575  -0.2489   0.2695  -0.1809   0.00    0.0   -0.01187    0.02634    0.02872   0.00000  0.00000  0.00000  0.00000  0.00000  0.00000
2046 357581.000  -2408693.9989   4698106.1116   3566697.9358   6  13   0.2430   0.3829   0.2560  -0.2481   0.2683  -0.1803   0.00    0.0    0.00955   -0.00772   -0.01070   0.00000  0.00000  0.00000  0.00000  0.00000  0.00000
2046 357582.000  -2408694.0051   4698106.1215   3566697.9409   6  13   0.2422   0.3815   0.2545  -0.2473   0.2672  -0.1797   0.00    0.0   -0.02166    0.01896   -0.00255   0.00000  0.00000  0.00000  0.00000  0.00000  0.00000
2046 357583.000  -2408694.0122   4698106.1357   3566697.9488   6  13   0.2413   0.3800   0.2531  -0.2465   0.2661  -0.1792   0.00    0.0    0.00588    0.00323    0.01021   0.00000  0.00000  0.00000  0.00000  0.00000  0.00000
2046 357584.000  -2408694.0194   4698106.1485   3566697.9611   6  13   0.2405   0.3787   0.2517  -0.2457   0.2650  -0.1786   0.00    0.0   -0.01875    0.02712    0.01498   0.00000  0.00000  0.00000  0.00000  0.00000  0.00000
2046 357585.000  -2408694.0248   4698106.1557   3566697.9697   6  13   0.2397   0.3773   0.2504  -0.2450   0.2639  -0.1781   0.00    0.0   -0.01858    0.02085    0.01340   0.00000  0.00000  0.00000  0.00000  0.00000  0.00000
2046 357586.000  -2408694.0275   4698106.1609   3566697.9750   6  13   0.2389   0.3759   0.2490  -0.2442   0.2628  -0.1775   0.00    0.0   -0.01449    0.03146    0.02092   0.00000  0.00000  0.00000  0.00000  0.00000  0.00000
2046 357587.000  -2408694.0281   4698106.1650   3566697.9791   6  13   0.2380   0.3745   0.2475  -0.2434   0.2616  -0.1770   0.00    0.0   -0.00127    0.01340    0.02819   0.00000  0.00000  0.00000  0.00000  0.00000  0.00000
2046 357588.000  -2408694.0299   4698106.1730   3566697.9869   6  13   0.2372   0.3730   0.2461  -0.2426   0.2605  -0.1764   0.00    0.0   -0.00246   -0.00305    0.00325   0.00000  0.00000  0.00000  0.00000  0.00000  0.00000
2046 357589.000  -2408694.0357   4698106.1840   3566697.9963   6  13   0.2363   0.3716   0.2446  -0.2419   0.2593  -0.1758   0.00    0.0   -0.00855    0.01871    0.02941   0.00000  0.00000  0.00000  0.00000  0.00000  0.00000
2046 357590.000  -2408694.0417   4698106.1948   3566698.0026   6  13   0.2355   0.3702   0.2431  -0.2411   0.2582  -0.1753   0.00    0.0   -0.00533   -0.00072    0.00022   0.00000  0.00000  0.00000  0.00000  0.00000  0.00000
2046 357591.000  -2408694.0475   4698106.2026   3566698.0086   6  13   0.2347   0.3688   0.2417  -0.2403   0.2570  -0.1747   0.00    0.0   -0.02482    0.00903    0.01678   0.00000  0.00000  0.00000  0.00000  0.00000  0.00000
2046 357592.000  -2408694.0507   4698106.2120   3566698.0173   6  13   0.2339   0.3674   0.2402  -0.2395   0.2559  -0.1742   0.00    0.0   -0.01258    0.00303    0.01477   0.00000  0.00000  0.00000  0.00000  0.00000  0.00000
2046 357593.000  -2408694.0546   4698106.2196   3566698.0262   6  13   0.2330   0.3660   0.2388  -0.2388   0.2548  -0.1736   0.00    0.0   -0.00649    0.01647    0.00984   0.00000  0.00000  0.00000  0.00000  0.00000  0.00000
2046 357594.000  -2408694.0581   4698106.2238   3566698.0320   6  13   0.2322   0.3647   0.2373  -0.2380   0.2537  -0.1731   0.00    0.0   -0.00836    0.01156    0.00560   0.00000  0.00000  0.00000  0.00000  0.00000  0.00000
2046 357595.000  -2408694.0607   4698106.2271   3566698.0338   6  13   0.2314   0.3633   0.2359  -0.2372   0.2526  -0.1725   0.00    0.0    0.00170   -0.00523   -0.02463   0.00000  0.00000  0.00000  0.00000  0.00000  0.00000
2046 357596.000  -2408694.0686   4698106.2334   3566698.0349   6  13   0.2307   0.3620   0.2345  -0.2365   0.2515  -0.1720   0.00    0.0    0.00437    0.00244   -0.01568   0.00000  0.00000  0.00000  0.00000  0.00000  0.00000
2046 357597.000  -2408694.0762   4698106.2418   3566698.0364   6  13   0.2299   0.3606   0.2331  -0.2358   0.2504  -0.1714   0.00    0.0   -0.00723    0.00757    0.01235   0.00000  0.00000  0.00000  0.00000  0.00000  0.00000
2046 357598.000  -2408694.0838   4698106.2493   3566698.0399   6  13   0.2291   0.3593   0.2318  -0.2350   0.2493  -0.1709   0.00    0.0   -0.01283    0.00388   -0.00254   0.00000  0.00000  0.00000  0.00000  0.00000  0.00000
2046 357599.000  -2408694.0847   4698106.2583   3566698.0504   6  13   0.2283   0.3580   0.2304  -0.2343   0.2483  -0.1704   0.00    0.0    0.01030   -0.01314   -0.02207   0.00000  0.00000  0.00000  0.00000  0.00000  0.00000
2046 357600.000  -2408694.0850   4698106.2688   3566698.0638   6  13   0.2276   0.3567   0.2291  -0.2336   0.2472  -0.1698   0.00    0.0   -0.00969    0.02226    0.00569   0.00000  0.00000  0.00000  0.00000  0.00000  0.00000
2046 357601.000  -2408694.0867   4698106.2743   3566698.0674   6  13   0.2268   0.3554   0.2278  -0.2328   0.2462  -0.1693   0.00    0.0   -0.02157    0.03111    0.04396   0.00000  0.00000  0.00000  0.00000  0.00000  0.00000
2046 357602.000  -2408694.0892   4698106.2724   3566698.0667   6  13   0.2261   0.3542   0.2265  -0.2321   0.2452  -0.1688   0.00    0.0   -0.01033    0.01522    0.00448   0.00000  0.00000  0.00000  0.00000  0.00000  0.00000
2046 357603.000  -2408694.0902   4698106.2682   3566698.0635   6  13   0.2254   0.3529   0.2253  -0.2314   0.2442  -0.1683   0.00    0.0    0.00776   -0.00323    0.01463   0.00000  0.00000  0.00000  0.00000  0.00000  0.00000
2046 357604.000  -2408694.0899   4698106.2659   3566698.0614   6  13   0.2247   0.3517   0.2241  -0.2307   0.2432  -0.1678   0.00    0.0    0.00233    0.03462    0.01356   0.00000  0.00000  0.00000  0.00000  0.00000  0.00000
2046 357605.000  -2408694.0909   4698106.2689   3566698.0636   6  13   0.2239   0.3505   0.2229  -0.2301   0.2423  -0.1673   0.00    0.0   -0.00386    0.01365    0.02377   0.00000  0.00000  0.00000  0.00000  0.00000  0.00000
2046 357606.000  -2408694.0933   4698106.2745   3566698.0653   6  13   0.2232   0.3493   0.2218  -0.2294   0.2414  -0.1668   0.00    0.0   -0.02412    0.04134    0.03373   0.00000  0.00000  0.00000  0.00000  0.00000  0.00000
2046 357607.000  -2408694.0971   4698106.2792   3566698.0663   6  13   0.2226   0.3482   0.2206  -0.2287   0.2404  -0.1664   0.00    0.0   -0.01296    0.00842    0.00941   0.00000  0.00000  0.00000  0.00000  0.00000  0.00000
2046 357608.000  -2408694.1025   4698106.2815   3566698.0695   6  13   0.2219   0.3470   0.2195  -0.2281   0.2396  -0.1659   0.00    0.0    0.00617    0.00898    0.00962   0.00000  0.00000  0.00000  0.00000  0.00000  0.00000
2046 357609.000  -2408694.1065   4698106.2871   3566698.0757   6  13   0.2212   0.3459   0.2185  -0.2274   0.2387  -0.1654   0.00    0.0    0.00184   -0.00262    0.00704   0.00000  0.00000  0.00000  0.00000  0.00000  0.00000
2046 357610.000  -2408694.1096   4698106.2948   3566698.0814   6  13   0.2206   0.3448   0.2175  -0.2268   0.2378  -0.1650   0.00    0.0   -0.00448    0.00807   -0.00212   0.00000  0.00000  0.00000  0.00000  0.00000  0.00000
2046 357611.000  -2408694.1114   4698106.2978   3566698.0804   6  13   0.2199   0.3437   0.2165  -0.2262   0.2370  -0.1645   0.00    0.0    0.00109    0.02277    0.01239   0.00000  0.00000  0.00000  0.00000  0.00000  0.00000
2046 357612.000  -2408694.1104   4698106.2970   3566698.0775   6  13   0.2193   0.3426   0.2155  -0.2255   0.2362  -0.1641   0.00    0.0    0.00903    0.01209    0.00604   0.00000  0.00000  0.00000  0.00000  0.00000  0.00000
2046 357613.000  -2408694.1105   4698106.2991   3566698.0774   6  13   0.2186   0.3416   0.2146  -0.2249   0.2354  -0.1637   0.00    0.0   -0.00424    0.00375    0.01018   0.00000  0.00000  0.00000  0.00000  0.00000  0.00000
2046 357614.000  -2408694.1124   4698106.3027   3566698.0775   6  13   0.2180   0.3405   0.2137  -0.2243   0.2346  -0.1632   0.00    0.0    0.00735    0.02435    0.01745   0.00000  0.00000  0.00000  0.00000  0.00000  0.00000
2046 357615.000  -2408694.1164   4698106.3094   3566698.0804   6  13   0.2174   0.3395   0.2128  -0.2237   0.2339  -0.1628   0.00    0.0   -0.00901    0.00241    0.00779   0.00000  0.00000  0.00000  0.00000  0.00000  0.00000
2046 357616.000  -2408694.1186   4698106.3133   3566698.0803   6  13   0.2168   0.3384   0.2118  -0.2231   0.2331  -0.1624   0.00    0.0    0.00731    0.00460   -0.00275   0.00000  0.00000  0.00000  0.00000  0.00000  0.00000
2046 357617.000  -2408694.1197   4698106.3193   3566698.0823   6  13   0.2161   0.3373   0.2108  -0.2225   0.2322  -0.1619   0.00    0.0    0.00562   -0.00477    0.00775   0.00000  0.00000  0.00000  0.00000  0.00000  0.00000
2046 357618.000  -2408694.1219   4698106.3260   3566698.0869   6  13   0.2154   0.3362   0.2097  -0.2219   0.2314  -0.1615   0.00    0.0   -0.00563    0.01628    0.01259   0.00000  0.00000  0.00000  0.00000  0.00000  0.00000
2046 357619.000  -2408694.1299   4698106.3358   3566698.0899   6  13   0.2148   0.3351   0.2087  -0.2212   0.2305  -0.1610   0.00    0.0    0.00096    0.00240    0.01090   0.00000  0.00000  0.00000  0.00000  0.00000  0.00000
2046 357620.000  -2408694.1366   4698106.3452   3566698.0952   6  13   0.2141   0.3340   0.2077  -0.2206   0.2296  -0.1606   0.00    0.0   -0.00355    0.00940    0.00380   0.00000  0.00000  0.00000  0.00000  0.00000  0.00000
2046 357621.000  -2408694.1357   4698106.3509   3566698.1000   6  13   0.2134   0.3329   0.2066  -0.2199   0.2288  -0.1601   0.00    0.0    0.00747    0.00096   -0.01395   0.00000  0.00000  0.00000  0.00000  0.00000  0.00000
2046 357622.000  -2408694.1333   4698106.3562   3566698.1042   6  13   0.2128   0.3318   0.2056  -0.2193   0.2279  -0.1597   0.00    0.0   -0.00454   -0.00141    0.01393   0.00000  0.00000  0.00000  0.00000  0.00000  0.00000
2046 357623.000  -2408694.1348   4698106.3619   3566698.1052   6  13   0.2121   0.3307   0.2046  -0.2187   0.2271  -0.1592   0.00    0.0    0.01721   -0.00498   -0.01933   0.00000  0.00000  0.00000  0.00000  0.00000  0.00000
2046 357624.000  -2408694.1365   4698106.3658   3566698.1088   6  13   0.2115   0.3296   0.2035  -0.2180   0.2262  -0.1588   0.00    0.0    0.00579   -0.00991   -0.02111   0.00000  0.00000  0.00000  0.00000  0.00000  0.00000
2046 357625.000  -2408694.1400   4698106.3695   3566698.1122   6  13   0.2109   0.3285   0.2025  -0.2174   0.2254  -0.1583   0.00    0.0   -0.01638   -0.00002    0.01044   0.00000  0.00000  0.00000  0.00000  0.00000  0.00000
2046 357626.000  -2408694.1432   4698106.3732   3566698.1199   6  13   0.2102   0.3274   0.2015  -0.2168   0.2245  -0.1579   0.00    0.0   -0.00634    0.01936    0.00888   0.00000  0.00000  0.00000  0.00000  0.00000  0.00000
2046 357627.000  -2408694.1444   4698106.3770   3566698.1231   6  13   0.2096   0.3264   0.2005  -0.2161   0.2237  -0.1574   0.00    0.0   -0.00597    0.00648    0.01570   0.00000  0.00000  0.00000  0.00000  0.00000  0.00000
2046 357628.000  -2408694.1451   4698106.3805   3566698.1270   6  13   0.2090   0.3253   0.1995  -0.2155   0.2229  -0.1570   0.00    0.0   -0.02151    0.03722    0.02860   0.00000  0.00000  0.00000  0.00000  0.00000  0.00000
2046 357629.000  -2408694.1441   4698106.3834   3566698.1345   6  13   0.2083   0.3243   0.1986  -0.2149   0.2221  -0.1565   0.00    0.0   -0.00096   -0.00912   -0.00749   0.00000  0.00000  0.00000  0.00000  0.00000  0.00000
2046 357630.000  -2408694.1450   4698106.3869   3566698.1406   6  13   0.2077   0.3232   0.1976  -0.2143   0.2213  -0.1561   0.00    0.0   -0.03676    0.02434    0.01704   0.00000  0.00000  0.00000  0.00000  0.00000  0.00000
2046 357631.000  -2408694.1479   4698106.3934   3566698.1519   6  13   0.2071   0.3222   0.1967  -0.2136   0.2205  -0.1556   0.00    0.0    0.02187   -0.01649    0.00079   0.00000  0.00000  0.00000  0.00000  0.00000  0.00000
2046 357632.000  -2408694.1517   4698106.4006   3566698.1611   6  13   0.2065   0.3212   0.1958  -0.2130   0.2197  -0.1552   0.00    0.0   -0.00611    0.00918    0.00443   0.00000  0.00000  0.00000  0.00000  0.00000  0.00000
2046 357633.000  -2408694.1522   4698106.4085   3566698.1684   6  13   0.2059   0.3201   0.1949  -0.2124   0.2189  -0.1548   0.00    0.0   -0.00911    0.01360    0.01768   0.00000  0.00000  0.00000  0.00000  0.00000  0.00000
2046 357634.000  -2408694.1534   4698106.4160   3566698.1753   6  13   0.2053   0.3191   0.1940  -0.2118   0.2182  -0.1543   0.00    0.0   -0.01296    0.00605    0.00919   0.00000  0.00000  0.00000  0.00000  0.00000  0.00000
2046 357635.000  -2408694.1523   4698106.4172   3566698.1808   6  13   0.2047   0.3182   0.1931  -0.2112   0.2174  -0.1539   0.00    0.0   -0.01929    0.00100   -0.00273   0.00000  0.00000  0.00000  0.00000  0.00000  0.00000
2046 357636.000  -2408694.1513   4698106.4168   3566698.1862   6  13   0.2042   0.3172   0.1923  -0.2107   0.2167  -0.1535   0.00    0.0   -0.00778    0.00513   -0.00855   0.00000  0.00000  0.00000  0.00000  0.00000  0.00000
2046 357637.000  -2408694.1498   4698106.4184   3566698.1903   6  13   0.2036   0.3162   0.1915  -0.2101   0.2160  -0.1531   0.00    0.0   -0.00509    0.00945    0.00170   0.00000  0.00000  0.00000  0.00000  0.00000  0.00000
2046 357638.000  -2408694.1497   4698106.4199   3566698.1912   6  13   0.2030   0.3153   0.1907  -0.2095   0.2153  -0.1527   0.00    0.0   -0.00000   -0.00081    0.00375   0.00000  0.00000  0.00000  0.00000  0.00000  0.00000
2046 357639.000  -2408694.1504   4698106.4228   3566698.1932   6  13   0.2025   0.3143   0.1899  -0.2089   0.2146  -0.1523   0.00    0.0    0.05274   -0.03059   -0.00435   0.00000  0.00000  0.00000  0.00000  0.00000  0.00000
2046 357640.000  -2408694.1499   4698106.4241   3566698.2012   6  13   0.2019   0.3134   0.1892  -0.2084   0.2139  -0.1519   0.00    0.0    0.01243    0.00786   -0.00191   0.00000  0.00000  0.00000  0.00000  0.00000  0.00000
2046 357641.000  -2408694.1489   4698106.4272   3566698.2090   6  13   0.2014   0.3125   0.1884  -0.2078   0.2132  -0.1515   0.00    0.0   -0.01477    0.02909    0.01036   0.00000  0.00000  0.00000  0.00000  0.00000  0.00000
2046 357642.000  -2408694.1508   4698106.4314   3566698.2139   6  13   0.2009   0.3116   0.1877  -0.2073   0.2126  -0.1511   0.00    0.0    0.01370   -0.02573    0.00165   0.00000  0.00000  0.00000  0.00000  0.00000  0.00000
2046 357643.000  -2408694.1533   4698106.4318   3566698.2146   6  13   0.2004   0.3107   0.1871  -0.2068   0.2119  -0.1507   0.00    0.0   -0.00810    0.00401   -0.00114   0.00000  0.00000  0.00000  0.00000  0.00000  0.00000
2046 357644.000  -2408694.1523   4698106.4306   3566698.2122   6  13   0.1999   0.3099   0.1864  -0.2063   0.2113  -0.1504   0.00    0.0    0.01510   -0.00254    0.00337   0.00000  0.00000  0.00000  0.00000  0.00000  0.00000
2046 357645.000  -2408694.1508   4698106.4296   3566698.2125   6  13   0.1994   0.3090   0.1858  -0.2057   0.2107  -0.1500   0.00    0.0   -0.00166    0.01132    0.01368   0.00000  0.00000  0.00000  0.00000  0.00000  0.00000
2046 357646.000  -2408694.1506   4698106.4271   3566698.2140   6  13   0.1988   0.3081   0.1850  -0.2052   0.2100  -0.1496   0.00    0.0   -0.01354    0.00841    0.00377   0.00000  0.00000  0.00000  0.00000  0.00000  0.00000
2046 357647.000  -2408694.1496   4698106.4294   3566698.2206   6  13   0.1982   0.3072   0.1842  -0.2046   0.2093  -0.1492   0.00    0.0   -0.02137    0.01592    0.01484   0.00000  0.00000  0.00000  0.00000  0.00000  0.00000
2046 357648.000  -2408694.1505   4698106.4324   3566698.2264   6  13   0.1977   0.3062   0.1834  -0.2040   0.2086  -0.1488   0.00    0.0    0.00268   -0.00564    0.00050   0.00000  0.00000  0.00000  0.00000  0.00000  0.00000
2046 357649.000  -2408694.1514   4698106.4351   3566698.2340   6  13   0.1971   0.3052   0.1826  -0.2035   0.2079  -0.1484   0.00    0.0    0.01322   -0.01272   -0.01125   0.00000  0.00000  0.00000  0.00000  0.00000  0.00000
2046 357650.000  -2408694.1522   4698106.4370   3566698.2371   6  13   0.1965   0.3043   0.1817  -0.2029   0.2071  -0.1479   0.00    0.0    0.01527    0.02112    0.01771   0.00000  0.00000  0.00000  0.00000  0.00000  0.00000
2046 357651.000  -2408694.1519   4698106.4387   3566698.2366   6  13   0.1960   0.3033   0.1809  -0.2023   0.2064  -0.1475   0.00    0.0    0.01769   -0.00347   -0.00667   0.00000  0.00000  0.00000  0.00000  0.00000  0.00000
2046 357652.000  -2408694.1540   4698106.4440   3566698.2404   6  13   0.1954   0.3024   0.1801  -0.2017   0.2057  -0.1471   0.00    0.0   -0.00312    0.01680    0.00909   0.00000  0.00000  0.00000  0.00000  0.00000  0.00000
2046 357653.000  -2408694.1561   4698106.4488   3566698.2415   6  13   0.1948   0.3014   0.1793  -0.2011   0.2050  -0.1467   0.00    0.0   -0.02601    0.02970    0.00567   0.00000  0.00000  0.00000  0.00000  0.00000  0.00000
2046 357654.000  -2408694.1591   4698106.4517   3566698.2401   6  13   0.1943   0.3005   0.1785  -0.2006   0.2043  -0.1463   0.00    0.0    0.01960   -0.01773   -0.01561   0.00000  0.00000  0.00000  0.00000  0.00000  0.00000
2046 357655.000  -2408694.1585   4698106.4538   3566698.2403   6  13   0.1937   0.2995   0.1777  -0.2000   0.2035  -0.1459   0.00    0.0   -0.00252   -0.00441    0.00213   0.00000  0.00000  0.00000  0.00000  0.00000  0.00000
2046 357656.000  -2408694.1590   4698106.4536   3566698.2430   6  13   0.1932   0.2986   0.1769  -0.1994   0.2028  -0.1454   0.00    0.0   -0.00095    0.01303    0.00714   0.00000  0.00000  0.00000  0.00000  0.00000  0.00000
2046 357657.000  -2408694.1600   4698106.4549   3566698.2467   6  13   0.1926   0.2977   0.1761  -0.1988   0.2021  -0.1450   0.00    0.0    0.00595   -0.00638    0.01336   0.00000  0.00000  0.00000  0.00000  0.00000  0.00000
2046 357658.000  -2408694.1600   4698106.4562   3566698.2509   6  13   0.1921   0.2967   0.1754  -0.1982   0.2014  -0.1446   0.00    0.0   -0.00397    0.02908    0.02443   0.00000  0.00000  0.00000  0.00000  0.00000  0.00000
2046 357659.000  -2408694.1613   4698106.4576   3566698.2556   6  13   0.1915   0.2958   0.1746  -0.1977   0.2007  -0.1442   0.00    0.0   -0.00266   -0.00527   -0.00599   0.00000  0.00000  0.00000  0.00000  0.00000  0.00000
2046 357660.000  -2408694.1641   4698106.4608   3566698.2572   6  13   0.1910   0.2949   0.1738  -0.1971   0.2000  -0.1438   0.00    0.0    0.00349   -0.01201   -0.00464   0.00000  0.00000  0.00000  0.00000  0.00000  0.00000
2046 357661.000  -2408694.1699   4698106.4666   3566698.2612   6  13   0.1905   0.2940   0.1731  -0.1965   0.1994  -0.1434   0.00    0.0   -0.01430    0.03555    0.02504   0.00000  0.00000  0.00000  0.00000  0.00000  0.00000
2046 357662.000  -2408694.1773   4698106.4756   3566698.2676   6  13   0.1899   0.2931   0.1724  -0.1960   0.1987  -0.1430   0.00    0.0   -0.00742    0.00085    0.00383   0.00000  0.00000  0.00000  0.00000  0.00000  0.00000
2046 357663.000  -2408694.1863   4698106.4896   3566698.2758   6  13   0.1894   0.2922   0.1717  -0.1954   0.1980  -0.1426   0.00    0.0   -0.00301    0.01799    0.01429   0.00000  0.00000  0.00000  0.00000  0.00000  0.00000
2046 357664.000  -2408694.1967   4698106.4999   3566698.2825   6  13   0.1889   0.2913   0.1710  -0.1949   0.1974  -0.1422   0.00    0.0    0.00287    0.00333    0.01086   0.00000  0.00000  0.00000  0.00000  0.00000  0.00000
2046 357665.000  -2408694.2001   4698106.5051   3566698.2833   6  13   0.1884   0.2904   0.1703  -0.1943   0.1967  -0.1418   0.00    0.0   -0.00147    0.01409    0.01278   0.00000  0.00000  0.00000  0.00000  0.00000  0.00000
2046 357666.000  -2408694.2034   4698106.5109   3566698.2851   6  13   0.1879   0.2896   0.1697  -0.1938   0.1961  -0.1414   0.00    0.0    0.00629    0.00120    0.00260   0.00000  0.00000  0.00000  0.00000  0.00000  0.00000
2046 357667.000  -2408694.2066   4698106.5155   3566698.2844   6  13   0.1874   0.2887   0.1690  -0.1933   0.1955  -0.1410   0.00    0.0   -0.01558    0.02971    0.04187   0.00000  0.00000  0.00000  0.00000  0.00000  0.00000
2046 357668.000  -2408694.2102   4698106.5207   3566698.2891   6  13   0.1869   0.2879   0.1684  -0.1927   0.1949  -0.1407   0.00    0.0   -0.00041    0.02157    0.00381   0.00000  0.00000  0.00000  0.00000  0.00000  0.00000
2046 357669.000  -2408694.2150   4698106.5248   3566698.2948   6  13   0.1864   0.2871   0.1678  -0.1922   0.1943  -0.1403   0.00    0.0   -0.00354   -0.00074    0.00810   0.00000  0.00000  0.00000  0.00000  0.00000  0.00000
2046 357670.000  -2408694.2217   4698106.5293   3566698.2989   6  13   0.1860   0.2863   0.1672  -0.1917   0.1937  -0.1399   0.00    0.0    0.00394    0.00797    0.00775   0.00000  0.00000  0.00000  0.00000  0.00000  0.00000
2046 357671.000  -2408694.2280   4698106.5328   3566698.3013   6  13   0.1855   0.2855   0.1666  -0.1912   0.1931  -0.1396   0.00    0.0   -0.00754   -0.00254    0.00497   0.00000  0.00000  0.00000  0.00000  0.00000  0.00000
2046 357672.000  -2408694.2296   4698106.5340   3566698.3001   6  13   0.1850   0.2847   0.1661  -0.1907   0.1926  -0.1392   0.00    0.0    0.00438    0.00081    0.00916   0.00000  0.00000  0.00000  0.00000  0.00000  0.00000
2046 357673.000  -2408694.2292   4698106.5328   3566698.2998   6  13   0.1846   0.2839   0.1656  -0.1902   0.1920  -0.1388   0.00    0.0    0.00726    0.01938    0.02427   0.00000  0.00000  0.00000  0.00000  0.00000  0.00000
2046 357674.000  -2408694.2279   4698106.5333   3566698.3012   6  13   0.1842   0.2831   0.1650  -0.1897   0.1915  -0.1385   0.00    0.0    0.01185   -0.01036    0.00654   0.00000  0.00000  0.00000  0.00000  0.00000  0.00000
2046 357675.000  -2408694.2277   4698106.5318   3566698.3009   6  13   0.1837   0.2824   0.1646  -0.1892   0.1909  -0.1381   0.00    0.0    0.00863    0.00840    0.01885   0.00000  0.00000  0.00000  0.00000  0.00000  0.00000
2046 357676.000  -2408694.2291   4698106.5313   3566698.3023   6  13   0.1832   0.2816   0.1639  -0.1887   0.1903  -0.1378   0.00    0.0   -0.01166    0.03212    0.03049   0.00000  0.00000  0.00000  0.00000  0.00000  0.00000
2046 357677.000  -2408694.2308   4698106.5289   3566698.3070   6  13   0.1827   0.2807   0.1632  -0.1882   0.1897  -0.1374   0.00    0.0   -0.00063    0.00932    0.01295   0.00000  0.00000  0.00000  0.00000  0.00000  0.00000
2046 357678.000  -2408694.2333   4698106.5299   3566698.3082   6  13   0.1822   0.2799   0.1625  -0.1877   0.1890  -0.1370   0.00    0.0    0.00698   -0.01173   -0.01647   0.00000  0.00000  0.00000  0.00000  0.00000  0.00000
2046 357679.000  -2408694.2397   4698106.5349   3566698.3083   6  13   0.1817   0.2790   0.1618  -0.1871   0.1884  -0.1366   0.00    0.0   -0.01535    0.03362    0.01044   0.00000  0.00000  0.00000  0.00000  0.00000  0.00000
2046 357680.000  -2408694.2441   4698106.5360   3566698.3087   6  13   0.1812   0.2781   0.1612  -0.1866   0.1877  -0.1362   0.00    0.0   -0.01615    0.02420    0.01967   0.00000  0.00000  0.00000  0.00000  0.00000  0.00000
2046 357681.000  -2408694.2485   4698106.5356   3566698.3062   6  13   0.1807   0.2773   0.1605  -0.1860   0.1871  -0.1358   0.00    0.0    0.00110   -0.00977    0.00919   0.00000  0.00000  0.00000  0.00000  0.00000  0.00000
2046 357682.000  -2408694.2537   4698106.5383   3566698.3061   6  13   0.1802   0.2764   0.1598  -0.1855   0.1864  -0.1354   0.00    0.0    0.00004    0.00664    0.00206   0.00000  0.00000  0.00000  0.00000  0.00000  0.00000
2046 357683.000  -2408694.2609   4698106.5428   3566698.3115   6  13   0.1797   0.2755   0.1591  -0.1849   0.1858  -0.1350   0.00    0.0   -0.00032   -0.01642    0.00599   0.00000  0.00000  0.00000  0.00000  0.00000  0.00000
2046 357684.000  -2408694.2617   4698106.5459   3566698.3186   6  13   0.1792   0.2747   0.1584  -0.1844   0.1852  -0.1346   0.00    0.0    0.02079    0.00966    0.00364   0.00000  0.00000  0.00000  0.00000  0.00000  0.00000
2046 357685.000  -2408694.2642   4698106.5462   3566698.3211   6  13   0.1787   0.2738   0.1578  -0.1838   0.1845  -0.1342   0.00    0.0    0.00651    0.01030   -0.01076   0.00000  0.00000  0.00000  0.00000  0.00000  0.00000
2046 357686.000  -2408694.2671   4698106.5471   3566698.3206   6  13   0.1782   0.2730   0.1571  -0.1833   0.1839  -0.1338   0.00    0.0    0.01332   -0.00226   -0.01849   0.00000  0.00000  0.00000  0.00000  0.00000  0.00000
2046 357687.000  -2408694.2741   4698106.5460   3566698.3162   6  13   0.1777   0.2721   0.1565  -0.1827   0.1833  -0.1334   0.00    0.0    0.00830    0.00340    0.00877   0.00000  0.00000  0.00000  0.00000  0.00000  0.00000
2046 357688.000  -2408694.2767   4698106.5446   3566698.3134   6  13   0.1772   0.2713   0.1558  -0.1822   0.1826  -0.1331   0.00    0.0   -0.00148   -0.01450    0.00879   0.00000  0.00000  0.00000  0.00000  0.00000  0.00000
2046 357689.000  -2408694.2750   4698106.5438   3566698.3166   6  13   0.1767   0.2704   0.1552  -0.1817   0.1820  -0.1327   0.00    0.0   -0.01023    0.01241    0.01095   0.00000  0.00000  0.00000  0.00000  0.00000  0.00000
2046 357690.000  -2408694.2714   4698106.5448   3566698.3215   6  13   0.1762   0.2696   0.1546  -0.1811   0.1814  -0.1323   0.00    0.0   -0.00452    0.01623   -0.00885   0.00000  0.00000  0.00000  0.00000  0.00000  0.00000
2046 357691.000  -2408694.2736   4698106.5491   3566698.3244   6  13   0.1757   0.2688   0.1539  -0.1806   0.1808  -0.1319   0.00    0.0   -0.01154    0.02344    0.01052   0.00000  0.00000  0.00000  0.00000  0.00000  0.00000
2046 357692.000  -2408694.2798   4698106.5553   3566698.3298   6  13   0.1752   0.2680   0.1533  -0.1801   0.1802  -0.1315   0.00    0.0   -0.02620    0.02694    0.01533   0.00000  0.00000  0.00000  0.00000  0.00000  0.00000
2046 357693.000  -2408694.2806   4698106.5563   3566698.3352   6  13   0.1748   0.2672   0.1528  -0.1795   0.1796  -0.1311   0.00    0.0    0.00664    0.00933    0.01342   0.00000  0.00000  0.00000  0.00000  0.00000  0.00000
2046 357694.000  -2408694.2822   4698106.5577   3566698.3402   6  13   0.1743   0.2664   0.1522  -0.1790   0.1790  -0.1308   0.00    0.0   -0.01289    0.00941    0.00735   0.00000  0.00000  0.00000  0.00000  0.00000  0.00000
2046 357695.000  -2408694.2838   4698106.5581   3566698.3434   6  13   0.1739   0.2656   0.1516  -0.1785   0.1784  -0.1304   0.00    0.0    0.00614    0.00043   -0.02954   0.00000  0.00000  0.00000  0.00000  0.00000  0.00000
2046 357696.000  -2408694.2823   4698106.5556   3566698.3438   6  13   0.1734   0.2648   0.1511  -0.1780   0.1779  -0.1300   0.00    0.0   -0.00473    0.01049    0.02505   0.00000  0.00000  0.00000  0.00000  0.00000  0.00000
2046 357697.000  -2408694.2831   4698106.5532   3566698.3431   6  13   0.1730   0.2640   0.1506  -0.1775   0.1773  -0.1297   0.00    0.0   -0.01650    0.01967    0.00382   0.00000  0.00000  0.00000  0.00000  0.00000  0.00000
2046 357698.000  -2408694.2839   4698106.5483   3566698.3415   6  13   0.1725   0.2633   0.1501  -0.1770   0.1768  -0.1293   0.00    0.0   -0.02150    0.04001    0.03536   0.00000  0.00000  0.00000  0.00000  0.00000  0.00000
2046 357699.000  -2408694.2877   4698106.5461   3566698.3366   6  13   0.1721   0.2626   0.1496  -0.1765   0.1763  -0.1290   0.00    0.0   -0.00204    0.01361    0.00356   0.00000  0.00000  0.00000  0.00000  0.00000  0.00000
2046 357700.000  -2408694.2878   4698106.5439   3566698.3332   6  13   0.1717   0.2618   0.1491  -0.1761   0.1757  -0.1286   0.00    0.0   -0.02310    0.01385    0.00881   0.00000  0.00000  0.00000  0.00000  0.00000  0.00000
2046 357701.000  -2408694.2885   4698106.5421   3566698.3338   6  13   0.1713   0.2611   0.1486  -0.1756   0.1752  -0.1283   0.00    0.0   -0.00392    0.00737    0.00640   0.00000  0.00000  0.00000  0.00000  0.00000  0.00000
2046 357702.000  -2408694.2840   4698106.5352   3566698.3351   6  13   0.1709   0.2604   0.1482  -0.1751   0.1747  -0.1279   0.00    0.0   -0.00864   -0.00015   -0.00530   0.00000  0.00000  0.00000  0.00000  0.00000  0.00000
2046 357703.000  -2408694.2807   4698106.5285   3566698.3326   6  13   0.1705   0.2597   0.1478  -0.1747   0.1742  -0.1276   0.00    0.0    0.00573   -0.01325   -0.01429   0.00000  0.00000  0.00000  0.00000  0.00000  0.00000
2046 357704.000  -2408694.2818   4698106.5222   3566698.3291   6  13   0.1701   0.2590   0.1473  -0.1742   0.1737  -0.1273   0.00    0.0   -0.03012    0.00513    0.00945   0.00000  0.00000  0.00000  0.00000  0.00000  0.00000
2046 357705.000  -2408694.2807   4698106.5174   3566698.3254   6  13   0.1697   0.2584   0.1469  -0.1738   0.1733  -0.1270   0.00    0.0   -0.00697    0.00677    0.00046   0.00000  0.00000  0.00000  0.00000  0.00000  0.00000
2046 357706.000  -2408694.2801   4698106.5157   3566698.3267   6  13   0.1693   0.2576   0.1464  -0.1733   0.1727  -0.1266   0.00    0.0    0.01612   -0.01405   -0.01171   0.00000  0.00000  0.00000  0.00000  0.00000  0.00000
2046 357707.000  -2408694.2812   4698106.5167   3566698.3305   6  13   0.1688   0.2568   0.1458  -0.1728   0.1721  -0.1262   0.00    0.0   -0.01292    0.02968    0.01745   0.00000  0.00000  0.00000  0.00000  0.00000  0.00000
2046 357708.000  -2408694.2836   4698106.5206   3566698.3351   6  13   0.1683   0.2560   0.1452  -0.1723   0.1715  -0.1259   0.00    0.0    0.00716   -0.00416    0.00673   0.00000  0.00000  0.00000  0.00000  0.00000  0.00000
2046 357709.000  -2408694.2851   4698106.5222   3566698.3365   6  13   0.1679   0.2552   0.1446  -0.1718   0.1709  -0.1255   0.00    0.0   -0.02497    0.02014    0.02333   0.00000  0.00000  0.00000  0.00000  0.00000  0.00000
2046 357710.000  -2408694.2901   4698106.5246   3566698.3325   6  13   0.1674   0.2544   0.1440  -0.1712   0.1703  -0.1251   0.00    0.0   -0.00736    0.01334    0.02849   0.00000  0.00000  0.00000  0.00000  0.00000  0.00000
2046 357711.000  -2408694.2902   4698106.5219   3566698.3295   6  13   0.1669   0.2536   0.1434  -0.1707   0.1698  -0.1247   0.00    0.0   -0.00621    0.02250    0.01476   0.00000  0.00000  0.00000  0.00000  0.00000  0.00000
2046 357712.000  -2408694.2932   4698106.5139   3566698.3250   6  13   0.1665   0.2528   0.1428  -0.1702   0.1692  -0.1244   0.00    0.0   -0.00650    0.01058    0.02200   0.00000  0.00000  0.00000  0.00000  0.00000  0.00000
2046 357713.000  -2408694.2949   4698106.5055   3566698.3221   6  13   0.1660   0.2521   0.1422  -0.1697   0.1686  -0.1240   0.00    0.0    0.00728   -0.00651   -0.01049   0.00000  0.00000  0.00000  0.00000  0.00000  0.00000
2046 357714.000  -2408694.2917   4698106.4997   3566698.3198   6  13   0.1655   0.2513   0.1416  -0.1692   0.1680  -0.1236   0.00    0.0   -0.01895    0.04585    0.04674   0.00000  0.00000  0.00000  0.00000  0.00000  0.00000
2046 357715.000  -2408694.2933   4698106.4975   3566698.3218   6  13   0.1651   0.2505   0.1410  -0.1687   0.1674  -0.1232   0.00    0.0   -0.02076    0.01964    0.02236   0.00000  0.00000  0.00000  0.00000  0.00000  0.00000
2046 357716.000  -2408694.2949   4698106.5017   3566698.3250   6  13   0.1646   0.2497   0.1405  -0.1682   0.1668  -0.1229   0.00    0.0   -0.03176    0.04002    0.03248   0.00000  0.00000  0.00000  0.00000  0.00000  0.00000
2046 357717.000  -2408694.2933   4698106.5055   3566698.3298   6  13   0.1642   0.2489   0.1399  -0.1677   0.1663  -0.1225   0.00    0.0   -0.01380    0.01149    0.02095   0.00000  0.00000  0.00000  0.00000  0.00000  0.00000
2046 357718.000  -2408694.2949   4698106.5130   3566698.3337   6  13   0.1637   0.2482   0.1393  -0.1671   0.1657  -0.1221   0.00    0.0   -0.00623    0.01276   -0.00629   0.00000  0.00000  0.00000  0.00000  0.00000  0.00000
2046 357719.000  -2408694.2962   4698106.5179   3566698.3399   6  13   0.1633   0.2474   0.1388  -0.1666   0.1651  -0.1218   0.00    0.0   -0.01960    0.01574    0.00974   0.00000  0.00000  0.00000  0.00000  0.00000  0.00000
2046 357720.000  -2408694.2989   4698106.5224   3566698.3450   6  13   0.1628   0.2466   0.1383  -0.1661   0.1646  -0.1214   0.00    0.0   -0.00876    0.02223    0.03237   0.00000  0.00000  0.00000  0.00000  0.00000  0.00000
2046 357721.000  -2408694.3030   4698106.5242   3566698.3488   6  13   0.1624   0.2459   0.1378  -0.1656   0.1640  -0.1211   0.00    0.0   -0.01654   -0.00411    0.00541   0.00000  0.00000  0.00000  0.00000  0.00000  0.00000
2046 357722.000  -2408694.3076   4698106.5294   3566698.3495   6  13   0.1620   0.2452   0.1372  -0.1651   0.1635  -0.1207   0.00    0.0    0.00117    0.00951   -0.00248   0.00000  0.00000  0.00000  0.00000  0.00000  0.00000
2046 357723.000  -2408694.3081   4698106.5351   3566698.3525   6  13   0.1615   0.2444   0.1368  -0.1647   0.1630  -0.1203   0.00    0.0   -0.00243    0.00700    0.01051   0.00000  0.00000  0.00000  0.00000  0.00000  0.00000
