% program   : GINav v0.1.0
% obs start : 2019/03/28 03:28:10.0
% obs end   : 2019/03/28 03:59:50.0
% mode      : PPP/INS TC
% system    : GPS GLONASS 
% nfreqs    : 2
% elev mask : 10.0 deg
% ephemeris : precise
% ionos opt : iono-free LC
% trops opt : ZTD estimation
%
%  GPST              x-ecef(m)      y-ecef(m)      z-ecef(m)   Q  ns   sdx(m)   sdy(m)   sdz(m)  sdxy(m)  sdyz(m)  sdzx(m) age(s)  ratio    vx(m/s)    vy(m/s)    vz(m/s)      sdvx     sdvy     sdvz    sdvxy    sdvyz    sdvzx pitch(deg)  roll(deg)   yaw(deg)       sdp      sdr      sdy     sdpr     sdry     sdyp
2046 358097.000  -2408691.0401   4698107.8975   3566697.8613   3   0  25.9956  29.0088  29.8845 -10.7365   1.3054  -0.9347   0.00    0.0    1.46913    0.91224   -0.16498  10.00000 10.00000 10.00000  0.00000 -0.00000 -0.00000    0.00000    0.00000  262.85651   0.30000  0.30000  0.50000  0.00000  0.00000  0.00000
2046 358098.000  -2408689.3733   4698108.9849   3566697.5756   6  13   1.5453   2.3338   1.8572  -1.5305   1.6657  -1.1298   0.00    0.0    1.60624    0.98344   -0.27315   9.32211  9.44569  9.48654 -1.27106  0.23083 -0.15903   -0.19198    0.03523  259.42559   0.30002  0.30002  0.50001  0.00000 -0.00017 -0.00310
2046 358099.000  -2408687.7071   4698110.1646   3566697.1595   6  13   1.0982   1.6634   1.3212  -1.0922   1.1901  -0.8079   0.00    0.0    1.67082    1.13360   -0.38168   0.72889  1.02935  0.81704 -0.64554  0.72892 -0.48821   -0.69357   -2.07704  259.18825   0.30004  0.30004  0.50003  0.00005  0.00028 -0.00440
2046 358100.000  -2408685.8372   4698111.3569   3566696.7954   6  13   0.9000   1.3664   1.0837  -0.8981   0.9796  -0.6655   0.00    0.0    1.96179    1.28641   -0.38449   0.42493  0.59997  0.47627 -0.37583  0.42413 -0.28450    0.36303    1.72893  259.95845   0.29924  0.29920  0.50005  0.00818  0.00543 -0.00721
2046 358101.000  -2408683.7793   4698112.7215   3566696.4445   6  13   0.7821   1.1899   0.9424  -0.7829   0.8546  -0.5810   0.00    0.0    2.11639    1.26373   -0.19399   0.30764  0.42908  0.34278 -0.26548  0.29916 -0.20066    0.48730    1.15558  262.80602   0.29610  0.29589  0.50006  0.01760  0.01017 -0.01323
2046 358102.000  -2408681.6252   4698114.0470   3566696.2269   6  13   0.7018   1.0699   0.8462  -0.7045   0.7697  -0.5237   0.00    0.0    2.23509    1.17396   -0.00969   0.24977  0.33946  0.27484 -0.20457  0.22986 -0.15365    0.43367    0.77362  267.97787   0.28909  0.28852  0.50007  0.02767  0.01932 -0.01826
2046 358103.000  -2408679.3188   4698115.3079   3566696.2116   6  13   0.6427   0.9817   0.7754  -0.6470   0.7074  -0.4816   0.00    0.0    2.38938    1.09824    0.16218   0.21780  0.28635  0.23597 -0.16663  0.18634 -0.12327    0.35635    0.80762  272.69729   0.27793  0.27690  0.50006  0.03563  0.03023 -0.02258
2046 358104.000  -2408676.8248   4698116.5337   3566696.3902   6  13   0.5968   0.9134   0.7205  -0.6025   0.6591  -0.4491   0.00    0.0    2.58726    1.09672    0.34268   0.19751  0.25231  0.21131 -0.14248  0.15838 -0.10296    0.01311    1.15048  276.79469   0.26433  0.26293  0.50003  0.03947  0.03972 -0.02661
2046 358105.000  -2408674.1548   4698117.7377   3566696.7062   6  13   0.5599   0.8586   0.6763  -0.5668   0.6205  -0.4230   0.00    0.0    2.72106    1.06169    0.44377   0.18208  0.22916  0.19373 -0.12755  0.14130 -0.09012   -0.18099    1.15911  279.65850   0.25084  0.24931  0.50003  0.03928  0.04607 -0.02949
2046 358106.000  -2408671.3049   4698118.8918   3566697.1601   6  13   0.5295   0.8133   0.6397  -0.5374   0.5886  -0.4016   0.00    0.0    2.92228    1.04528    0.47898   0.16911  0.21267  0.18006 -0.11875  0.13150 -0.08311    0.01765    1.32976  282.11142   0.23929  0.23784  0.50004  0.03648  0.04999 -0.03157
2046 358107.000  -2408668.3380   4698120.0689   3566697.7128   6  13   0.5038   0.7752   0.6089  -0.5126   0.5617  -0.3835   0.00    0.0    2.97897    1.02760    0.60025   0.15792  0.20056  0.16893 -0.11349  0.12597 -0.07964   -0.00542    1.17165  283.62488   0.23024  0.22899  0.50008  0.03253  0.05145 -0.03306
2046 358108.000  -2408665.3327   4698121.2139   3566698.3217   6  13   0.4817   0.7425   0.5824  -0.4914   0.5388  -0.3680   0.00    0.0    2.98125    1.06587    0.61127   0.14811  0.19102  0.15956 -0.11007  0.12263 -0.07814    0.16164    1.38587  283.88097   0.22348  0.22247  0.50013  0.02834  0.05098 -0.03308
2046 358109.000  -2408662.3500   4698122.4045   3566698.9360   6  13   0.4625   0.7141   0.5594  -0.4729   0.5188  -0.3546   0.00    0.0    2.99259    1.09981    0.62547   0.13940  0.18300  0.15133 -0.10742  0.12011 -0.07734    0.00052    1.23656  284.25976   0.21854  0.21775  0.50017  0.02432  0.04887 -0.03286
2046 358110.000  -2408659.3329   4698123.5166   3566699.5682   6  12   0.4465   0.6969   0.5397  -0.4599   0.5039  -0.3439   0.00    0.0    3.03650    1.01816    0.66273   0.13154  0.17621  0.14392 -0.10501  0.11780 -0.07652   -0.14844    1.40200  285.23748   0.21494  0.21436  0.50019  0.02056  0.04651 -0.03278
2046 358111.000  -2408656.3180   4698124.6795   3566700.2306   6  13   0.4314   0.6738   0.5215  -0.4452   0.4880  -0.3333   0.00    0.0    3.06092    1.10323    0.58079   0.12448  0.16976  0.13712 -0.10240  0.11514 -0.07539   -0.10293    1.27066  284.38170   0.21227  0.21187  0.50020  0.01693  0.04376 -0.03317
2046 358112.000  -2408653.2407   4698125.8760   3566700.8401   6  13   0.4179   0.6532   0.5053  -0.4321   0.4738  -0.3238   0.00    0.0    3.10565    1.13696    0.63219   0.11803  0.16338  0.13071 -0.09962  0.11215 -0.07391   -0.20477    1.28759  283.75212   0.21028  0.21004  0.50018  0.01357  0.04071 -0.03457
2046 358113.000  -2408650.1247   4698127.0462   3566701.4076   6  11   0.4064   0.6414   0.4912  -0.4228   0.4629  -0.3161   0.00    0.0    3.12308    1.17464    0.55318   0.11210  0.15747  0.12474 -0.09672  0.10900 -0.07217   -0.11263    1.37758  283.33032   0.20881  0.20869  0.50016  0.01025  0.03774 -0.03595
2046 358114.000  -2408647.0447   4698128.2866   3566701.9629   6  10   0.3988   0.6315   0.4799  -0.4167   0.4547  -0.3121   0.00    0.0    3.10421    1.17399    0.57416   0.10685  0.15188  0.11920 -0.09394  0.10578 -0.07048    0.00365    1.09772  282.91279   0.20773  0.20772  0.50011  0.00662  0.03452 -0.03729
2046 358115.000  -2408643.9866   4698129.4991   3566702.5631   6  10   0.3916   0.6221   0.4694  -0.4107   0.4469  -0.3080   0.00    0.0    3.11464    1.10816    0.63875   0.10209  0.14663  0.11404 -0.09118  0.10249 -0.06869   -0.01607    1.26502  284.61635   0.20693  0.20702  0.50010 -0.00180  0.03191 -0.03808
2046 358116.000  -2408640.8827   4698130.6592   3566703.2429   6   9   0.3848   0.6143   0.4598  -0.4052   0.4400  -0.3041   0.00    0.0    3.18017    1.08783    0.72251   0.09780  0.14181  0.10933 -0.08846  0.09927 -0.06685   -0.06855    1.20583  285.72362   0.20631  0.20648  0.50014 -0.00642  0.03007 -0.03857
2046 358117.000  -2408637.7065   4698131.8408   3566703.9604   6   9   0.3785   0.6067   0.4510  -0.3998   0.4337  -0.3003   0.00    0.0    3.20699    1.11237    0.69250   0.09387  0.13714  0.10499 -0.08574  0.09614 -0.06503   -0.20418    1.72801  285.14348   0.20575  0.20601  0.50019 -0.00855  0.02849 -0.03917
2046 358118.000  -2408634.5302   4698133.0459   3566704.6328   6   9   0.3725   0.5995   0.4428  -0.3948   0.4277  -0.2968   0.00    0.0    3.20299    1.14069    0.70959   0.09023  0.13274  0.10095 -0.08312  0.09314 -0.06323   -0.21565    1.61326  284.72457   0.20528  0.20561  0.50022 -0.00998  0.02652 -0.04010
2046 358119.000  -2408631.3553   4698134.2240   3566705.3007   6   9   0.3668   0.5926   0.4351  -0.3900   0.4221  -0.2933   0.00    0.0    3.20440    1.11954    0.69859   0.08687  0.12858  0.09717 -0.08061  0.09025 -0.06147   -0.01479    1.63980  285.16507   0.20489  0.20527  0.50026 -0.01103  0.02453 -0.04093
2046 358120.000  -2408628.1912   4698135.3914   3566705.9959   6   9   0.3614   0.5861   0.4278  -0.3855   0.4168  -0.2901   0.00    0.0    3.19377    1.08504    0.77042   0.08381  0.12467  0.09364 -0.07823  0.08744 -0.05976   -0.10326    1.46322  285.78563   0.20455  0.20498  0.50031 -0.01188  0.02250 -0.04150
2046 358121.000  -2408625.0172   4698136.5689   3566706.7094   6   9   0.3563   0.5799   0.4210  -0.3811   0.4117  -0.2869   0.00    0.0    3.23202    1.09780    0.70372   0.08094  0.12099  0.09036 -0.07591  0.08478 -0.05808   -0.19728    1.52092  285.66780   0.20422  0.20470  0.50036 -0.01260  0.02034 -0.04201
2046 358122.000  -2408621.8347   4698137.7506   3566707.4307   6   9   0.3515   0.5740   0.4145  -0.3770   0.4070  -0.2839   0.00    0.0    3.21965    1.10296    0.80511   0.07829  0.11753  0.08728 -0.07372  0.08222 -0.05645   -0.24782    1.47738  285.79216   0.20391  0.20443  0.50042 -0.01323  0.01802 -0.04257
2046 358123.000  -2408618.5913   4698138.9447   3566708.1438   6   9   0.3469   0.5684   0.4084  -0.3731   0.4024  -0.2810   0.00    0.0    3.26522    1.15083    0.73445   0.07581  0.11424  0.08442 -0.07161  0.07981 -0.05489   -0.24125    1.48393  285.15356   0.20363  0.20417  0.50049 -0.01378  0.01579 -0.04328
2046 358124.000  -2408615.3537   4698140.2037   3566708.8210   6   9   0.3425   0.5629   0.4027  -0.3693   0.3981  -0.2783   0.00    0.0    3.27004    1.21067    0.71081   0.07347  0.11111  0.08171 -0.06962  0.07753 -0.05342   -0.26629    1.50869  283.55550   0.20340  0.20397  0.50054 -0.01425  0.01280 -0.04423
2046 358125.000  -2408612.1130   4698141.5121   3566709.4252   6   9   0.3383   0.5577   0.3972  -0.3657   0.3939  -0.2756   0.00    0.0    3.27159    1.20900    0.64875   0.07127  0.10814  0.07914 -0.06775  0.07536 -0.05203   -0.28378    1.34485  282.70823   0.20328  0.20386  0.50056 -0.01461  0.00828 -0.04518
2046 358126.000  -2408608.9147   4698142.7912   3566709.9800   6   8   0.3343   0.5531   0.3921  -0.3621   0.3902  -0.2729   0.00    0.0    3.21205    1.18006    0.61501   0.06921  0.10541  0.07677 -0.06595  0.07332 -0.05067   -0.14904    1.45105  282.59689   0.20327  0.20385  0.50056 -0.01488 -0.00583 -0.04567
2046 358127.000  -2408605.7473   4698144.0328   3566710.5486   6   8   0.3304   0.5481   0.3873  -0.3586   0.3865  -0.2703   0.00    0.0    3.21233    1.13831    0.72208   0.06734  0.10274  0.07454 -0.06423  0.07130 -0.04933   -0.16092    1.14635  283.87173   0.20332  0.20389  0.50059 -0.01513 -0.01091 -0.04570
2046 358128.000  -2408602.5575   4698145.2128   3566711.1717   6   9   0.3252   0.5427   0.3819  -0.3541   0.3820  -0.2664   0.00    0.0    3.21278    1.09051    0.74181   0.06550  0.10021  0.07244 -0.06248  0.06932 -0.04794   -0.26707    1.27859  285.01083   0.20338  0.20396  0.50066 -0.01534 -0.01315 -0.04544
2046 358129.000  -2408599.3259   4698146.3994   3566711.8589   6   9   0.3201   0.5374   0.3767  -0.3496   0.3777  -0.2626   0.00    0.0    3.27864    1.09375    0.80002   0.06378  0.09780  0.07047 -0.06076  0.06742 -0.04658   -0.21526    1.44003  285.20473   0.20345  0.20401  0.50076 -0.01554 -0.01450 -0.04519
2046 358130.000  -2408596.0669   4698147.6178   3566712.5408   6  10   0.3154   0.5322   0.3715  -0.3455   0.3734  -0.2592   0.00    0.0    3.27458    1.12885    0.76959   0.06216  0.09549  0.06863 -0.05912  0.06560 -0.04529   -0.09763    1.32720  284.89956   0.20350  0.20406  0.50088 -0.01572 -0.01580 -0.04503
2046 358131.000  -2408592.8085   4698148.8304   3566713.2283   6  11   0.3109   0.5264   0.3664  -0.3415   0.3689  -0.2559   0.00    0.0    3.28158    1.08989    0.82328   0.06065  0.09325  0.06687 -0.05755  0.06380 -0.04403   -0.25758    1.43669  285.16876   0.20355  0.20410  0.50100 -0.01588 -0.01698 -0.04484
2046 358132.000  -2408589.5470   4698150.0503   3566713.9273   6  11   0.3067   0.5207   0.3616  -0.3377   0.3645  -0.2527   0.00    0.0    3.27055    1.08425    0.79552   0.05923  0.09110  0.06524 -0.05603  0.06209 -0.04282   -0.19248    1.46653  285.19490   0.20359  0.20413  0.50112 -0.01602 -0.01802 -0.04459
2046 358133.000  -2408586.2809   4698151.2607   3566714.6065   6  11   0.3027   0.5154   0.3570  -0.3341   0.3605  -0.2497   0.00    0.0    3.30221    1.07775    0.76360   0.05789  0.08907  0.06370 -0.05458  0.06045 -0.04167   -0.23967    1.57909  284.98062   0.20362  0.20415  0.50125 -0.01615 -0.01908 -0.04433
2046 358134.000  -2408583.0177   4698152.4954   3566715.2824   6  10   0.2988   0.5106   0.3528  -0.3306   0.3569  -0.2469   0.00    0.0    3.27933    1.11879    0.80164   0.05665  0.08716  0.06227 -0.05318  0.05890 -0.04054   -0.31400    1.61766  284.49596   0.20365  0.20417  0.50138 -0.01626 -0.02018 -0.04407
2046 358135.000  -2408579.7218   4698153.7082   3566715.8943   6  11   0.2951   0.5053   0.3488  -0.3271   0.3533  -0.2441   0.00    0.0    3.35112    1.17692    0.74979   0.05548  0.08526  0.06091 -0.05183  0.05740 -0.03947   -0.23489    1.46160  283.83235   0.20368  0.20419  0.50151 -0.01634 -0.02135 -0.04390
2046 358136.000  -2408576.3494   4698154.9967   3566716.5045   6  10   0.2916   0.5009   0.3449  -0.3238   0.3503  -0.2415   0.00    0.0    3.42035    1.17645    0.74804   0.05438  0.08352  0.05962 -0.05054  0.05598 -0.03843   -0.26220    1.45028  283.50248   0.20373  0.20422  0.50166 -0.01638 -0.02214 -0.04401
2046 358137.000  -2408572.9322   4698156.3104   3566717.1112   6  10   0.2883   0.4972   0.3411  -0.3209   0.3471  -0.2391   0.00    0.0    3.45150    1.19337    0.75159   0.05336  0.08191  0.05839 -0.04931  0.05459 -0.03741   -0.36630    1.35744  283.31392   0.20377  0.20426  0.50182 -0.01642 -0.02283 -0.04419
2046 358138.000  -2408569.5622   4698157.6312   3566717.6807   6  10   0.2850   0.4932   0.3373  -0.3179   0.3439  -0.2367   0.00    0.0    3.30899    1.19646    0.67626   0.05241  0.08035  0.05726 -0.04809  0.05324 -0.03643   -0.22516    1.24313  282.42533   0.20381  0.20428  0.50197 -0.01647 -0.02376 -0.04405
2046 358139.000  -2408566.3238   4698158.9664   3566718.1735   6  10   0.2819   0.4894   0.3338  -0.3151   0.3409  -0.2344   0.00    0.0    3.21518    1.20051    0.57591   0.05155  0.07886  0.05623 -0.04691  0.05192 -0.03550   -0.20115    1.21310  280.71847   0.20379  0.20426  0.50203 -0.01657 -0.02484 -0.04299
2046 358140.000  -2408563.1624   4698160.3440   3566718.5838   6  10   0.2789   0.4857   0.3303  -0.3124   0.3380  -0.2322   0.00    0.0    3.15531    1.23327    0.53406   0.05084  0.07746  0.05530 -0.04576  0.05060 -0.03457   -0.07422    0.87761  279.83253   0.20364  0.20411  0.50203 -0.01671 -0.02569 -0.04104
2046 358141.000  -2408560.0060   4698161.7149   3566718.9786   6  10   0.2761   0.4819   0.3272  -0.3097   0.3354  -0.2301   0.00    0.0    3.26260    1.23573    0.56086   0.05021  0.07613  0.05440 -0.04466  0.04934 -0.03360   -0.10078    1.11063  279.99732   0.20326  0.20372  0.50206 -0.01688 -0.02578 -0.03865
2046 358142.000  -2408556.7589   4698163.0615   3566719.4629   6  11   0.2726   0.4769   0.3240  -0.3060   0.3325  -0.2278   0.00    0.0    3.34839    1.16599    0.75657   0.04945  0.07478  0.05347 -0.04352  0.04815 -0.03263   -0.32054    1.15032  283.06033   0.20267  0.20310  0.50223 -0.01698 -0.02550 -0.03780
2046 358143.000  -2408553.4424   4698164.2707   3566720.1406   6  11   0.2700   0.4727   0.3210  -0.3035   0.3298  -0.2258   0.00    0.0    3.31327    1.00277    0.90774   0.04856  0.07342  0.05245 -0.04257  0.04716 -0.03181   -0.37731    1.30935  286.72522   0.20213  0.20254  0.50231 -0.01703 -0.02292 -0.03911
2046 358144.000  -2408550.2081   4698165.3263   3566720.9569   6  11   0.2674   0.4685   0.3180  -0.3009   0.3271  -0.2239   0.00    0.0    3.25138    0.87082    0.99141   0.04768  0.07206  0.05141 -0.04173  0.04620 -0.03108   -0.13802    1.31744  289.78922   0.20189  0.20227  0.50213 -0.01710 -0.01689 -0.03964
2046 358145.000  -2408546.9211   4698166.3914   3566721.8541   6  11   0.2650   0.4646   0.3151  -0.2985   0.3245  -0.2221   0.00    0.0    3.28110    0.97743    1.08782   0.04702  0.07082  0.05051 -0.04086  0.04514 -0.03039   -0.26791    1.44609  289.41989   0.20181  0.20218  0.50195 -0.01715 -0.01033 -0.03873
2046 358146.000  -2408543.6315   4698167.4803   3566722.7196   6  11   0.2626   0.4608   0.3123  -0.2962   0.3220  -0.2203   0.00    0.0    3.28597    0.98652    0.94299   0.04639  0.06961  0.04978 -0.03999  0.04410 -0.02967   -0.26196    1.26465  288.40797   0.20164  0.20201  0.50192 -0.01712 -0.00343 -0.03674
2046 358147.000  -2408540.3724   4698168.7080   3566723.5490   6  13   0.2597   0.4548   0.3095  -0.2926   0.3189  -0.2182   0.00    0.0    3.28335    1.04133    0.90916   0.04579  0.06831  0.04908 -0.03903  0.04304 -0.02892   -0.17385    1.22404  287.17512   0.20129  0.20166  0.50204 -0.01699  0.00395 -0.03483
2046 358148.000  -2408537.0915   4698169.8574   3566724.2923   6  12   0.2569   0.4507   0.3069  -0.2898   0.3165  -0.2164   0.00    0.0    3.29391    1.06580    0.86092   0.04516  0.06713  0.04837 -0.03815  0.04212 -0.02825   -0.03880    1.25009  286.36680   0.20082  0.20118  0.50223 -0.01678  0.00279 -0.03360
2046 358149.000  -2408533.8379   4698171.0379   3566725.0046   6  12   0.2543   0.4468   0.3044  -0.2871   0.3141  -0.2147   0.00    0.0    3.23411    1.13085    0.74347   0.04449  0.06599  0.04766 -0.03729  0.04127 -0.02760   -0.32424    1.03390  285.88639   0.20031  0.20067  0.50243 -0.01653 -0.00487 -0.03296
2046 358150.000  -2408530.6414   4698172.2442   3566725.6946   6  13   0.2517   0.4414   0.3018  -0.2840   0.3114  -0.2129   0.00    0.0    3.19087    1.08704    0.82370   0.04384  0.06475  0.04692 -0.03650  0.04042 -0.02700   -0.16297    1.50995  285.42979   0.19983  0.20020  0.50262 -0.01627 -0.00990 -0.03243
2046 358151.000  -2408527.4311   4698173.4921   3566726.3774   6  13   0.2492   0.4362   0.2994  -0.2810   0.3087  -0.2112   0.00    0.0    3.28152    1.12361    0.73445   0.04314  0.06349  0.04622 -0.03571  0.03965 -0.02646   -0.30944    1.55271  285.05996   0.19942  0.19978  0.50282 -0.01601 -0.01241 -0.03239
2046 358152.000  -2408524.1302   4698174.7570   3566727.0504   6  13   0.2469   0.4314   0.2970  -0.2783   0.3061  -0.2096   0.00    0.0    3.34716    1.19238    0.77970   0.04250  0.06230  0.04554 -0.03498  0.03890 -0.02594   -0.28909    1.79461  284.56140   0.19910  0.19946  0.50302 -0.01575 -0.01247 -0.03306
2046 358153.000  -2408520.8845   4698176.0404   3566727.6737   6  13   0.2446   0.4269   0.2947  -0.2756   0.3037  -0.2080   0.00    0.0    3.17997    1.15773    0.71168   0.04183  0.06118  0.04485 -0.03425  0.03820 -0.02544   -0.42379    1.52926  284.05406   0.19887  0.19924  0.50321 -0.01551 -0.01435 -0.03371
2046 358154.000  -2408517.7006   4698177.2583   3566728.2834   6  13   0.2425   0.4226   0.2925  -0.2732   0.3015  -0.2066   0.00    0.0    3.21536    1.13385    0.71593   0.04121  0.06008  0.04419 -0.03359  0.03752 -0.02496   -0.55622    1.48306  284.55186   0.19871  0.19911  0.50340 -0.01536 -0.01649 -0.03358
2046 358155.000  -2408514.5172   4698178.4811   3566728.8965   6  13   0.2404   0.4185   0.2904  -0.2708   0.2993  -0.2052   0.00    0.0    3.19419    1.13805    0.74261   0.04064  0.05903  0.04356 -0.03294  0.03684 -0.02449   -0.57657    1.37767  284.36072   0.19860  0.19901  0.50361 -0.01527 -0.01805 -0.03336
2046 358156.000  -2408511.3245   4698179.7361   3566729.4731   6  13   0.2384   0.4145   0.2882  -0.2685   0.2971  -0.2038   0.00    0.0    3.20718    1.19615    0.65185   0.04010  0.05799  0.04296 -0.03231  0.03620 -0.02405   -0.59415    1.23400  283.18025   0.19851  0.19895  0.50380 -0.01523 -0.01976 -0.03317
2046 358157.000  -2408508.1072   4698181.0026   3566729.9991   6  12   0.2365   0.4120   0.2862  -0.2668   0.2954  -0.2025   0.00    0.0    3.30918    1.27768    0.62326   0.03962  0.05709  0.04240 -0.03173  0.03557 -0.02361   -0.74865    0.85783  282.21197   0.19842  0.19889  0.50395 -0.01529 -0.02188 -0.03299
2046 358158.000  -2408504.7293   4698182.3917   3566730.4642   6  13   0.2346   0.4083   0.2841  -0.2646   0.2933  -0.2012   0.00    0.0    3.42563    1.39010    0.43340   0.03931  0.05613  0.04194 -0.03114  0.03490 -0.02312   -0.68626    0.95396  279.65074   0.19826  0.19875  0.50396 -0.01542 -0.02525 -0.03333
2046 358159.000  -2408501.2602   4698183.9773   3566730.7408   6  13   0.2328   0.4045   0.2820  -0.2626   0.2912  -0.1999   0.00    0.0    3.53647    1.66855    0.28679   0.03951  0.05528  0.04179 -0.03049  0.03403 -0.02247   -0.68472    0.92589  275.18596   0.19775  0.19829  0.50348 -0.01576 -0.03234 -0.03158
2046 358160.000  -2408497.6301   4698185.8579   3566730.7462   6  13   0.2310   0.4010   0.2799  -0.2606   0.2891  -0.1986   0.00    0.0    3.61079    1.94769   -0.12647   0.04083  0.05467  0.04218 -0.02957  0.03278 -0.02160   -0.46391    0.37241  269.35198   0.19608  0.19672  0.50185 -0.01659 -0.04525 -0.02194
2046 358161.000  -2408494.0715   4698188.0842   3566730.2574   6  12   0.2298   0.3981   0.2779  -0.2592   0.2873  -0.1975   0.00    0.0    3.39363    2.34488   -0.63821   0.04432  0.05470  0.04405 -0.02765  0.03036 -0.02053   -0.01855    0.46342  259.16772   0.19137  0.19222  0.49838 -0.01914 -0.06089  0.03847
2046 358162.000  -2408490.8219   4698190.6613   3566729.1301   6  12   0.2283   0.3951   0.2759  -0.2576   0.2855  -0.1964   0.00    0.0    3.09621    2.63493   -1.25400   0.04961  0.05561  0.04795 -0.02430  0.02568 -0.01857    0.39491    0.09201  248.95833   0.18024  0.18110  0.49261 -0.02444 -0.07512  0.07736
2046 358163.000  -2408487.9532   4698193.3950   3566727.5427   6  12   0.2269   0.3922   0.2740  -0.2561   0.2836  -0.1952   0.00    0.0    2.73836    2.72663   -1.65609   0.05388  0.05677  0.05196 -0.02038  0.01969 -0.01481    0.19938    0.06728  242.14022   0.16131  0.16126  0.48790 -0.02947 -0.08253  0.10704
2046 358164.000  -2408485.4623   4698196.1222   3566725.7027   6  12   0.2255   0.3893   0.2720  -0.2546   0.2818  -0.1941   0.00    0.0    2.36790    2.71801   -1.88296   0.05585  0.05722  0.05391 -0.01723  0.01547 -0.00994    0.32965    0.07338  236.62419   0.13832  0.13648  0.48623 -0.03026 -0.07983  0.12270
2046 358165.000  -2408483.2822   4698198.8672   3566723.6674   6  12   0.2242   0.3866   0.2701  -0.2531   0.2800  -0.1930   0.00    0.0    2.13068    2.74163   -2.07582   0.05581  0.05687  0.05362 -0.01577  0.01440 -0.00614    0.87650   -0.25967  232.75912   0.11614  0.11269  0.48601 -0.02769 -0.07237  0.12733
2046 358166.000  -2408481.2972   4698201.6352   3566721.4918   6  12   0.2229   0.3839   0.2683  -0.2517   0.2783  -0.1919   0.00    0.0    1.89630    2.74033   -2.22158   0.05451  0.05595  0.05221 -0.01568  0.01541 -0.00558    0.27179    0.67452  228.72302   0.09727  0.09297  0.48589 -0.02402 -0.06457  0.12509
2046 358167.000  -2408479.6196   4698204.3145   3566719.2062   6  13   0.2216   0.3813   0.2664  -0.2503   0.2766  -0.1908   0.00    0.0    1.57217    2.64649   -2.34130   0.05274  0.05477  0.05056 -0.01607  0.01699 -0.00673    0.34033    0.82606  224.72461   0.08213  0.07748  0.48499 -0.01999 -0.05439  0.11994
2046 358168.000  -2408478.1603   4698206.9591   3566716.7780   6  11   0.2223   0.3795   0.2657  -0.2504   0.2760  -0.1917   0.00    0.0    1.35106    2.67444   -2.47502   0.05124  0.05358  0.04884 -0.01672  0.01826 -0.00937    0.33576    0.63368  221.43557   0.07046  0.06556  0.48373 -0.01692 -0.04551  0.11421
2046 358169.000  -2408476.8190   4698209.5959   3566714.3053   6  12   0.2215   0.3772   0.2643  -0.2494   0.2747  -0.1912   0.00    0.0    1.26978    2.64352   -2.53971   0.04928  0.05243  0.04700 -0.01750  0.01940 -0.01101    0.59254    0.46539  220.39625   0.06100  0.05635  0.48192 -0.01423 -0.03943  0.10761
2046 358170.000  -2408475.5157   4698212.1970   3566711.8584   6  11   0.2206   0.3749   0.2629  -0.2483   0.2734  -0.1905   0.00    0.0    1.30075    2.59523   -2.45691   0.04737  0.05140  0.04521 -0.01805  0.02032 -0.01245    0.49914    0.57999  220.41331   0.05343  0.04928  0.47917 -0.01219 -0.03555  0.10031
2046 358171.000  -2408474.1828   4698214.7786   3566709.4678   6  12   0.2199   0.3728   0.2614  -0.2473   0.2721  -0.1899   0.00    0.0    1.40501    2.60834   -2.38776   0.04551  0.05036  0.04352 -0.01865  0.02099 -0.01368    0.54543    0.22288  222.17256   0.04742  0.04388  0.47547 -0.01079 -0.03396  0.09271
2046 358172.000  -2408472.6971   4698217.3924   3566707.1032   6  13   0.2179   0.3702   0.2597  -0.2455   0.2704  -0.1885   0.00    0.0    1.52899    2.64812   -2.39442   0.04345  0.04926  0.04194 -0.01939  0.02163 -0.01452    0.48477    0.49543  223.89728   0.04261  0.03977  0.47069 -0.00977 -0.03485  0.08490
2046 358173.000  -2408471.1602   4698220.0940   3566704.6740   6  13   0.2164   0.3677   0.2581  -0.2439   0.2688  -0.1874   0.00    0.0    1.48131    2.72034   -2.46859   0.04163  0.04807  0.04050 -0.02009  0.02232 -0.01496    0.30816    0.59844  223.02735   0.03894  0.03664  0.46615 -0.00907 -0.03678  0.07813
2046 358174.000  -2408469.6948   4698222.8380   3566702.1919   6  13   0.2150   0.3654   0.2566  -0.2425   0.2674  -0.1864   0.00    0.0    1.43339    2.71735   -2.47977   0.04018  0.04705  0.03924 -0.02042  0.02279 -0.01528    0.34751    0.57247  221.86069   0.03612  0.03424  0.46236 -0.00847 -0.03829  0.07257
2046 358175.000  -2408468.2601   4698225.5823   3566699.6055   6  12   0.2140   0.3633   0.2553  -0.2414   0.2662  -0.1858   0.00    0.0    1.36262    2.77404   -2.59503   0.03887  0.04608  0.03818 -0.02077  0.02309 -0.01551    0.48378    0.39388  220.67020   0.03395  0.03236  0.45927 -0.00795 -0.03943  0.06803
2046 358176.000  -2408466.8392   4698228.3421   3566697.0019   6  10   0.2147   0.3620   0.2545  -0.2416   0.2655  -0.1862   0.00    0.0    1.39162    2.77739   -2.58070   0.03797  0.04531  0.03724 -0.02091  0.02322 -0.01587    0.55500    0.59736  220.75748   0.03226  0.03091  0.45630 -0.00754 -0.04051  0.06401
2046 358177.000  -2408465.4271   4698231.1037   3566694.4244   6  12   0.2137   0.3601   0.2531  -0.2405   0.2643  -0.1854   0.00    0.0    1.37652    2.74238   -2.59338   0.03695  0.04451  0.03633 -0.02097  0.02335 -0.01598    0.44093    0.64137  220.66448   0.03091  0.02978  0.45315 -0.00709 -0.04125  0.06015
2046 358178.000  -2408464.0300   4698233.8519   3566691.8373   6  12   0.2121   0.3580   0.2516  -0.2391   0.2628  -0.1841   0.00    0.0    1.35382    2.75819   -2.59116   0.03594  0.04377  0.03551 -0.02100  0.02339 -0.01600    0.45616    0.76535  220.26287   0.02986  0.02892  0.45006 -0.00665 -0.04170  0.05660
2046 358179.000  -2408462.6382   4698236.6903   3566689.1617   6  13   0.2107   0.3560   0.2502  -0.2378   0.2615  -0.1832   0.00    0.0    1.40779    2.96993   -2.79714   0.03487  0.04301  0.03486 -0.02125  0.02329 -0.01595    0.43792    0.84607  219.62401   0.02907  0.02829  0.44736 -0.00628 -0.04234  0.05364
2046 358180.000  -2408461.1494   4698239.7447   3566686.2473   6  13   0.2095   0.3541   0.2489  -0.2366   0.2603  -0.1823   0.00    0.0    1.52015    3.09293   -2.95812   0.03403  0.04235  0.03427 -0.02129  0.02314 -0.01590    0.39112    0.87575  219.42538   0.02850  0.02785  0.44502 -0.00606 -0.04373  0.05144
2046 358181.000  -2408459.6015   4698242.9378   3566683.2045   6  12   0.2085   0.3524   0.2477  -0.2356   0.2592  -0.1816   0.00    0.0    1.57313    3.26390   -3.14480   0.03328  0.04169  0.03371 -0.02135  0.02304 -0.01574    0.44038    0.95009  219.13179   0.02811  0.02757  0.44265 -0.00587 -0.04513  0.04956
2046 358182.000  -2408458.0001   4698246.3981   3566679.9424   6  11   0.2083   0.3510   0.2466  -0.2352   0.2583  -0.1812   0.00    0.0    1.68042    3.56253   -3.33657   0.03271  0.04110  0.03330 -0.02145  0.02285 -0.01550    0.38671    0.92837  219.13088   0.02785  0.02743  0.44006 -0.00576 -0.04673  0.04809
2046 358183.000  -2408456.2894   4698249.9691   3566676.5241   6  12   0.2088   0.3498   0.2461  -0.2352   0.2578  -0.1817   0.00    0.0    1.69500    3.55711   -3.35950   0.03222  0.04055  0.03270 -0.02124  0.02279 -0.01571    0.35385    0.74096  219.11821   0.02770  0.02738  0.43734 -0.00567 -0.04813  0.04679
2046 358184.000  -2408454.6089   4698253.4363   3566673.2246   6  11   0.2077   0.3483   0.2448  -0.2342   0.2567  -0.1808   0.00    0.0    1.69150    3.46857   -3.27291   0.03168  0.04006  0.03208 -0.02095  0.02271 -0.01582    0.40953    0.63581  219.58100   0.02763  0.02739  0.43500 -0.00545 -0.04875  0.04533
2046 358185.000  -2408452.9021   4698256.9060   3566669.9515   6  11   0.2070   0.3468   0.2437  -0.2335   0.2557  -0.1801   0.00    0.0    1.73122    3.42687   -3.23323   0.03124  0.03959  0.03157 -0.02071  0.02258 -0.01582    0.27201    0.76230  220.13684   0.02763  0.02745  0.43260 -0.00520 -0.04894  0.04384
2046 358186.000  -2408451.1844   4698260.2871   3566666.7732   6  11   0.2074   0.3457   0.2430  -0.2335   0.2552  -0.1805   0.00    0.0    1.74571    3.42339   -3.17776   0.03093  0.03913  0.03112 -0.02051  0.02245 -0.01586    0.43106    0.92176  220.32722   0.02769  0.02755  0.43012 -0.00491 -0.04863  0.04237
2046 358187.000  -2408449.4962   4698263.6869   3566663.5743   6  11   0.2067   0.3442   0.2419  -0.2328   0.2542  -0.1799   0.00    0.0    1.67218    3.35190   -3.18928   0.03056  0.03862  0.03062 -0.02034  0.02239 -0.01569    0.41985    0.76869  219.82290   0.02781  0.02768  0.42788 -0.00459 -0.04804  0.04111
2046 358188.000  -2408447.8654   4698267.0398   3566660.4107   6  11   0.2055   0.3426   0.2405  -0.2317   0.2530  -0.1789   0.00    0.0    1.62486    3.35627   -3.12254   0.03021  0.03817  0.03022 -0.02012  0.02223 -0.01550    0.38618    0.78047  219.51752   0.02796  0.02781  0.42584 -0.00427 -0.04715  0.04010
2046 358189.000  -2408446.2623   4698270.3600   3566657.2756   6  11   0.2046   0.3411   0.2392  -0.2309   0.2519  -0.1781   0.00    0.0    1.59733    3.30294   -3.11169   0.02991  0.03774  0.02985 -0.01993  0.02205 -0.01530    0.47471    0.38411  219.84322   0.02813  0.02796  0.42393 -0.00394 -0.04606  0.03932
2046 358190.000  -2408444.6376   4698273.6143   3566654.2317   6  11   0.2038   0.3396   0.2380  -0.2301   0.2508  -0.1774   0.00    0.0    1.67211    3.23451   -3.01363   0.02970  0.03738  0.02954 -0.01963  0.02178 -0.01520    0.31738    0.70150  220.59207   0.02833  0.02812  0.42171 -0.00359 -0.04463  0.03865
2046 358191.000  -2408442.9895   4698276.8711   3566651.2479   6  12   0.2029   0.3381   0.2368  -0.2291   0.2497  -0.1767   0.00    0.0    1.72038    3.22586   -2.98759   0.02940  0.03699  0.02926 -0.01941  0.02151 -0.01503    0.38666    0.82060  221.23844   0.02853  0.02827  0.41934 -0.00320 -0.04294  0.03809
2046 358192.000  -2408441.2894   4698280.0866   3566648.2896   6  10   0.2033   0.3371   0.2362  -0.2292   0.2492  -0.1770   0.00    0.0    1.71881    3.18302   -2.92137   0.02929  0.03662  0.02899 -0.01921  0.02129 -0.01491    0.48746    1.12377  221.38666   0.02874  0.02843  0.41706 -0.00278 -0.04105  0.03772
2046 358193.000  -2408439.6511   4698283.3030   3566645.3194   6  10   0.2029   0.3357   0.2351  -0.2286   0.2483  -0.1766   0.00    0.0    1.60973    3.17348   -2.94805   0.02904  0.03620  0.02872 -0.01912  0.02112 -0.01461    0.41499    0.97645  220.39549   0.02894  0.02857  0.41522 -0.00232 -0.03904  0.03764
2046 358194.000  -2408438.0295   4698286.4777   3566642.3593   6   9   0.2032   0.3347   0.2341  -0.2286   0.2475  -0.1764   0.00    0.0    1.66919    3.16454   -2.89523   0.02896  0.03589  0.02852 -0.01895  0.02083 -0.01447    0.38414    1.01888  220.91222   0.02912  0.02869  0.41374 -0.00175 -0.03696  0.03776
2046 358195.000  -2408436.3917   4698289.6121   3566639.4854   6  10   0.2026   0.3335   0.2331  -0.2280   0.2467  -0.1759   0.00    0.0    1.64614    3.00066   -2.80550   0.02891  0.03557  0.02827 -0.01868  0.02061 -0.01421    0.61387    1.26568  221.71598   0.02930  0.02880  0.41214 -0.00090 -0.03451  0.03800
2046 358196.000  -2408434.7071   4698292.7157   3566636.6728   6  10   0.2020   0.3323   0.2321  -0.2274   0.2458  -0.1754   0.00    0.0    1.73418    3.09654   -2.79911   0.02865  0.03527  0.02813 -0.01852  0.02028 -0.01409    0.30280    0.93579  222.57848   0.02945  0.02889  0.41055  0.00123 -0.03171  0.03828
2046 358197.000  -2408432.9937   4698295.8543   3566633.8144   6  11   0.2008   0.3309   0.2310  -0.2264   0.2448  -0.1745   0.00    0.0    1.74961    3.11962   -2.85339   0.02838  0.03493  0.02796 -0.01839  0.02002 -0.01382    0.26396    0.88919  221.65498   0.02957  0.02895  0.40935  0.00192 -0.02877  0.03857
2046 358198.000  -2408431.3868   4698299.0064   3566630.9147   6  12   0.2000   0.3296   0.2298  -0.2256   0.2438  -0.1739   0.00    0.0    1.59899    3.09707   -2.92287   0.02817  0.03457  0.02774 -0.01828  0.01984 -0.01349    0.58188    0.82158  220.25982   0.02965  0.02898  0.40876  0.00238 -0.02599  0.03900
2046 358199.000  -2408429.8249   4698302.1104   3566627.9845   6  12   0.1993   0.3284   0.2288  -0.2249   0.2430  -0.1733   0.00    0.0    1.58310    3.09480   -2.88746   0.02802  0.03428  0.02755 -0.01807  0.01959 -0.01330    0.29487    0.93347  219.90658   0.02970  0.02899  0.40854  0.00272 -0.02333  0.03952
2046 358200.000  -2408428.2979   4698305.1688   3566625.0990   6  11   0.1986   0.3272   0.2279  -0.2243   0.2422  -0.1729   0.00    0.0    1.57931    3.05756   -2.81607   0.02791  0.03400  0.02736 -0.01785  0.01934 -0.01311    0.40379    1.53439  220.01355   0.02973  0.02898  0.40838  0.00303 -0.02031  0.04006
2046 358201.000  -2408426.8058   4698308.2008   3566622.2487   6  12   0.1978   0.3260   0.2268  -0.2235   0.2413  -0.1722   0.00    0.0    1.54278    3.06721   -2.86086   0.02771  0.03370  0.02718 -0.01766  0.01910 -0.01288    0.32514    1.76400  219.73232   0.02974  0.02895  0.40832  0.00329 -0.01691  0.04064
2046 358202.000  -2408425.3141   4698311.2647   3566619.3757   6  12   0.1968   0.3247   0.2258  -0.2226   0.2404  -0.1716   0.00    0.0    1.56418    3.07327   -2.90578   0.02752  0.03341  0.02700 -0.01746  0.01885 -0.01267    0.42063    1.62615  219.84466   0.02972  0.02890  0.40841  0.00351 -0.01314  0.04103
2046 358203.000  -2408423.7932   4698314.3607   3566616.4800   6  12   0.1960   0.3235   0.2249  -0.2218   0.2395  -0.1709   0.00    0.0    1.57839    3.09662   -2.87861   0.02737  0.03314  0.02683 -0.01725  0.01860 -0.01246    0.31060    1.56863  220.07813   0.02967  0.02883  0.40857  0.00371 -0.00833  0.04118
2046 358204.000  -2408422.2330   4698317.4638   3566613.5761   6  12   0.1952   0.3223   0.2239  -0.2211   0.2387  -0.1704   0.00    0.0    1.68207    3.10239   -2.89676   0.02723  0.03288  0.02668 -0.01705  0.01834 -0.01227    0.14699    1.67311  220.65296   0.02960  0.02876  0.40870  0.00388  0.00565  0.04112
2046 358205.000  -2408420.6380   4698320.5860   3566610.6604   6  12   0.1945   0.3212   0.2230  -0.2204   0.2379  -0.1698   0.00    0.0    1.63118    3.11451   -2.92425   0.02709  0.03260  0.02650 -0.01685  0.01813 -0.01204    0.30406    1.61354  220.49938   0.02951  0.02867  0.40882  0.00403  0.01129  0.04091
2046 358206.000  -2408419.0796   4698323.7118   3566607.7258   6  12   0.1938   0.3200   0.2221  -0.2197   0.2371  -0.1693   0.00    0.0    1.54986    3.11376   -2.92193   0.02696  0.03234  0.02630 -0.01664  0.01793 -0.01185    0.43167    1.41921  219.57362   0.02940  0.02856  0.40904  0.00413  0.01428  0.04068
2046 358207.000  -2408417.5971   4698326.8283   3566604.7516   6  12   0.1934   0.3191   0.2213  -0.2193   0.2364  -0.1689   0.00    0.0    1.50763    3.12989   -2.98624   0.02684  0.03208  0.02611 -0.01646  0.01774 -0.01167    0.38171    1.38565  218.52751   0.02927  0.02844  0.40936  0.00421  0.01595  0.04056
2046 358208.000  -2408416.1642   4698329.9692   3566601.7109   6  12   0.1926   0.3180   0.2205  -0.2185   0.2356  -0.1683   0.00    0.0    1.46660    3.17079   -3.03858   0.02669  0.03182  0.02593 -0.01627  0.01755 -0.01150    0.40281    1.27632  218.17014   0.02913  0.02831  0.40964  0.00423  0.01669  0.04031
2046 358209.000  -2408414.7029   4698333.1550   3566598.6398   6  12   0.1919   0.3169   0.2196  -0.2178   0.2349  -0.1678   0.00    0.0    1.57712    3.27875   -3.11389   0.02659  0.03155  0.02579 -0.01611  0.01735 -0.01126    0.38245    1.18971  218.64311   0.02899  0.02818  0.40982  0.00423  0.01723  0.03983
2046 358210.000  -2408413.1271   4698336.5146   3566595.4441   6  12   0.1912   0.3159   0.2188  -0.2172   0.2342  -0.1673   0.00    0.0    1.65085    3.41317   -3.21550   0.02653  0.03130  0.02568 -0.01595  0.01717 -0.01098    0.51865    1.26104  219.04678   0.02882  0.02805  0.40951  0.00420  0.01734  0.03859
2046 358211.000  -2408411.4914   4698339.9537   3566592.2001   6  12   0.1906   0.3149   0.2181  -0.2166   0.2335  -0.1668   0.00    0.0    1.75720    3.42484   -3.26082   0.02639  0.03106  0.02554 -0.01582  0.01696 -0.01080    0.26008    1.27643  219.70907   0.02865  0.02792  0.40894  0.00416  0.01742  0.03697
2046 358212.000  -2408409.7926   4698343.3874   3566588.9459   6  12   0.1899   0.3140   0.2173  -0.2160   0.2329  -0.1664   0.00    0.0    1.73952    3.40622   -3.15634   0.02617  0.03084  0.02533 -0.01566  0.01675 -0.01079    0.16127    1.06527  220.08628   0.02848  0.02779  0.40846  0.00413  0.01770  0.03534
2046 358213.000  -2408408.0880   4698346.7615   3566585.7891   6  12   0.1893   0.3131   0.2166  -0.2154   0.2323  -0.1660   0.00    0.0    1.76890    3.35939   -3.11431   0.02601  0.03062  0.02515 -0.01550  0.01656 -0.01072    0.29265    1.11113  220.62282   0.02832  0.02766  0.40834  0.00411  0.01854  0.03408
2046 358214.000  -2408406.4386   4698350.0769   3566582.7011   6  12   0.1888   0.3122   0.2159  -0.2149   0.2316  -0.1655   0.00    0.0    1.67933    3.16633   -2.98795   0.02582  0.03041  0.02492 -0.01532  0.01640 -0.01071    0.30157    1.11541  220.10611   0.02816  0.02752  0.40851  0.00409  0.01948  0.03333
2046 358215.000  -2408404.8884   4698353.2077   3566579.7308   6  12   0.1882   0.3113   0.2153  -0.2144   0.2311  -0.1651   0.00    0.0    1.55592    3.06881   -2.90843   0.02569  0.03020  0.02474 -0.01517  0.01623 -0.01056    0.39054    0.84217  219.76913   0.02802  0.02739  0.40894  0.00409  0.02054  0.03352
2046 358216.000  -2408403.4038   4698356.2428   3566576.8340   6  12   0.1876   0.3103   0.2145  -0.2138   0.2304  -0.1647   0.00    0.0    1.47762    3.02054   -2.87433   0.02554  0.02998  0.02458 -0.01503  0.01607 -0.01043    0.27437    0.75185  219.31551   0.02788  0.02725  0.40935  0.00410  0.02155  0.03418
2046 358217.000  -2408401.9282   4698359.2629   3566573.9838   6  11   0.1874   0.3095   0.2140  -0.2135   0.2299  -0.1647   0.00    0.0    1.55857    3.04155   -2.82463   0.02544  0.02976  0.02442 -0.01490  0.01590 -0.01039    0.53673    0.59602  220.40310   0.02775  0.02712  0.40976  0.00412  0.02254  0.03479
2046 358218.000  -2408400.4249   4698362.2793   3566571.1546   6  10   0.1886   0.3091   0.2137  -0.2140   0.2299  -0.1655   0.00    0.0    1.53766    3.02404   -2.82772   0.02544  0.02955  0.02428 -0.01478  0.01574 -0.01037    0.29929    0.70271  220.26033   0.02762  0.02701  0.41020  0.00419  0.02354  0.03524
2046 358219.000  -2408398.9337   4698365.2873   3566568.3254   6  12   0.1879   0.3082   0.2129  -0.2134   0.2292  -0.1650   0.00    0.0    1.51746    3.06040   -2.83922   0.02530  0.02934  0.02412 -0.01464  0.01558 -0.01025    0.58382    0.59263  219.95544   0.02748  0.02689  0.41064  0.00419  0.02432  0.03564
2046 358220.000  -2408397.3847   4698368.4315   3566565.3648   6  12   0.1864   0.3069   0.2118  -0.2123   0.2281  -0.1639   0.00    0.0    1.66065    3.24033   -2.99911   0.02518  0.02910  0.02401 -0.01450  0.01543 -0.00999    0.48312    0.70436  220.27841   0.02733  0.02675  0.41096  0.00412  0.02452  0.03530
2046 358221.000  -2408395.7247   4698371.7596   3566562.2577   6  12   0.1857   0.3059   0.2110  -0.2116   0.2274  -0.1634   0.00    0.0    1.68890    3.36206   -3.20714   0.02517  0.02889  0.02389 -0.01429  0.01531 -0.00975    0.55967    0.80066  219.84550   0.02717  0.02662  0.41074  0.00403  0.02424  0.03402
2046 358222.000  -2408394.0759   4698375.1558   3566559.0531   6  12   0.1848   0.3049   0.2100  -0.2108   0.2266  -0.1627   0.00    0.0    1.71531    3.39909   -3.17563   0.02497  0.02868  0.02373 -0.01419  0.01515 -0.00964    0.33209    0.80682  219.74971   0.02701  0.02649  0.41024  0.00391  0.02341  0.03245
2046 358223.000  -2408392.4265   4698378.4918   3566555.8878   6  11   0.1846   0.3041   0.2093  -0.2105   0.2260  -0.1624   0.00    0.0    1.66078    3.32518   -3.13446   0.02478  0.02849  0.02353 -0.01408  0.01500 -0.00968    0.42591    0.60790  219.68898   0.02687  0.02638  0.41009  0.00384  0.02281  0.03125
2046 358224.000  -2408390.8147   4698381.7354   3566552.8126   6  11   0.1841   0.3032   0.2084  -0.2100   0.2253  -0.1620   0.00    0.0    1.60970    3.21652   -3.03066   0.02458  0.02830  0.02335 -0.01398  0.01484 -0.00968    0.38371    0.90034  220.06343   0.02674  0.02626  0.41031  0.00377  0.02259  0.03061
2046 358225.000  -2408389.2087   4698384.9006   3566549.8406   6  11   0.1844   0.3026   0.2081  -0.2100   0.2250  -0.1623   0.00    0.0    1.63176    3.14151   -2.92785   0.02448  0.02811  0.02320 -0.01387  0.01468 -0.00965    0.56371    0.78264  220.72357   0.02662  0.02617  0.41071  0.00376  0.02285  0.03041
2046 358226.000  -2408387.5982   4698388.0018   3566546.9650   6  10   0.1841   0.3018   0.2073  -0.2096   0.2244  -0.1620   0.00    0.0    1.65132    3.09791   -2.84405   0.02439  0.02793  0.02305 -0.01376  0.01453 -0.00957    0.53101    0.90376  221.29207   0.02651  0.02607  0.41117  0.00374  0.02352  0.03049
2046 358227.000  -2408385.9778   4698391.0765   3566544.1132   6  10   0.1838   0.3009   0.2066  -0.2092   0.2238  -0.1616   0.00    0.0    1.62838    3.07271   -2.84697   0.02429  0.02775  0.02292 -0.01364  0.01439 -0.00948    0.42590    1.16497  220.89852   0.02640  0.02598  0.41165  0.00373  0.02423  0.03068
2046 358228.000  -2408384.3824   4698394.1567   3566541.2522   6  10   0.1834   0.3001   0.2059  -0.2088   0.2232  -0.1613   0.00    0.0    1.64705    2.97984   -2.83599   0.02417  0.02757  0.02277 -0.01353  0.01426 -0.00940    0.42631    1.04633  220.79776   0.02630  0.02589  0.41212  0.00372  0.02467  0.03087
2046 358229.000  -2408382.7952   4698397.2198   3566538.4036   6  12   0.1828   0.2992   0.2051  -0.2082   0.2225  -0.1609   0.00    0.0    1.60300    3.08841   -2.84077   0.02406  0.02739  0.02264 -0.01338  0.01411 -0.00927    0.38510    1.62978  220.83435   0.02620  0.02580  0.41260  0.00371  0.02504  0.03104
2046 358230.000  -2408381.2680   4698400.2249   3566535.5743   6  12   0.1816   0.2981   0.2041  -0.2072   0.2216  -0.1599   0.00    0.0    1.53205    3.00409   -2.77470   0.02387  0.02722  0.02249 -0.01325  0.01397 -0.00913    0.20446    1.23201  219.81132   0.02610  0.02570  0.41307  0.00367  0.02528  0.03144
2046 358231.000  -2408379.8667   4698403.2213   3566532.7374   6  12   0.1808   0.2971   0.2032  -0.2065   0.2208  -0.1593   0.00    0.0    1.48127    3.02368   -2.77626   0.02373  0.02704  0.02234 -0.01312  0.01383 -0.00903    0.47842   -0.19982  218.96985   0.02601  0.02561  0.41345  0.00364  0.02504  0.03211
2046 358232.000  -2408378.3948   4698406.2279   3566529.8929   6  12   0.1801   0.2962   0.2024  -0.2059   0.2201  -0.1588   0.00    0.0    1.55509    3.02415   -2.85617   0.02360  0.02684  0.02220 -0.01300  0.01372 -0.00894    0.43067    0.08308  220.34336   0.02592  0.02553  0.41386  0.00360  0.02481  0.03240
2046 358233.000  -2408376.8301   4698409.2646   3566527.0838   6  12   0.1795   0.2954   0.2016  -0.2053   0.2194  -0.1583   0.00    0.0    1.66248    3.07455   -2.77093   0.02350  0.02667  0.02209 -0.01291  0.01355 -0.00881    0.36156   -0.07265  221.57147   0.02584  0.02546  0.41429  0.00357  0.02497  0.03226
2046 358234.000  -2408375.2590   4698412.2859   3566524.2846   6  12   0.1789   0.2945   0.2009  -0.2047   0.2188  -0.1578   0.00    0.0    1.53567    3.00721   -2.76248   0.02338  0.02651  0.02195 -0.01276  0.01343 -0.00874    0.09720    0.15832  220.81172   0.02575  0.02539  0.41474  0.00354  0.02520  0.03212
2046 358235.000  -2408373.8337   4698415.1618   3566521.5850   6  12   0.1783   0.2937   0.2002  -0.2042   0.2182  -0.1574   0.00    0.0    1.34322    2.80842   -2.63988   0.02325  0.02636  0.02185 -0.01265  0.01328 -0.00858    0.48715   -0.19475  219.53323   0.02568  0.02532  0.41521  0.00353  0.02544  0.03279
2046 358236.000  -2408372.4770   4698417.9665   3566518.9069   6  12   0.1778   0.2929   0.1995  -0.2037   0.2176  -0.1570   0.00    0.0    1.44866    2.64829   -2.71069   0.02310  0.02618  0.02167 -0.01256  0.01319 -0.00854    0.36608    0.50466  219.36607   0.02562  0.02525  0.41562  0.00353  0.02559  0.03362
2046 358237.000  -2408371.1010   4698420.7813   3566516.2157   6  11   0.1777   0.2923   0.1991  -0.2034   0.2172  -0.1569   0.00    0.0    1.41914    2.90163   -2.64381   0.02305  0.02603  0.02157 -0.01242  0.01306 -0.00851    0.21024    0.66066  219.20216   0.02556  0.02519  0.41608  0.00352  0.02564  0.03419
2046 358238.000  -2408369.7614   4698423.6578   3566513.4634   6  11   0.1772   0.2915   0.1985  -0.2030   0.2166  -0.1566   0.00    0.0    1.37223    2.91041   -2.74849   0.02295  0.02587  0.02145 -0.01229  0.01296 -0.00844    0.35402    0.72690  218.33349   0.02550  0.02513  0.41650  0.00348  0.02536  0.03447
2046 358239.000  -2408368.4224   4698426.5738   3566510.6464   6  11   0.1783   0.2913   0.1984  -0.2035   0.2166  -0.1572   0.00    0.0    1.37154    2.92217   -2.82594   0.02297  0.02572  0.02134 -0.01218  0.01287 -0.00843    0.37021    0.76208  218.13550   0.02544  0.02508  0.41680  0.00347  0.02480  0.03451
2046 358240.000  -2408367.0562   4698429.5143   3566507.7995   6  10   0.1779   0.2904   0.1977  -0.2028   0.2160  -0.1567   0.00    0.0    1.42317    2.95556   -2.90667   0.02294  0.02557  0.02125 -0.01209  0.01278 -0.00827    0.45750    1.08492  218.44916   0.02538  0.02503  0.41704  0.00342  0.02416  0.03430
2046 358241.000  -2408365.6672   4698432.4585   3566504.9658   6   9   0.1786   0.2902   0.1974  -0.2032   0.2158  -0.1569   0.00    0.0    1.38487    2.89241   -2.74764   0.02286  0.02544  0.02114 -0.01207  0.01266 -0.00824    0.30626    0.89722  219.03306   0.02533  0.02500  0.41730  0.00340  0.02370  0.03395
2046 358242.000  -2408364.3388   4698435.1994   3566502.3591   6  11   0.1784   0.2896   0.1969  -0.2029   0.2154  -0.1567   0.00    0.0    1.32231    2.67261   -2.49121   0.02278  0.02532  0.02102 -0.01197  0.01254 -0.00813    0.05096    0.83526  219.92020   0.02529  0.02496  0.41783  0.00341  0.02413  0.03418
2046 358243.000  -2408363.1090   4698437.7438   3566499.9684   6  12   0.1771   0.2887   0.1962  -0.2020   0.2148  -0.1561   0.00    0.0    1.22696    2.42830   -2.32880   0.02271  0.02520  0.02094 -0.01185  0.01245 -0.00790    0.05676    0.95151  219.80672   0.02526  0.02493  0.41811  0.00343  0.02537  0.03512
2046 358244.000  -2408361.9470   4698440.0608   3566497.7496   6  11   0.1768   0.2880   0.1958  -0.2016   0.2144  -0.1560   0.00    0.0    1.10139    2.26840   -2.11507   0.02277  0.02510  0.02089 -0.01172  0.01235 -0.00764   -0.01540    0.82013  219.67506   0.02525  0.02491  0.41782  0.00354  0.02698  0.03656
2046 358245.000  -2408360.9237   4698442.1686   3566495.7099   6  10   0.1774   0.2878   0.1956  -0.2020   0.2143  -0.1563   0.00    0.0    0.95869    2.04768   -1.92808   0.02289  0.02499  0.02087 -0.01165  0.01225 -0.00725    0.29260    0.90924  218.44741   0.02525  0.02490  0.41678  0.00373  0.02871  0.03840
2046 358246.000  -2408360.0460   4698444.0771   3566493.8686   6  11   0.1770   0.2872   0.1950  -0.2016   0.2138  -0.1560   0.00    0.0    0.88331    1.87939   -1.79652   0.02283  0.02487  0.02076 -0.01157  0.01217 -0.00713    0.41844    0.55100  218.59738   0.02527  0.02489  0.41489  0.00395  0.03055  0.04049
2046 358247.000  -2408359.0950   4698446.1207   3566491.9149   6  11   0.1758   0.2862   0.1941  -0.2007   0.2130  -0.1551   0.00    0.0    1.06104    2.23899   -2.13790   0.02228  0.02471  0.02050 -0.01154  0.01206 -0.00788    0.39802    0.54489  218.93178   0.02527  0.02487  0.41460  0.00410  0.03185  0.04183
2046 358248.000  -2408357.9604   4698448.5343   3566489.6448   6  11   0.1751   0.2854   0.1933  -0.2001   0.2123  -0.1545   0.00    0.0    1.27450    2.53471   -2.32711   0.02233  0.02456  0.02052 -0.01151  0.01193 -0.00754    0.36694    0.61166  220.22464   0.02523  0.02483  0.41500  0.00408  0.03196  0.04164
2046 358249.000  -2408356.6035   4698451.0942   3566487.2806   6  10   0.1756   0.2850   0.1930  -0.2003   0.2122  -0.1549   0.00    0.0    1.45018    2.64076   -2.36873   0.02242  0.02444  0.02058 -0.01149  0.01174 -0.00722    0.37366    0.74481  222.28329   0.02516  0.02481  0.41438  0.00399  0.03182  0.04032
2046 358250.000  -2408355.1339   4698453.7705   3566484.8694   6  11   0.1752   0.2843   0.1924  -0.1998   0.2116  -0.1546   0.00    0.0    1.48995    2.71649   -2.40796   0.02243  0.02431  0.02053 -0.01138  0.01165 -0.00703    0.18213    0.75525  222.77387   0.02507  0.02478  0.41284  0.00386  0.03149  0.03830
2046 358251.000  -2408353.6749   4698456.4482   3566482.4173   6  10   0.1748   0.2836   0.1918  -0.1994   0.2111  -0.1543   0.00    0.0    1.41518    2.68222   -2.46996   0.02236  0.02418  0.02034 -0.01118  0.01164 -0.00715    0.24390    0.79566  221.50398   0.02498  0.02474  0.41149  0.00372  0.03101  0.03631
2046 358252.000  -2408352.3009   4698459.1335   3566479.9201   6  10   0.1744   0.2829   0.1911  -0.1990   0.2106  -0.1539   0.00    0.0    1.36306    2.68264   -2.55964   0.02233  0.02406  0.02019 -0.01100  0.01160 -0.00718    0.28976    0.91855  219.87382   0.02490  0.02469  0.41046  0.00358  0.03022  0.03456
2046 358253.000  -2408350.9383   4698461.8442   3566477.3551   6  10   0.1741   0.2822   0.1905  -0.1986   0.2100  -0.1536   0.00    0.0    1.40471    2.72098   -2.56449   0.02224  0.02393  0.02011 -0.01095  0.01150 -0.00711    0.26106    0.91282  220.12500   0.02483  0.02464  0.40931  0.00343  0.02907  0.03275
2046 358254.000  -2408349.5838   4698464.5677   3566474.7949   6   9   0.1742   0.2816   0.1899  -0.1984   0.2095  -0.1533   0.00    0.0    1.38097    2.73687   -2.54489   0.02218  0.02382  0.02000 -0.01087  0.01141 -0.00706    0.31624    0.85060  219.91249   0.02477  0.02459  0.40843  0.00335  0.02800  0.03111
2046 358255.000  -2408348.2567   4698467.3102   3566472.2152   6   9   0.1739   0.2809   0.1892  -0.1981   0.2089  -0.1530   0.00    0.0    1.39838    2.76773   -2.58059   0.02210  0.02369  0.01990 -0.01079  0.01132 -0.00701    0.11963    0.61570  219.43790   0.02470  0.02454  0.40768  0.00323  0.02681  0.02952
2046 358256.000  -2408346.8750   4698470.1841   3566469.4798   6   9   0.1736   0.2802   0.1886  -0.1977   0.2084  -0.1527   0.00    0.0    1.46914    2.97201   -2.73330   0.02223  0.02356  0.01989 -0.01068  0.01125 -0.00660    0.25592    0.89058  219.06877   0.02463  0.02449  0.40633  0.00309  0.02512  0.02745
2046 358257.000  -2408345.4495   4698473.1334   3566466.6659   6   9   0.1732   0.2795   0.1880  -0.1973   0.2079  -0.1523   0.00    0.0    1.47338    2.95199   -2.83493   0.02212  0.02345  0.01975 -0.01056  0.01119 -0.00669    0.32033    0.58872  219.37966   0.02457  0.02445  0.40470  0.00295  0.02312  0.02505
2046 358258.000  -2408343.9727   4698476.1273   3566463.8268   6   9   0.1729   0.2789   0.1874  -0.1969   0.2073  -0.1520   0.00    0.0    1.49832    3.03386   -2.83449   0.02201  0.02333  0.01966 -0.01051  0.01109 -0.00667    0.31403    0.49603  219.76513   0.02452  0.02441  0.40322  0.00283  0.02114  0.02244
2046 358259.000  -2408342.4776   4698479.1481   3566460.9997   6  10   0.1726   0.2782   0.1868  -0.1965   0.2068  -0.1517   0.00    0.0    1.55022    3.01886   -2.81574   0.02182  0.02322  0.01955 -0.01048  0.01097 -0.00675    0.25803    0.52244  220.18349   0.02447  0.02437  0.40211  0.00274  0.01933  0.01975
2046 358260.000  -2408340.9590   4698482.1375   3566458.2034   6  11   0.1722   0.2774   0.1861  -0.1961   0.2062  -0.1513   0.00    0.0    1.51882    2.99231   -2.72810   0.02162  0.02311  0.01941 -0.01040  0.01086 -0.00692    0.36712    0.54813  220.28741   0.02443  0.02434  0.40159  0.00268  0.01793  0.01727
2046 358261.000  -2408339.5327   4698485.1311   3566455.4697   6  12   0.1712   0.2766   0.1853  -0.1952   0.2054  -0.1506   0.00    0.0    1.51497    2.96455   -2.72791   0.02145  0.02300  0.01929 -0.01032  0.01078 -0.00692    0.24025    0.62464  220.34053   0.02440  0.02431  0.40157  0.00262  0.01677  0.01534
2046 358262.000  -2408337.9542   4698488.0377   3566452.7198   6  10   0.1713   0.2761   0.1850  -0.1952   0.2052  -0.1508   0.00    0.0    1.58392    2.89515   -2.72161   0.02137  0.02290  0.01920 -0.01024  0.01068 -0.00697    0.22096    0.65101  221.44760   0.02436  0.02428  0.40178  0.00259  0.01619  0.01347
2046 358263.000  -2408336.3770   4698490.9786   3566450.0332   6  10   0.1710   0.2755   0.1844  -0.1948   0.2048  -0.1505   0.00    0.0    1.57143    2.92419   -2.69253   0.02130  0.02280  0.01911 -0.01014  0.01060 -0.00696    0.54624    0.79828  221.59831   0.02433  0.02426  0.40212  0.00256  0.01610  0.01157
2046 358264.000  -2408334.8382   4698493.9098   3566447.3445   6  10   0.1707   0.2749   0.1839  -0.1945   0.2043  -0.1503   0.00    0.0    1.51115    2.90900   -2.69592   0.02123  0.02271  0.01902 -0.01003  0.01052 -0.00695    0.43792    0.44927  220.68935   0.02430  0.02423  0.40260  0.00255  0.01597  0.01040
2046 358265.000  -2408333.3818   4698496.8298   3566444.6177   6  10   0.1704   0.2743   0.1834  -0.1941   0.2038  -0.1500   0.00    0.0    1.47360    2.92700   -2.71702   0.02117  0.02261  0.01894 -0.00994  0.01045 -0.00692    0.35578    0.39300  220.15304   0.02426  0.02420  0.40313  0.00254  0.01546  0.01023
2046 358266.000  -2408331.8859   4698499.8251   3566441.8061   6  10   0.1702   0.2737   0.1829  -0.1938   0.2034  -0.1498   0.00    0.0    1.55723    3.05400   -2.84937   0.02116  0.02250  0.01888 -0.00986  0.01039 -0.00681    0.46019    0.64502  219.83908   0.02423  0.02417  0.40357  0.00252  0.01453  0.00938
2046 358267.000  -2408330.4150   4698502.8264   3566438.9728   6  10   0.1700   0.2731   0.1824  -0.1935   0.2030  -0.1496   0.00    0.0    1.44048    2.89199   -2.73230   0.02103  0.02242  0.01878 -0.00980  0.01030 -0.00683    0.15663    0.86911  219.28608   0.02420  0.02414  0.40403  0.00251  0.01348  0.00875
2046 358268.000  -2408329.0730   4698505.6210   3566436.3141   6  10   0.1698   0.2726   0.1819  -0.1932   0.2025  -0.1493   0.00    0.0    1.29892    2.70167   -2.53536   0.02103  0.02235  0.01876 -0.00976  0.01021 -0.00656    0.21486    0.99378  218.75987   0.02417  0.02412  0.40448  0.00251  0.01356  0.01117
2046 358269.000  -2408327.8831   4698508.1831   3566433.8565   6  10   0.1696   0.2720   0.1815  -0.1929   0.2021  -0.1491   0.00    0.0    1.13993    2.46504   -2.33577   0.02115  0.02228  0.01879 -0.00971  0.01013 -0.00598    0.27930    0.87300  218.08403   0.02414  0.02409  0.40409  0.00252  0.01486  0.01540
2046 358270.000  -2408326.8346   4698510.5656   3566431.5439   6  10   0.1694   0.2715   0.1811  -0.1927   0.2018  -0.1490   0.00    0.0    1.04159    2.45925   -2.38720   0.02098  0.02220  0.01871 -0.00968  0.01002 -0.00613    0.38959    0.71088  217.27406   0.02413  0.02408  0.40268  0.00257  0.01681  0.01972
2046 358271.000  -2408325.7061   4698513.1225   3566429.0666   6  10   0.1693   0.2710   0.1807  -0.1924   0.2014  -0.1488   0.00    0.0    1.16764    2.59388   -2.53356   0.02080  0.02210  0.01850 -0.00956  0.01002 -0.00655    0.21977    0.86925  217.33218   0.02412  0.02406  0.40257  0.00259  0.01764  0.02208
2046 358272.000  -2408324.5530   4698515.7010   3566426.5674   6  10   0.1691   0.2705   0.1803  -0.1922   0.2011  -0.1486   0.00    0.0    1.12928    2.50832   -2.39881   0.02080  0.02202  0.01843 -0.00949  0.00998 -0.00641    0.04140    0.91415  217.47089   0.02410  0.02405  0.40288  0.00261  0.01820  0.02357
2046 358273.000  -2408323.5279   4698518.1058   3566424.1880   6  10   0.1690   0.2700   0.1799  -0.1919   0.2007  -0.1485   0.00    0.0    0.99413    2.40558   -2.35777   0.02077  0.02195  0.01841 -0.00946  0.00989 -0.00625    0.08938    0.63166  216.62778   0.02410  0.02404  0.40275  0.00265  0.01929  0.02552
2046 358274.000  -2408322.4881   4698520.4949   3566421.8355   6   9   0.1695   0.2696   0.1796  -0.1919   0.2004  -0.1483   0.00    0.0    1.01441    2.33792   -2.28813   0.02083  0.02188  0.01833 -0.00938  0.00986 -0.00611    0.42540    0.75349  216.97370   0.02410  0.02404  0.40285  0.00277  0.02025  0.02703
2046 358275.000  -2408321.5190   4698522.7069   3566419.6943   6   9   0.1695   0.2692   0.1793  -0.1918   0.2001  -0.1481   0.00    0.0    0.91667    2.12633   -2.02143   0.02102  0.02183  0.01833 -0.00926  0.00984 -0.00563    0.38157    0.62437  217.72365   0.02411  0.02404  0.40247  0.00286  0.02196  0.02877
2046 358276.000  -2408320.5270   4698524.8711   3566417.6206   6   9   0.1691   0.2686   0.1787  -0.1914   0.1996  -0.1478   0.00    0.0    1.07932    2.24754   -2.10792   0.02075  0.02174  0.01814 -0.00920  0.00977 -0.00622    0.43858    0.95696  218.31086   0.02412  0.02404  0.40211  0.00296  0.02384  0.03023
2046 358277.000  -2408319.4709   4698527.1372   3566415.4710   6   9   0.1687   0.2680   0.1782  -0.1910   0.1991  -0.1475   0.00    0.0    1.13123    2.37575   -2.25412   0.02061  0.02164  0.01808 -0.00922  0.00969 -0.00631    0.45783    0.73322  219.21274   0.02411  0.02404  0.40239  0.00304  0.02521  0.03098
2046 358278.000  -2408318.2438   4698529.6163   3566413.1411   6   9   0.1683   0.2673   0.1776  -0.1906   0.1986  -0.1472   0.00    0.0    1.34901    2.64927   -2.44582   0.02067  0.02155  0.01817 -0.00926  0.00956 -0.00595    0.03696    1.27894  220.22376   0.02409  0.02404  0.40287  0.00304  0.02578  0.03050
2046 358279.000  -2408316.8577   4698532.2680   3566410.6629   6  10   0.1679   0.2667   0.1770  -0.1902   0.1981  -0.1468   0.00    0.0    1.46914    2.72895   -2.45212   0.02067  0.02148  0.01820 -0.00926  0.00942 -0.00575    0.05539    0.84405  221.83232   0.02406  0.02403  0.40250  0.00297  0.02566  0.02882
2046 358280.000  -2408315.3168   4698535.0024   3566408.1648   6  11   0.1672   0.2660   0.1764  -0.1896   0.1976  -0.1465   0.00    0.0    1.64452    2.82920   -2.46484   0.02063  0.02142  0.01827 -0.00926  0.00921 -0.00553   -0.00234    0.68383  223.70546   0.02402  0.02401  0.40123  0.00285  0.02543  0.02619
2046 358281.000  -2408313.6572   4698537.7996   3566405.6620   6  11   0.1659   0.2651   0.1756  -0.1887   0.1968  -0.1457   0.00    0.0    1.64333    2.83278   -2.50724   0.02053  0.02131  0.01812 -0.00912  0.00925 -0.00561    0.13785    0.58177  223.79888   0.02397  0.02399  0.39962  0.00272  0.02536  0.02292
2046 358282.000  -2408312.0352   4698540.6599   3566403.0789   6  12   0.1651   0.2643   0.1749  -0.1879   0.1961  -0.1451   0.00    0.0    1.56433    2.90947   -2.56552   0.02049  0.02121  0.01797 -0.00892  0.00930 -0.00564    0.49269    0.29926  222.38372   0.02393  0.02395  0.39840  0.00262  0.02493  0.01957
2046 358283.000  -2408310.4897   4698543.5749   3566400.4203   6  11   0.1649   0.2637   0.1743  -0.1877   0.1957  -0.1448   0.00    0.0    1.53756    2.98697   -2.71212   0.02054  0.02112  0.01786 -0.00875  0.00933 -0.00558    0.83312    0.41477  220.84804   0.02389  0.02392  0.39763  0.00256  0.02404  0.01643
2046 358284.000  -2408308.9618   4698546.6476   3566397.6227   6  11   0.1643   0.2630   0.1737  -0.1871   0.1951  -0.1443   0.00    0.0    1.55805    3.14175   -2.85908   0.02061  0.02103  0.01781 -0.00860  0.00932 -0.00537    0.76634    0.60610  220.25039   0.02384  0.02386  0.39635  0.00248  0.02230  0.01226
2046 358285.000  -2408307.4145   4698549.8156   3566394.7203   6  12   0.1636   0.2622   0.1730  -0.1865   0.1944  -0.1438   0.00    0.0    1.57912    3.17975   -2.92474   0.02048  0.02094  0.01771 -0.00853  0.00927 -0.00545    0.55747    0.76874  219.91552   0.02380  0.02382  0.39487  0.00242  0.02004  0.00565
