% program   : GINav v0.1.0
% obs start : 2019/03/28 03:28:10.0
% obs end   : 2019/03/28 03:59:50.0
% mode      : PPP/INS TC
% system    : GPS GLONASS 
% nfreqs    : 2
% elev mask : 10.0 deg
% ephemeris : precise
% ionos opt : iono-free LC
% trops opt : ZTD estimation
%
%  GPST              x-ecef(m)      y-ecef(m)      z-ecef(m)   Q  ns   sdx(m)   sdy(m)   sdz(m)  sdxy(m)  sdyz(m)  sdzx(m) age(s)  ratio    vx(m/s)    vy(m/s)    vz(m/s)      sdvx     sdvy     sdvz    sdvxy    sdvyz    sdvzx pitch(deg)  roll(deg)   yaw(deg)       sdp      sdr      sdy     sdpr     sdry     sdyp
2046 358097.000  -2408691.0401   4698107.8975   3566697.8613   3   0  25.9956  29.0088  29.8845 -10.7365   1.3054  -0.9347   0.00    0.0    1.46913    0.91224   -0.16498  10.00000 10.00000 10.00000  0.00000 -0.00000 -0.00000    0.00000    0.00000  262.85651   0.30000  0.30000  0.50000  0.00000  0.00000  0.00000
2046 358098.000  -2408689.7756   4698109.2750   3566696.2893   6  13   1.5453   2.3339   1.8572  -1.5305   1.6657  -1.1298   0.00    0.0    1.57725    0.99327   -0.33732   9.32211  9.44569  9.48654 -1.27106  0.23080 -0.15906   -0.19197    0.03523  259.42559   0.30002  0.30002  0.50001 -0.00006 -0.00015 -0.00310
2046 358099.000  -2408688.0936   4698110.4094   3566695.8590   6  13   1.0982   1.6634   1.3212  -1.0922   1.1901  -0.8080   0.00    0.0    1.68626    1.08908   -0.39518   0.72889  1.02935  0.81704 -0.64554  0.72892 -0.48821   -0.69357   -2.07703  259.18825   0.30004  0.30004  0.50003  0.00012  0.00017 -0.00440
2046 358100.000  -2408686.2463   4698111.6897   3566695.5212   6  13   0.9001   1.3664   1.0837  -0.8981   0.9796  -0.6655   0.00    0.0    1.95258    1.32905   -0.37228   0.42492  0.59997  0.47626 -0.37583  0.42414 -0.28451    0.36174    1.72780  259.95829   0.29923  0.29919  0.50005  0.00818  0.00629 -0.00725
2046 358101.000  -2408684.1250   4698113.0786   3566695.1581   6  13   0.7821   1.1899   0.9424  -0.7829   0.8546  -0.5810   0.00    0.0    2.14448    1.29863   -0.19392   0.30764  0.42908  0.34277 -0.26548  0.29917 -0.20065    0.48070    1.15493  262.80579   0.29610  0.29589  0.50006  0.01770  0.01009 -0.01296
2046 358102.000  -2408681.8619   4698114.4557   3566694.9311   6  13   0.7018   1.0699   0.8462  -0.7045   0.7697  -0.5237   0.00    0.0    2.30186    1.21926   -0.01391   0.24978  0.33947  0.27482 -0.20457  0.22987 -0.15362    0.41336    0.77200  267.97697   0.28908  0.28852  0.50007  0.02788  0.01901 -0.01764
2046 358103.000  -2408679.4577   4698115.7665   3566694.9183   6  13   0.6427   0.9817   0.7754  -0.6470   0.7074  -0.4816   0.00    0.0    2.47455    1.14836    0.16092   0.21781  0.28634  0.23595 -0.16663  0.18636 -0.12324    0.33002    0.80613  272.69600   0.27792  0.27689  0.50006  0.03584  0.02997 -0.02203
2046 358104.000  -2408676.8818   4698117.0373   3566695.1074   6  13   0.5968   0.9134   0.7205  -0.6025   0.6591  -0.4491   0.00    0.0    2.67684    1.14594    0.34718   0.19751  0.25230  0.21128 -0.14248  0.15841 -0.10292   -0.01028    1.15079  276.79367   0.26432  0.26292  0.50003  0.03963  0.03956 -0.02643
2046 358105.000  -2408674.1513   4698118.2657   3566695.4320   6  13   0.5600   0.8586   0.6763  -0.5668   0.6205  -0.4230   0.00    0.0    2.80140    1.10091    0.45239   0.18208  0.22916  0.19371 -0.12756  0.14133 -0.09009   -0.19238    1.16265  279.65831   0.25084  0.24931  0.50003  0.03936  0.04595 -0.02982
2046 358106.000  -2408671.2489   4698119.4433   3566695.8970   6  13   0.5295   0.8133   0.6397  -0.5374   0.5886  -0.4016   0.00    0.0    2.99204    1.07647    0.49068   0.16912  0.21266  0.18004 -0.11876  0.13152 -0.08308    0.01569    1.33503  282.11175   0.23929  0.23784  0.50004  0.03651  0.04994 -0.03224
2046 358107.000  -2408668.2478   4698120.6283   3566696.4552   6  13   0.5038   0.7752   0.6089  -0.5126   0.5618  -0.3835   0.00    0.0    3.03231    1.04759    0.61173   0.15793  0.20056  0.16891 -0.11350  0.12598 -0.07962    0.00380    1.17749  283.62543   0.23026  0.22899  0.50008  0.03249  0.05145 -0.03395
2046 358108.000  -2408665.2380   4698121.7796   3566697.0673   6  13   0.4817   0.7425   0.5824  -0.4914   0.5388  -0.3680   0.00    0.0    3.01144    1.07659    0.62016   0.14811  0.19102  0.15955 -0.11008  0.12264 -0.07814    0.18258    1.38967  283.88125   0.22350  0.22248  0.50013  0.02822  0.05111 -0.03409
2046 358109.000  -2408662.2466   4698122.9694   3566697.6819   6  13   0.4625   0.7141   0.5594  -0.4729   0.5188  -0.3546   0.00    0.0    3.00872    1.10282    0.63181   0.13941  0.18299  0.15133 -0.10743  0.12011 -0.07735    0.02602    1.23909  284.25967   0.21856  0.21776  0.50016  0.02415  0.04902 -0.03380
2046 358110.000  -2408659.2106   4698124.0912   3566698.3202   6  12   0.4465   0.6969   0.5397  -0.4599   0.5039  -0.3439   0.00    0.0    3.04805    1.01971    0.66889   0.13155  0.17620  0.14391 -0.10502  0.11780 -0.07653   -0.12492    1.40440  285.23778   0.21496  0.21437  0.50019  0.02039  0.04666 -0.03348
2046 358111.000  -2408656.2127   4698125.2454   3566698.9771   6  13   0.4314   0.6738   0.5215  -0.4452   0.4880  -0.3333   0.00    0.0    3.05600    1.09773    0.58282   0.12449  0.16976  0.13712 -0.10241  0.11514 -0.07540   -0.07494    1.27019  284.38128   0.21230  0.21189  0.50019  0.01668  0.04389 -0.03372
2046 358112.000  -2408653.1497   4698126.4373   3566699.5835   6  13   0.4179   0.6532   0.5053  -0.4321   0.4738  -0.3238   0.00    0.0    3.09065    1.12786    0.63194   0.11804  0.16338  0.13071 -0.09963  0.11215 -0.07392   -0.17643    1.28567  283.75176   0.21031  0.21005  0.50017  0.01326  0.04079 -0.03491
2046 358113.000  -2408650.0432   4698127.6062   3566700.1497   6  11   0.4064   0.6414   0.4912  -0.4228   0.4629  -0.3161   0.00    0.0    3.10300    1.16424    0.55193   0.11211  0.15746  0.12473 -0.09673  0.10899 -0.07218   -0.08631    1.37547  283.33094   0.20883  0.20871  0.50015  0.00988  0.03772 -0.03607
2046 358114.000  -2408646.9692   4698128.8381   3566700.7009   6  10   0.3988   0.6315   0.4799  -0.4167   0.4547  -0.3121   0.00    0.0    3.08175    1.16089    0.57161   0.10686  0.15188  0.11920 -0.09395  0.10577 -0.07049    0.02763    1.09607  282.91480   0.20775  0.20773  0.50009  0.00610  0.03435 -0.03725
2046 358115.000  -2408643.8761   4698130.0664   3566701.3109   6  10   0.3916   0.6221   0.4694  -0.4107   0.4469  -0.3080   0.00    0.0    3.10326    1.10002    0.63926   0.10210  0.14663  0.11404 -0.09119  0.10249 -0.06870    0.00016    1.26726  284.62236   0.20695  0.20703  0.50007 -0.00270  0.03153 -0.03782
2046 358116.000  -2408640.7479   4698131.2329   3566701.9961   6   9   0.3848   0.6143   0.4598  -0.4052   0.4400  -0.3041   0.00    0.0    3.17434    1.08125    0.72421   0.09781  0.14181  0.10933 -0.08846  0.09927 -0.06686   -0.05676    1.21034  285.73147   0.20632  0.20649  0.50010 -0.00663  0.02950 -0.03817
2046 358117.000  -2408637.5891   4698132.4211   3566702.7147   6   9   0.3785   0.6067   0.4510  -0.3998   0.4337  -0.3003   0.00    0.0    3.19457    1.10675    0.69354   0.09388  0.13715  0.10499 -0.08574  0.09614 -0.06503   -0.19252    1.73141  285.15155   0.20576  0.20602  0.50015 -0.00870  0.02783 -0.03869
2046 358118.000  -2408634.4212   4698133.6211   3566703.3840   6   9   0.3725   0.5995   0.4428  -0.3948   0.4277  -0.2968   0.00    0.0    3.18770    1.13335    0.70937   0.09024  0.13274  0.10095 -0.08312  0.09313 -0.06324   -0.20472    1.61664  284.73319   0.20529  0.20561  0.50018 -0.01009  0.02570 -0.03960
2046 358119.000  -2408631.2362   4698134.8030   3566704.0547   6   9   0.3668   0.5926   0.4351  -0.3900   0.4221  -0.2933   0.00    0.0    3.19162    1.11302    0.69891   0.08687  0.12858  0.09717 -0.08061  0.09024 -0.06147   -0.00656    1.64504  285.17538   0.20490  0.20527  0.50021 -0.01110  0.02348 -0.04039
2046 358120.000  -2408628.0575   4698135.9711   3566704.7517   6   9   0.3614   0.5861   0.4278  -0.3855   0.4168  -0.2901   0.00    0.0    3.18414    1.07861    0.77099   0.08381  0.12467  0.09364 -0.07823  0.08744 -0.05976   -0.09761    1.47041  285.79739   0.20455  0.20497  0.50025 -0.01191  0.02119 -0.04094
2046 358121.000  -2408624.8869   4698137.1489   3566705.4649   6   9   0.3564   0.5799   0.4210  -0.3811   0.4117  -0.2869   0.00    0.0    3.22115    1.09135    0.70387   0.08094  0.12099  0.09036 -0.07591  0.08478 -0.05808   -0.19271    1.52849  285.68019   0.20422  0.20469  0.50030 -0.01262  0.01880 -0.04144
2046 358122.000  -2408621.7016   4698138.3304   3566706.1864   6   9   0.3515   0.5740   0.4145  -0.3770   0.4070  -0.2839   0.00    0.0    3.20916    1.09648    0.80510   0.07829  0.11753  0.08728 -0.07372  0.08222 -0.05645   -0.24476    1.48598  285.80538   0.20391  0.20442  0.50036 -0.01323  0.01615 -0.04201
2046 358123.000  -2408618.4718   4698139.5204   3566706.8962   6   9   0.3469   0.5684   0.4084  -0.3731   0.4024  -0.2810   0.00    0.0    3.25174    1.14356    0.73347   0.07581  0.11424  0.08442 -0.07161  0.07981 -0.05489   -0.23843    1.49209  285.16683   0.20363  0.20416  0.50043 -0.01378  0.01361 -0.04274
2046 358124.000  -2408615.2690   4698140.7685   3566707.5655   6   9   0.3425   0.5629   0.4027  -0.3693   0.3981  -0.2783   0.00    0.0    3.24984    1.20140    0.70804   0.07347  0.11111  0.08171 -0.06962  0.07753 -0.05342   -0.26233    1.51487  283.56754   0.20340  0.20396  0.50048 -0.01426  0.01013 -0.04372
2046 358125.000  -2408612.0456   4698142.0669   3566708.1642   6   9   0.3384   0.5577   0.3972  -0.3657   0.3939  -0.2756   0.00    0.0    3.24925    1.19831    0.64516   0.07127  0.10814  0.07914 -0.06775  0.07536 -0.05202   -0.28015    1.35106  282.72050   0.20328  0.20385  0.50049 -0.01462  0.00269 -0.04472
2046 358126.000  -2408608.8503   4698143.3469   3566708.7195   6   8   0.3343   0.5531   0.3921  -0.3621   0.3902  -0.2729   0.00    0.0    3.19084    1.17016    0.61186   0.06921  0.10541  0.07677 -0.06594  0.07332 -0.05067   -0.14710    1.45819  282.61101   0.20326  0.20384  0.50050 -0.01488 -0.00983 -0.04521
2046 358127.000  -2408605.6531   4698144.5914   3566709.2914   6   8   0.3304   0.5482   0.3873  -0.3586   0.3865  -0.2703   0.00    0.0    3.19824    1.12962    0.72006   0.06734  0.10275  0.07455 -0.06422  0.07130 -0.04933   -0.16262    1.15502  283.88909   0.20331  0.20388  0.50052 -0.01509 -0.01364 -0.04523
2046 358128.000  -2408602.4401   4698145.7822   3566709.9213   6   9   0.3252   0.5427   0.3819  -0.3541   0.3820  -0.2664   0.00    0.0    3.20386    1.08422    0.74121   0.06550  0.10022  0.07244 -0.06247  0.06933 -0.04794   -0.27193    1.28796  285.02938   0.20337  0.20394  0.50059 -0.01528 -0.01557 -0.04496
2046 358129.000  -2408599.2052   4698146.9744   3566710.6113   6   9   0.3201   0.5374   0.3767  -0.3496   0.3777  -0.2626   0.00    0.0    3.27083    1.08868    0.79983   0.06378  0.09780  0.07047 -0.06076  0.06743 -0.04658   -0.22154    1.44952  285.22332   0.20343  0.20399  0.50069 -0.01546 -0.01674 -0.04471
2046 358130.000  -2408595.9510   4698148.1891   3566711.2910   6  10   0.3154   0.5322   0.3715  -0.3455   0.3734  -0.2592   0.00    0.0    3.26630    1.12348    0.76893   0.06216  0.09550  0.06863 -0.05911  0.06560 -0.04528   -0.10441    1.33663  284.91786   0.20349  0.20404  0.50081 -0.01564 -0.01787 -0.04458
2046 358131.000  -2408592.6887   4698149.4053   3566711.9806   6  11   0.3110   0.5264   0.3664  -0.3415   0.3689  -0.2559   0.00    0.0    3.27456    1.08538    0.82290   0.06065  0.09325  0.06687 -0.05755  0.06380 -0.04403   -0.26580    1.44634  285.18680   0.20353  0.20407  0.50093 -0.01579 -0.01891 -0.04442
2046 358132.000  -2408589.4266   4698150.6264   3566712.6801   6  11   0.3067   0.5207   0.3616  -0.3377   0.3646  -0.2527   0.00    0.0    3.26417    1.08023    0.79514   0.05923  0.09111  0.06524 -0.05603  0.06209 -0.04282   -0.20176    1.47630  285.21245   0.20357  0.20410  0.50106 -0.01593 -0.01982 -0.04421
2046 358133.000  -2408586.1663   4698151.8375   3566713.3591   6  11   0.3027   0.5154   0.3570  -0.3341   0.3605  -0.2497   0.00    0.0    3.29537    1.07409    0.76309   0.05789  0.08907  0.06370 -0.05457  0.06045 -0.04166   -0.24950    1.58872  284.99743   0.20360  0.20412  0.50119 -0.01605 -0.02074 -0.04399
2046 358134.000  -2408582.9143   4698153.0695   3566714.0327   6  10   0.2988   0.5106   0.3528  -0.3306   0.3569  -0.2469   0.00    0.0    3.27120    1.11495    0.80069   0.05665  0.08716  0.06227 -0.05317  0.05890 -0.04054   -0.32385    1.62702  284.51183   0.20363  0.20414  0.50132 -0.01616 -0.02169 -0.04379
2046 358135.000  -2408579.6310   4698154.2745   3566714.6402   6  11   0.2952   0.5053   0.3488  -0.3271   0.3533  -0.2441   0.00    0.0    3.34160    1.17220    0.74817   0.05548  0.08527  0.06091 -0.05182  0.05740 -0.03946   -0.24451    1.47076  283.84706   0.20366  0.20416  0.50146 -0.01625 -0.02275 -0.04369
2046 358136.000  -2408576.2658   4698155.5603   3566715.2486   6  10   0.2916   0.5009   0.3449  -0.3238   0.3503  -0.2415   0.00    0.0    3.41061    1.17169    0.74624   0.05438  0.08353  0.05962 -0.05054  0.05598 -0.03842   -0.27235    1.45939  283.51618   0.20370  0.20419  0.50161 -0.01629 -0.02347 -0.04386
2046 358137.000  -2408572.8525   4698156.8703   3566715.8533   6  10   0.2883   0.4972   0.3411  -0.3209   0.3471  -0.2391   0.00    0.0    3.44218    1.18853    0.74967   0.05336  0.08192  0.05839 -0.04930  0.05459 -0.03741   -0.37725    1.36649  283.32672   0.20375  0.20423  0.50176 -0.01632 -0.02413 -0.04411
2046 358138.000  -2408569.5000   4698158.1826   3566716.4181   6  10   0.2850   0.4932   0.3373  -0.3179   0.3439  -0.2367   0.00    0.0    3.29780    1.19081    0.67376   0.05241  0.08035  0.05726 -0.04809  0.05324 -0.03643   -0.23547    1.25235  282.43652   0.20378  0.20425  0.50192 -0.01637 -0.02503 -0.04405
2046 358139.000  -2408566.2982   4698159.5039   3566716.9037   6  10   0.2819   0.4894   0.3338  -0.3151   0.3409  -0.2344   0.00    0.0    3.19909    1.19317    0.57246   0.05155  0.07886  0.05623 -0.04691  0.05192 -0.03550   -0.20892    1.22347  280.72648   0.20377  0.20423  0.50200 -0.01649 -0.02611 -0.04311
2046 358140.000  -2408563.1527   4698160.8674   3566717.3078   6  10   0.2790   0.4857   0.3303  -0.3124   0.3380  -0.2322   0.00    0.0    3.13825    1.22458    0.53018   0.05084  0.07746  0.05529 -0.04576  0.05060 -0.03457   -0.08189    0.88833  279.83906   0.20362  0.20408  0.50200 -0.01663 -0.02704 -0.04125
2046 358141.000  -2408559.9953   4698162.2434   3566717.7048   6  10   0.2761   0.4819   0.3272  -0.3097   0.3354  -0.2301   0.00    0.0    3.24801    1.22850    0.55768   0.05021  0.07613  0.05440 -0.04465  0.04934 -0.03360   -0.11093    1.11840  280.00488   0.20324  0.20369  0.50204 -0.01679 -0.02720 -0.03893
2046 358142.000  -2408556.6843   4698163.6139   3566718.2012   6  11   0.2726   0.4770   0.3240  -0.3060   0.3325  -0.2278   0.00    0.0    3.34721    1.16359    0.75588   0.04945  0.07479  0.05347 -0.04352  0.04815 -0.03263   -0.34002    1.14408  283.06973   0.20263  0.20309  0.50220 -0.01685 -0.02689 -0.03802
2046 358143.000  -2408553.2901   4698164.8521   3566718.8991   6  11   0.2700   0.4727   0.3210  -0.3035   0.3298  -0.2258   0.00    0.0    3.32663    1.00568    0.91054   0.04856  0.07343  0.05244 -0.04256  0.04716 -0.03182   -0.40553    1.28881  286.72678   0.20209  0.20254  0.50228 -0.01685 -0.02441 -0.03925
2046 358144.000  -2408549.9882   4698165.9279   3566719.7354   6  11   0.2675   0.4685   0.3180  -0.3009   0.3271  -0.2239   0.00    0.0    3.27565    0.87727    0.99721   0.04768  0.07207  0.05140 -0.04172  0.04620 -0.03108   -0.17195    1.28979  289.77986   0.20184  0.20227  0.50211 -0.01687 -0.01893 -0.03975
2046 358145.000  -2408546.7093   4698166.9940   3566720.6320   6  11   0.2650   0.4646   0.3151  -0.2985   0.3245  -0.2221   0.00    0.0    3.30206    0.98363    1.09240   0.04702  0.07082  0.05050 -0.04086  0.04514 -0.03039   -0.29887    1.41923  289.41535   0.20176  0.20218  0.50193 -0.01694 -0.01336 -0.03900
2046 358146.000  -2408543.4395   4698168.0732   3566721.4896   6  11   0.2627   0.4608   0.3123  -0.2962   0.3220  -0.2203   0.00    0.0    3.30154    0.99094    0.94556   0.04639  0.06961  0.04977 -0.03998  0.04410 -0.02967   -0.28858    1.23611  288.40812   0.20159  0.20202  0.50192 -0.01696 -0.00869 -0.03722
2046 358147.000  -2408540.2086   4698169.3028   3566722.3136   6  13   0.2596   0.4546   0.3095  -0.2926   0.3189  -0.2182   0.00    0.0    3.29292    1.04520    0.91013   0.04579  0.06830  0.04906 -0.03902  0.04304 -0.02892   -0.19620    1.19166  287.17698   0.20125  0.20168  0.50205 -0.01689 -0.00579 -0.03553
2046 358148.000  -2408536.9447   4698170.4472   3566723.0523   6  12   0.2569   0.4505   0.3069  -0.2897   0.3164  -0.2164   0.00    0.0    3.29975    1.06853    0.86080   0.04516  0.06712  0.04835 -0.03814  0.04211 -0.02825   -0.05840    1.21451  286.36797   0.20079  0.20122  0.50224 -0.01672 -0.00514 -0.03449
2046 358149.000  -2408533.7012   4698171.6190   3566723.7595   6  12   0.2543   0.4466   0.3044  -0.2871   0.3141  -0.2147   0.00    0.0    3.23771    1.13224    0.74249   0.04449  0.06597  0.04765 -0.03729  0.04127 -0.02760   -0.34179    0.99617  285.88633   0.20029  0.20071  0.50244 -0.01650 -0.00680 -0.03404
2046 358150.000  -2408530.5179   4698172.8314   3566724.4508   6  13   0.2517   0.4412   0.3018  -0.2839   0.3113  -0.2129   0.00    0.0    3.19239    1.08889    0.82258   0.04384  0.06474  0.04691 -0.03649  0.04041 -0.02700   -0.17945    1.47042  285.42823   0.19981  0.20025  0.50264 -0.01626 -0.01035 -0.03361
2046 358151.000  -2408527.3166   4698174.0769   3566725.1318   6  13   0.2492   0.4361   0.2994  -0.2810   0.3086  -0.2112   0.00    0.0    3.28168    1.12485    0.73298   0.04315  0.06348  0.04621 -0.03571  0.03964 -0.02646   -0.32483    1.51206  285.05704   0.19941  0.19984  0.50284 -0.01601 -0.01244 -0.03369
2046 358152.000  -2408524.0283   4698175.3429   3566725.8042   6  13   0.2469   0.4313   0.2970  -0.2782   0.3061  -0.2096   0.00    0.0    3.34569    1.19348    0.77797   0.04250  0.06229  0.04553 -0.03498  0.03889 -0.02594   -0.30355    1.75292  284.55706   0.19909  0.19952  0.50304 -0.01578 -0.01223 -0.03442
2046 358153.000  -2408520.7921   4698176.6166   3566726.4224   6  13   0.2446   0.4267   0.2947  -0.2756   0.3037  -0.2080   0.00    0.0    3.17728    1.15761    0.70951   0.04183  0.06117  0.04484 -0.03425  0.03820 -0.02544   -0.43726    1.48708  284.04824   0.19886  0.19931  0.50323 -0.01556 -0.01405 -0.03516
2046 358154.000  -2408517.5982   4698177.8362   3566727.0336   6  13   0.2425   0.4224   0.2925  -0.2731   0.3014  -0.2065   0.00    0.0    3.21507    1.13430    0.71432   0.04122  0.06007  0.04418 -0.03359  0.03751 -0.02496   -0.57064    1.44163  284.54653   0.19871  0.19917  0.50342 -0.01540 -0.01623 -0.03509
2046 358155.000  -2408514.4177   4698179.0553   3566727.6449   6  13   0.2404   0.4184   0.2904  -0.2708   0.2992  -0.2051   0.00    0.0    3.19381    1.13817    0.74095   0.04064  0.05902  0.04355 -0.03294  0.03684 -0.02449   -0.59075    1.33636  284.35477   0.19861  0.19908  0.50362 -0.01531 -0.01780 -0.03494
2046 358156.000  -2408511.2488   4698180.2985   3566728.2148   6  13   0.2384   0.4144   0.2882  -0.2685   0.2971  -0.2037   0.00    0.0    3.20321    1.19454    0.64931   0.04010  0.05798  0.04295 -0.03231  0.03619 -0.02405   -0.60649    1.19281  283.17166   0.19852  0.19902  0.50382 -0.01530 -0.01951 -0.03485
2046 358157.000  -2408508.0502   4698181.5494   3566728.7330   6  12   0.2365   0.4119   0.2862  -0.2667   0.2954  -0.2025   0.00    0.0    3.30282    1.27429    0.62000   0.03963  0.05708  0.04240 -0.03173  0.03556 -0.02360   -0.75985    0.81753  282.20101   0.19844  0.19896  0.50396 -0.01537 -0.02170 -0.03474
2046 358158.000  -2408504.7272   4698182.9203   3566729.1893   6  13   0.2346   0.4082   0.2841  -0.2646   0.2932  -0.2012   0.00    0.0    3.41138    1.38376    0.42881   0.03931  0.05612  0.04194 -0.03112  0.03489 -0.02311   -0.69408    0.91774  279.63142   0.19828  0.19882  0.50397 -0.01554 -0.02519 -0.03518
2046 358159.000  -2408501.3531   4698184.4656   3566729.4536   6  13   0.2328   0.4044   0.2819  -0.2625   0.2911  -0.1999   0.00    0.0    3.50797    1.65600    0.28043   0.03951  0.05527  0.04178 -0.03046  0.03402 -0.02246   -0.68592    0.90379  275.14192   0.19776  0.19833  0.50346 -0.01592 -0.03257 -0.03365
2046 358160.000  -2408497.8396   4698186.2774   3566729.4486   6  13   0.2310   0.4009   0.2799  -0.2605   0.2891  -0.1986   0.00    0.0    3.56356    1.92479   -0.13336   0.04082  0.05468  0.04216 -0.02951  0.03278 -0.02161   -0.45595    0.38077  269.26676   0.19609  0.19671  0.50174 -0.01670 -0.04587 -0.02468
2046 358161.000  -2408494.4849   4698188.3880   3566728.9768   6  12   0.2298   0.3980   0.2779  -0.2592   0.2873  -0.1975   0.00    0.0    3.30540    2.29886   -0.63885   0.04429  0.05473  0.04402 -0.02754  0.03034 -0.02059    0.01856    0.55795  258.97138   0.19135  0.19205  0.49815 -0.01908 -0.06213  0.03690
2046 358162.000  -2408491.4223   4698190.8239   3566727.8980   6  12   0.2283   0.3950   0.2759  -0.2576   0.2854  -0.1963   0.00    0.0    2.96393    2.55446   -1.23382   0.04957  0.05568  0.04794 -0.02413  0.02561 -0.01875    0.46330    0.27951  248.66399   0.18012  0.18074  0.49226 -0.02419 -0.07646  0.07704
2046 358163.000  -2408488.6708   4698193.4579   3566726.3654   6  12   0.2269   0.3921   0.2740  -0.2561   0.2836  -0.1952   0.00    0.0    2.59464    2.62301   -1.61252   0.05387  0.05684  0.05199 -0.02021  0.01954 -0.01505    0.25621    0.25586  241.85919   0.16102  0.16074  0.48758 -0.02918 -0.08281  0.10700
2046 358164.000  -2408486.2621   4698196.1025   3566724.5785   6  12   0.2255   0.3893   0.2720  -0.2546   0.2818  -0.1941   0.00    0.0    2.23831    2.60620   -1.82240   0.05586  0.05727  0.05394 -0.01712  0.01530 -0.01016    0.35045    0.21488  236.37647   0.13788  0.13589  0.48590 -0.02977 -0.07843  0.12256
2046 358165.000  -2408484.1274   4698198.7836   3566722.5809   6  12   0.2242   0.3865   0.2701  -0.2531   0.2800  -0.1930   0.00    0.0    2.03289    2.63956   -2.01241   0.05584  0.05689  0.05363 -0.01571  0.01432 -0.00636    0.85192   -0.18732  232.52977   0.11564  0.11212  0.48559 -0.02693 -0.06907  0.12692
2046 358166.000  -2408482.2050   4698201.5006   3566720.4629   6  12   0.2229   0.3838   0.2683  -0.2517   0.2783  -0.1919   0.00    0.0    1.81867    2.64596   -2.15426   0.05452  0.05594  0.05220 -0.01566  0.01540 -0.00581    0.22800    0.71398  228.48807   0.09672  0.09243  0.48536 -0.02304 -0.05977  0.12425
2046 358167.000  -2408480.5737   4698204.1194   3566718.2307   6  13   0.2216   0.3812   0.2664  -0.2503   0.2766  -0.1908   0.00    0.0    1.51384    2.55960   -2.27138   0.05275  0.05475  0.05053 -0.01607  0.01699 -0.00693    0.28388    0.84514  224.47899   0.08159  0.07702  0.48438 -0.01889 -0.04831  0.11887
2046 358168.000  -2408479.1457   4698206.7095   3566715.8478   6  11   0.2223   0.3795   0.2657  -0.2504   0.2760  -0.1917   0.00    0.0    1.31127    2.59789   -2.40760   0.05123  0.05357  0.04882 -0.01673  0.01825 -0.00953    0.27045    0.63510  221.17693   0.06995  0.06519  0.48308 -0.01581 -0.03836  0.11298
2046 358169.000  -2408477.8114   4698209.3272   3566713.3887   6  12   0.2215   0.3771   0.2643  -0.2493   0.2747  -0.1912   0.00    0.0    1.25209    2.58871   -2.48777   0.04926  0.05242  0.04699 -0.01751  0.01939 -0.01115    0.51636    0.43724  220.10807   0.06050  0.05605  0.48121 -0.01315 -0.03152  0.10620
2046 358170.000  -2408476.5088   4698211.9286   3566710.9428   6  11   0.2206   0.3748   0.2629  -0.2482   0.2734  -0.1905   0.00    0.0    1.30099    2.56258   -2.42197   0.04734  0.05138  0.04522 -0.01808  0.02028 -0.01257    0.41858    0.52838  220.09372   0.05296  0.04902  0.47841 -0.01120 -0.02750  0.09873
2046 358171.000  -2408475.1545   4698214.5313   3566708.5241   6  12   0.2199   0.3727   0.2614  -0.2473   0.2721  -0.1899   0.00    0.0    1.42355    2.60085   -2.37408   0.04547  0.05035  0.04356 -0.01870  0.02093 -0.01377    0.46302    0.14670  221.80760   0.04698  0.04365  0.47466 -0.00994 -0.02654  0.09101
2046 358172.000  -2408473.6543   4698217.1752   3566706.1373   6  13   0.2179   0.3701   0.2597  -0.2455   0.2704  -0.1885   0.00    0.0    1.55842    2.65837   -2.39536   0.04341  0.04924  0.04199 -0.01946  0.02155 -0.01457    0.40724    0.40635  223.50791   0.04220  0.03955  0.46981 -0.00907 -0.02879  0.08309
2046 358173.000  -2408472.1272   4698219.8648   3566703.7199   6  13   0.2164   0.3677   0.2581  -0.2439   0.2688  -0.1874   0.00    0.0    1.50996    2.73007   -2.46871   0.04159  0.04806  0.04055 -0.02016  0.02225 -0.01498    0.23959    0.51750  222.68098   0.03857  0.03643  0.46524 -0.00852 -0.03221  0.07629
2046 358174.000  -2408470.6723   4698222.5908   3566701.2531   6  13   0.2150   0.3653   0.2566  -0.2425   0.2674  -0.1864   0.00    0.0    1.46123    2.72549   -2.47774   0.04013  0.04704  0.03929 -0.02048  0.02272 -0.01531    0.28652    0.49969  221.55703   0.03579  0.03404  0.46146 -0.00803 -0.03484  0.07074
2046 358175.000  -2408469.2449   4698225.3144   3566698.6802   6  12   0.2140   0.3632   0.2553  -0.2414   0.2661  -0.1858   0.00    0.0    1.38976    2.78056   -2.59159   0.03883  0.04607  0.03822 -0.02083  0.02303 -0.01552    0.42905    0.32763  220.40300   0.03365  0.03217  0.45840 -0.00759 -0.03681  0.06624
2046 358176.000  -2408467.8239   4698228.0775   3566696.0764   6  10   0.2147   0.3620   0.2545  -0.2416   0.2655  -0.1862   0.00    0.0    1.42085    2.78795   -2.58023   0.03792  0.04529  0.03728 -0.02098  0.02317 -0.01588    0.50551    0.53199  220.50561   0.03198  0.03073  0.45544 -0.00724 -0.03850  0.06222
2046 358177.000  -2408466.4130   4698230.8381   3566693.5004   6  12   0.2137   0.3601   0.2531  -0.2405   0.2643  -0.1854   0.00    0.0    1.40667    2.75485   -2.59423   0.03689  0.04450  0.03636 -0.02104  0.02330 -0.01600    0.39652    0.57795  220.43536   0.03066  0.02961  0.45233 -0.00684 -0.03973  0.05838
2046 358178.000  -2408465.0219   4698233.5834   3566690.9201   6  12   0.2121   0.3580   0.2516  -0.2391   0.2628  -0.1841   0.00    0.0    1.38347    2.77108   -2.59211   0.03588  0.04375  0.03554 -0.02107  0.02335 -0.01601    0.41660    0.70473  220.06316   0.02963  0.02876  0.44932 -0.00643 -0.04057  0.05487
2046 358179.000  -2408463.6371   4698236.4137   3566688.2544   6  13   0.2107   0.3560   0.2502  -0.2378   0.2615  -0.1832   0.00    0.0    1.43581    2.98183   -2.79779   0.03483  0.04299  0.03489 -0.02130  0.02326 -0.01593    0.40263    0.78855  219.45420   0.02886  0.02814  0.44667 -0.00609 -0.04153  0.05194
2046 358180.000  -2408462.1506   4698239.4657   3566685.3435   6  13   0.2095   0.3541   0.2489  -0.2366   0.2603  -0.1823   0.00    0.0    1.54795    3.10542   -2.95949   0.03400  0.04233  0.03431 -0.02134  0.02312 -0.01586    0.35948    0.81989  219.27196   0.02831  0.02772  0.44429 -0.00589 -0.04317  0.04977
2046 358181.000  -2408460.6060   4698242.6559   3566682.3051   6  12   0.2085   0.3524   0.2477  -0.2356   0.2591  -0.1816   0.00    0.0    1.60031    3.27640   -3.14644   0.03326  0.04167  0.03375 -0.02139  0.02303 -0.01568    0.41206    0.89585  218.99395   0.02792  0.02745  0.44185 -0.00571 -0.04475  0.04791
2046 358182.000  -2408459.0040   4698246.1152   3566679.0428   6  11   0.2083   0.3510   0.2466  -0.2352   0.2583  -0.1812   0.00    0.0    1.70739    3.57570   -3.33931   0.03271  0.04108  0.03334 -0.02148  0.02284 -0.01543    0.36129    0.87506  218.99958   0.02768  0.02731  0.43915 -0.00560 -0.04648  0.04647
2046 358183.000  -2408457.2891   4698249.6817   3566675.6216   6  12   0.2088   0.3498   0.2461  -0.2352   0.2578  -0.1817   0.00    0.0    1.72259    3.57063   -3.36261   0.03221  0.04053  0.03273 -0.02128  0.02279 -0.01566    0.33107    0.68850  218.99363   0.02754  0.02728  0.43631 -0.00551 -0.04797  0.04518
2046 358184.000  -2408455.6038   4698253.1550   3566672.3150   6  11   0.2077   0.3482   0.2448  -0.2342   0.2567  -0.1808   0.00    0.0    1.71996    3.48368   -3.27716   0.03166  0.04004  0.03210 -0.02099  0.02271 -0.01579    0.38939    0.58337  219.46069   0.02748  0.02730  0.43396 -0.00529 -0.04866  0.04373
2046 358185.000  -2408453.8941   4698256.6352   3566669.0357   6  11   0.2070   0.3468   0.2437  -0.2335   0.2557  -0.1801   0.00    0.0    1.75996    3.44344   -3.23847   0.03121  0.03957  0.03159 -0.02075  0.02258 -0.01580    0.25452    0.70978  220.02336   0.02749  0.02737  0.43159 -0.00504 -0.04892  0.04225
2046 358186.000  -2408452.2127   4698260.0551   3566665.8721   6  11   0.2071   0.3455   0.2430  -0.2333   0.2551  -0.1803   0.00    0.0    1.76955    3.44303   -3.18133   0.03087  0.03909  0.03113 -0.02053  0.02244 -0.01582    0.41619    0.86935  220.22953   0.02756  0.02747  0.42918 -0.00475 -0.04867  0.04077
2046 358187.000  -2408450.5250   4698263.4435   3566662.6769   6  11   0.2065   0.3441   0.2418  -0.2326   0.2541  -0.1798   0.00    0.0    1.69522    3.36903   -3.19107   0.03051  0.03858  0.03063 -0.02035  0.02238 -0.01567    0.40729    0.71693  219.75057   0.02768  0.02760  0.42704 -0.00444 -0.04815  0.03951
2046 358188.000  -2408448.8979   4698266.7921   3566659.5185   6  11   0.2052   0.3425   0.2404  -0.2315   0.2529  -0.1787   0.00    0.0    1.64674    3.37170   -3.12303   0.03016  0.03814  0.03022 -0.02014  0.02222 -0.01548    0.37585    0.72888  219.46709   0.02784  0.02774  0.42513 -0.00411 -0.04733  0.03849
2046 358189.000  -2408447.2869   4698270.1115   3566656.3752   6  11   0.2043   0.3409   0.2392  -0.2307   0.2518  -0.1780   0.00    0.0    1.61954    3.31815   -3.11264   0.02986  0.03770  0.02985 -0.01994  0.02204 -0.01529    0.46621    0.33222  219.80302   0.02802  0.02790  0.42335 -0.00379 -0.04629  0.03772
2046 358190.000  -2408445.6597   4698273.3816   3566653.3241   6  11   0.2036   0.3395   0.2380  -0.2299   0.2507  -0.1773   0.00    0.0    1.69416    3.25086   -3.01549   0.02966  0.03735  0.02954 -0.01964  0.02178 -0.01519    0.31072    0.64898  220.55981   0.02822  0.02805  0.42122 -0.00343 -0.04490  0.03705
2046 358191.000  -2408444.0068   4698276.6509   3566650.3316   6  12   0.2026   0.3379   0.2367  -0.2290   0.2496  -0.1765   0.00    0.0    1.74221    3.24267   -2.99016   0.02936  0.03696  0.02926 -0.01942  0.02151 -0.01502    0.38171    0.76746  221.21482   0.02843  0.02821  0.41897 -0.00305 -0.04327  0.03651
2046 358192.000  -2408442.3075   4698279.8735   3566647.3720   6  10   0.2031   0.3369   0.2361  -0.2290   0.2491  -0.1769   0.00    0.0    1.73935    3.19889   -2.92337   0.02926  0.03659  0.02900 -0.01922  0.02129 -0.01490    0.48429    1.06998  221.37933   0.02864  0.02837  0.41679 -0.00263 -0.04143  0.03615
2046 358193.000  -2408440.6754   4698283.0715   3566644.4130   6  10   0.2026   0.3356   0.2351  -0.2284   0.2482  -0.1765   0.00    0.0    1.62755    3.18497   -2.94707   0.02901  0.03617  0.02873 -0.01913  0.02112 -0.01460    0.41385    0.92180  220.41710   0.02884  0.02850  0.41508 -0.00218 -0.03950  0.03609
2046 358194.000  -2408439.0506   4698286.2548   3566641.4477   6   9   0.2029   0.3346   0.2341  -0.2284   0.2475  -0.1763   0.00    0.0    1.68637    3.17594   -2.89452   0.02893  0.03586  0.02852 -0.01895  0.02082 -0.01446    0.38431    0.96357  220.94039   0.02902  0.02863  0.41369 -0.00160 -0.03749  0.03624
2046 358195.000  -2408437.4084   4698289.4069   3566638.5644   6  10   0.2024   0.3334   0.2331  -0.2278   0.2466  -0.1758   0.00    0.0    1.66300    3.01294   -2.80593   0.02889  0.03554  0.02828 -0.01869  0.02061 -0.01420    0.61502    1.20980  221.74594   0.02919  0.02874  0.41216 -0.00068 -0.03511  0.03653
2046 358196.000  -2408435.7120   4698292.5175   3566635.7375   6  10   0.2018   0.3321   0.2321  -0.2272   0.2458  -0.1753   0.00    0.0    1.75110    3.10890   -2.80041   0.02863  0.03524  0.02814 -0.01852  0.02028 -0.01407    0.30504    0.87945  222.61037   0.02934  0.02882  0.41066  0.00130 -0.03242  0.03688
2046 358197.000  -2408434.0060   4698295.6409   3566632.8896   6  11   0.2006   0.3308   0.2309  -0.2262   0.2447  -0.1744   0.00    0.0    1.76351    3.12775   -2.85163   0.02837  0.03491  0.02796 -0.01839  0.02002 -0.01381    0.26799    0.83127  221.70827   0.02946  0.02888  0.40954  0.00192 -0.02962  0.03721
2046 358198.000  -2408432.4103   4698298.7711   3566630.0075   6  12   0.1998   0.3295   0.2298  -0.2254   0.2438  -0.1737   0.00    0.0    1.60956    3.10032   -2.91756   0.02816  0.03456  0.02775 -0.01826  0.01984 -0.01348    0.58753    0.76173  220.33094   0.02955  0.02891  0.40901  0.00234 -0.02701  0.03767
2046 358199.000  -2408430.8539   4698301.8697   3566627.0851   6  12   0.1990   0.3282   0.2287  -0.2248   0.2429  -0.1732   0.00    0.0    1.59168    3.09599   -2.88077   0.02801  0.03426  0.02755 -0.01806  0.01958 -0.01329    0.30146    0.87249  219.98426   0.02959  0.02891  0.40883  0.00265 -0.02453  0.03826
2046 358200.000  -2408429.3339   4698304.9397   3566624.2042   6  11   0.1984   0.3271   0.2278  -0.2241   0.2421  -0.1727   0.00    0.0    1.58627    3.05856   -2.80939   0.02790  0.03399  0.02737 -0.01784  0.01933 -0.01310    0.41070    1.47271  220.09321   0.02962  0.02890  0.40868  0.00294 -0.02174  0.03888
2046 358201.000  -2408427.8472   4698307.9708   3566621.3600   6  12   0.1976   0.3259   0.2268  -0.2233   0.2412  -0.1721   0.00    0.0    1.54821    3.06675   -2.85346   0.02770  0.03369  0.02719 -0.01765  0.01909 -0.01287    0.33256    1.70141  219.81561   0.02963  0.02886  0.40864  0.00320 -0.01870  0.03953
2046 358202.000  -2408426.3525   4698311.0342   3566618.4839   6  12   0.1966   0.3246   0.2258  -0.2225   0.2403  -0.1714   0.00    0.0    1.56921    3.07233   -2.89874   0.02751  0.03340  0.02701 -0.01744  0.01885 -0.01266    0.42818    1.56330  219.92759   0.02960  0.02881  0.40876  0.00340 -0.01552  0.04001
2046 358203.000  -2408424.8285   4698314.1320   3566615.5844   6  12   0.1958   0.3234   0.2248  -0.2217   0.2394  -0.1708   0.00    0.0    1.58293    3.09545   -2.87213   0.02736  0.03313  0.02684 -0.01723  0.01860 -0.01246    0.31824    1.50561  220.16000   0.02955  0.02874  0.40895  0.00359 -0.01189  0.04024
2046 358204.000  -2408423.2644   4698317.2448   3566612.6737   6  12   0.1950   0.3222   0.2239  -0.2209   0.2386  -0.1702   0.00    0.0    1.68649    3.10190   -2.89134   0.02722  0.03286  0.02669 -0.01703  0.01834 -0.01227    0.15451    1.61026  220.73207   0.02948  0.02866  0.40912  0.00375 -0.00657  0.04027
2046 358205.000  -2408421.6692   4698320.3641   3566609.7583   6  12   0.1943   0.3211   0.2230  -0.2202   0.2378  -0.1697   0.00    0.0    1.63463    3.11287   -2.91860   0.02709  0.03259  0.02650 -0.01683  0.01813 -0.01204    0.31183    1.55021  220.57846   0.02939  0.02856  0.40928  0.00389  0.00698  0.04013
2046 358206.000  -2408420.1159   4698323.4726   3566606.8338   6  12   0.1936   0.3199   0.2221  -0.2195   0.2370  -0.1691   0.00    0.0    1.55133    3.10896   -2.91430   0.02695  0.03233  0.02631 -0.01662  0.01793 -0.01185    0.44015    1.35468  219.65497   0.02928  0.02845  0.40954  0.00399  0.01099  0.03997
2046 358207.000  -2408418.6415   4698326.5711   3566603.8744   6  12   0.1932   0.3190   0.2213  -0.2191   0.2364  -0.1688   0.00    0.0    1.50712    3.12194   -2.97630   0.02683  0.03207  0.02612 -0.01643  0.01773 -0.01168    0.39084    1.31988  218.61019   0.02916  0.02833  0.40987  0.00407  0.01295  0.03992
2046 358208.000  -2408417.2102   4698329.7041   3566600.8385   6  12   0.1924   0.3179   0.2204  -0.2184   0.2356  -0.1682   0.00    0.0    1.46539    3.16186   -3.02831   0.02667  0.03181  0.02593 -0.01624  0.01755 -0.01151    0.41188    1.21035  218.25311   0.02902  0.02820  0.41018  0.00408  0.01372  0.03976
2046 358209.000  -2408415.7436   4698332.8951   3566597.7603   6  12   0.1917   0.3168   0.2196  -0.2177   0.2349  -0.1677   0.00    0.0    1.57648    3.27114   -3.10507   0.02657  0.03155  0.02580 -0.01609  0.01735 -0.01128    0.39083    1.12456  218.72628   0.02887  0.02806  0.41040  0.00408  0.01430  0.03937
2046 358210.000  -2408414.1646   4698336.2625   3566594.5585   6  12   0.1910   0.3158   0.2188  -0.2171   0.2342  -0.1672   0.00    0.0    1.65056    3.40682   -3.20810   0.02651  0.03129  0.02568 -0.01592  0.01716 -0.01100    0.52634    1.19653  219.12825   0.02870  0.02793  0.41017  0.00406  0.01439  0.03822
2046 358211.000  -2408412.5234   4698339.7111   3566591.3057   6  12   0.1904   0.3149   0.2180  -0.2165   0.2335  -0.1668   0.00    0.0    1.75738    3.41995   -3.25504   0.02636  0.03105  0.02553 -0.01579  0.01696 -0.01082    0.26720    1.21271  219.78862   0.02853  0.02780  0.40970  0.00402  0.01446  0.03670
2046 358212.000  -2408410.8183   4698343.1466   3566588.0439   6  12   0.1898   0.3139   0.2173  -0.2159   0.2328  -0.1663   0.00    0.0    1.73969    3.40184   -3.15167   0.02615  0.03083  0.02533 -0.01563  0.01675 -0.01081    0.16812    1.00207  220.16430   0.02837  0.02767  0.40930  0.00399  0.01475  0.03516
2046 358213.000  -2408409.1088   4698346.5299   3566584.8794   6  12   0.1892   0.3130   0.2166  -0.2153   0.2322  -0.1659   0.00    0.0    1.76922    3.35607   -3.11089   0.02599  0.03061  0.02515 -0.01548  0.01656 -0.01074    0.29911    1.04856  220.69842   0.02821  0.02754  0.40923  0.00398  0.01572  0.03401
2046 358214.000  -2408407.4637   4698349.8375   3566581.7973   6  12   0.1886   0.3121   0.2159  -0.2148   0.2316  -0.1655   0.00    0.0    1.67804    3.16122   -2.98344   0.02581  0.03040  0.02492 -0.01531  0.01640 -0.01071    0.30849    1.05233  220.18263   0.02805  0.02740  0.40944  0.00396  0.01679  0.03334
2046 358215.000  -2408405.9127   4698352.9584   3566578.8291   6  12   0.1880   0.3112   0.2152  -0.2142   0.2310  -0.1651   0.00    0.0    1.55385    3.06238   -2.90330   0.02568  0.03019  0.02475 -0.01516  0.01623 -0.01056    0.39777    0.77901  219.84618   0.02791  0.02727  0.40987  0.00396  0.01795  0.03362
2046 358216.000  -2408404.4308   4698355.9840   3566575.9382   6  12   0.1874   0.3103   0.2144  -0.2136   0.2303  -0.1646   0.00    0.0    1.47459    3.01265   -2.86823   0.02553  0.02997  0.02459 -0.01502  0.01606 -0.01042    0.28192    0.68849  219.39319   0.02777  0.02713  0.41027  0.00397  0.01907  0.03435
2046 358217.000  -2408402.9440   4698359.0193   3566573.0727   6  11   0.1873   0.3094   0.2139  -0.2134   0.2299  -0.1646   0.00    0.0    1.55702    3.03647   -2.82100   0.02543  0.02975  0.02443 -0.01488  0.01589 -0.01039    0.54332    0.53426  220.48121   0.02764  0.02700  0.41067  0.00398  0.02017  0.03506
2046 358218.000  -2408401.4427   4698362.0344   3566570.2449   6  10   0.1884   0.3091   0.2137  -0.2139   0.2298  -0.1654   0.00    0.0    1.53543    3.01844   -2.82373   0.02542  0.02954  0.02428 -0.01477  0.01574 -0.01037    0.30597    0.64098  220.33923   0.02751  0.02689  0.41110  0.00406  0.02128  0.03558
2046 358219.000  -2408399.9519   4698365.0367   3566567.4177   6  12   0.1877   0.3081   0.2129  -0.2133   0.2291  -0.1649   0.00    0.0    1.51472    3.05399   -2.83464   0.02528  0.02933  0.02413 -0.01462  0.01558 -0.01026    0.59059    0.53095  220.03441   0.02738  0.02677  0.41154  0.00406  0.02213  0.03603
2046 358220.000  -2408398.4013   4698368.1868   3566564.4542   6  12   0.1863   0.3069   0.2118  -0.2122   0.2281  -0.1638   0.00    0.0    1.65831    3.23467   -2.99488   0.02515  0.02910  0.02401 -0.01449  0.01543 -0.01001    0.48964    0.64325  220.35817   0.02724  0.02663  0.41188  0.00400  0.02235  0.03576
2046 358221.000  -2408396.7457   4698371.5102   3566561.3528   6  12   0.1855   0.3059   0.2110  -0.2115   0.2274  -0.1633   0.00    0.0    1.68596    3.35535   -3.20192   0.02514  0.02888  0.02389 -0.01428  0.01531 -0.00976    0.56635    0.73938  219.92517   0.02708  0.02651  0.41168  0.00391  0.02205  0.03455
2046 358222.000  -2408395.0982   4698374.9036   3566558.1506   6  12   0.1846   0.3048   0.2100  -0.2107   0.2265  -0.1626   0.00    0.0    1.71190    3.39197   -3.17007   0.02494  0.02867  0.02373 -0.01417  0.01515 -0.00965    0.33881    0.74573  219.83018   0.02692  0.02638  0.41121  0.00379  0.02114  0.03306
2046 358223.000  -2408393.4466   4698378.2357   3566554.9842   6  11   0.1845   0.3040   0.2092  -0.2104   0.2259  -0.1624   0.00    0.0    1.65729    3.31793   -3.12907   0.02476  0.02848  0.02353 -0.01406  0.01500 -0.00969    0.43247    0.54720  219.77033   0.02677  0.02626  0.41107  0.00372  0.02047  0.03193
2046 358224.000  -2408391.8353   4698381.4893   3566551.9069   6  11   0.1839   0.3031   0.2084  -0.2099   0.2253  -0.1619   0.00    0.0    1.60618    3.21039   -3.02630   0.02456  0.02829  0.02335 -0.01397  0.01484 -0.00968    0.38981    0.84026  220.14573   0.02664  0.02615  0.41131  0.00366  0.02026  0.03136
2046 358225.000  -2408390.2230   4698384.6647   3566548.9251   6  11   0.1843   0.3025   0.2080  -0.2099   0.2250  -0.1622   0.00    0.0    1.62900    3.13710   -2.92513   0.02446  0.02810  0.02320 -0.01386  0.01468 -0.00965    0.56914    0.72354  220.80626   0.02653  0.02606  0.41172  0.00365  0.02056  0.03122
2046 358226.000  -2408388.6082   4698387.7764   3566546.0420   6  10   0.1839   0.3017   0.2073  -0.2095   0.2244  -0.1619   0.00    0.0    1.64903    3.09481   -2.84248   0.02437  0.02792  0.02305 -0.01375  0.01453 -0.00958    0.53603    0.84542  221.37441   0.02642  0.02596  0.41219  0.00364  0.02132  0.03136
2046 358227.000  -2408386.9933   4698390.8480   3566543.1965   6  10   0.1836   0.3009   0.2066  -0.2091   0.2237  -0.1616   0.00    0.0    1.62512    3.06837   -2.84427   0.02427  0.02774  0.02291 -0.01363  0.01439 -0.00949    0.43135    1.10645  220.98121   0.02631  0.02587  0.41266  0.00363  0.02212  0.03157
2046 358228.000  -2408385.3980   4698393.9249   3566540.3365   6  10   0.1833   0.3001   0.2058  -0.2087   0.2231  -0.1613   0.00    0.0    1.64354    2.97490   -2.83282   0.02416  0.02757  0.02276 -0.01353  0.01426 -0.00941    0.43194    0.98801  220.88061   0.02621  0.02578  0.41313  0.00362  0.02259  0.03177
2046 358229.000  -2408383.8178   4698396.9974   3566537.4932   6  12   0.1827   0.2992   0.2050  -0.2081   0.2225  -0.1608   0.00    0.0    1.59903    3.08358   -2.83753   0.02404  0.02739  0.02264 -0.01337  0.01411 -0.00928    0.39072    1.57161  220.91747   0.02611  0.02569  0.41361  0.00361  0.02304  0.03197
2046 358230.000  -2408382.2948   4698399.9797   3566534.6743   6  12   0.1814   0.2980   0.2040  -0.2071   0.2215  -0.1599   0.00    0.0    1.52676    2.99623   -2.76913   0.02386  0.02721  0.02248 -0.01324  0.01397 -0.00913    0.21090    1.17339  219.89335   0.02602  0.02559  0.41409  0.00357  0.02326  0.03234
2046 358231.000  -2408380.8809   4698402.9399   3566531.8350   6  12   0.1806   0.2971   0.2032  -0.2064   0.2208  -0.1592   0.00    0.0    1.47645    3.01353   -2.76915   0.02371  0.02703  0.02234 -0.01311  0.01383 -0.00903    0.48518   -0.25815  219.05025   0.02593  0.02550  0.41444  0.00353  0.02292  0.03298
2046 358232.000  -2408379.4003   4698405.9704   3566528.9754   6  12   0.1799   0.2962   0.2024  -0.2058   0.2201  -0.1587   0.00    0.0    1.55233    3.01808   -2.85225   0.02358  0.02684  0.02220 -0.01300  0.01371 -0.00894    0.43602    0.02629  220.42960   0.02584  0.02542  0.41487  0.00349  0.02273  0.03331
2046 358233.000  -2408377.8219   4698409.0237   3566526.1472   6  12   0.1793   0.2953   0.2016  -0.2052   0.2194  -0.1582   0.00    0.0    1.66159    3.07172   -2.76979   0.02348  0.02667  0.02209 -0.01290  0.01355 -0.00882    0.36572   -0.12814  221.65820   0.02576  0.02535  0.41531  0.00346  0.02293  0.03321
2046 358234.000  -2408376.2606   4698412.0366   3566523.3593   6  12   0.1788   0.2945   0.2009  -0.2046   0.2187  -0.1577   0.00    0.0    1.53304    3.00237   -2.75957   0.02336  0.02650  0.02195 -0.01275  0.01343 -0.00874    0.10209    0.10223  220.89875   0.02568  0.02528  0.41575  0.00343  0.02319  0.03307
2046 358235.000  -2408374.8412   4698414.8883   3566520.6728   6  12   0.1782   0.2937   0.2002  -0.2041   0.2181  -0.1573   0.00    0.0    1.33886    2.80043   -2.63444   0.02323  0.02636  0.02184 -0.01265  0.01328 -0.00859    0.49288   -0.25143  219.61774   0.02561  0.02521  0.41622  0.00342  0.02344  0.03370
2046 358236.000  -2408373.4958   4698417.7002   3566518.0054   6  12   0.1777   0.2929   0.1995  -0.2036   0.2175  -0.1569   0.00    0.0    1.44361    2.64032   -2.70457   0.02309  0.02618  0.02167 -0.01255  0.01319 -0.00854    0.37178    0.44794  219.45164   0.02555  0.02515  0.41664  0.00342  0.02365  0.03452
2046 358237.000  -2408372.1240   4698420.5146   3566515.3190   6  11   0.1775   0.2922   0.1991  -0.2033   0.2171  -0.1568   0.00    0.0    1.41381    2.89364   -2.63743   0.02303  0.02602  0.02157 -0.01242  0.01306 -0.00851    0.21575    0.60415  219.28887   0.02549  0.02509  0.41711  0.00341  0.02373  0.03507
2046 358238.000  -2408370.7920   4698423.3791   3566512.5787   6  11   0.1771   0.2915   0.1985  -0.2029   0.2166  -0.1565   0.00    0.0    1.36621    2.90089   -2.74066   0.02293  0.02586  0.02145 -0.01229  0.01296 -0.00844    0.35970    0.67016  218.41899   0.02543  0.02503  0.41752  0.00337  0.02342  0.03534
2046 358239.000  -2408369.4561   4698426.2928   3566509.7664   6  11   0.1782   0.2913   0.1983  -0.2034   0.2166  -0.1572   0.00    0.0    1.36570    2.91282   -2.81807   0.02295  0.02571  0.02134 -0.01217  0.01287 -0.00843    0.37556    0.70561  218.22265   0.02537  0.02499  0.41783  0.00335  0.02283  0.03538
2046 358240.000  -2408368.0919   4698429.2437   3566506.9189   6  10   0.1777   0.2904   0.1977  -0.2028   0.2159  -0.1566   0.00    0.0    1.41806    2.94787   -2.90002   0.02292  0.02556  0.02125 -0.01208  0.01278 -0.00826    0.46205    1.02898  218.53901   0.02531  0.02494  0.41808  0.00331  0.02217  0.03519
2046 358241.000  -2408366.6972   4698432.1946   3566504.0764   6   9   0.1785   0.2902   0.1974  -0.2031   0.2158  -0.1569   0.00    0.0    1.38067    2.88658   -2.74296   0.02285  0.02543  0.02113 -0.01206  0.01266 -0.00824    0.30996    0.84199  219.12524   0.02526  0.02490  0.41834  0.00329  0.02168  0.03485
2046 358242.000  -2408365.3610   4698434.9473   3566501.4575   6  11   0.1783   0.2895   0.1969  -0.2028   0.2154  -0.1567   0.00    0.0    1.31909    2.66913   -2.48895   0.02277  0.02532  0.02102 -0.01196  0.01254 -0.00814    0.05382    0.78080  220.01283   0.02522  0.02487  0.41887  0.00329  0.02215  0.03509
2046 358243.000  -2408364.1316   4698437.4911   3566499.0669   6  12   0.1770   0.2886   0.1962  -0.2019   0.2147  -0.1560   0.00    0.0    1.22348    2.42477   -2.32669   0.02269  0.02520  0.02093 -0.01184  0.01244 -0.00791    0.05959    0.89722  219.89901   0.02519  0.02483  0.41915  0.00332  0.02352  0.03600
2046 358244.000  -2408362.9685   4698439.8031   3566496.8483   6  11   0.1767   0.2880   0.1958  -0.2015   0.2143  -0.1559   0.00    0.0    1.09771    2.26448   -2.11283   0.02275  0.02509  0.02088 -0.01172  0.01234 -0.00765   -0.01243    0.76606  219.76609   0.02518  0.02482  0.41887  0.00343  0.02526  0.03741
2046 358245.000  -2408361.9536   4698441.8928   3566494.8231   6  10   0.1773   0.2878   0.1956  -0.2019   0.2143  -0.1563   0.00    0.0    0.95351    2.04106   -1.92351   0.02288  0.02499  0.02086 -0.01165  0.01224 -0.00726    0.29631    0.85483  218.53569   0.02519  0.02480  0.41787  0.00362  0.02711  0.03919
2046 358246.000  -2408361.0731   4698443.7996   3566492.9799   6  11   0.1768   0.2871   0.1950  -0.2015   0.2138  -0.1559   0.00    0.0    0.87867    1.87330   -1.79244   0.02281  0.02487  0.02076 -0.01156  0.01216 -0.00714    0.42193    0.49704  218.68385   0.02521  0.02479  0.41599  0.00384  0.02907  0.04124
2046 358247.000  -2408360.1185   4698445.8478   3566491.0215   6  11   0.1757   0.2862   0.1940  -0.2006   0.2130  -0.1551   0.00    0.0    1.05801    2.23424   -2.13437   0.02227  0.02470  0.02050 -0.01154  0.01205 -0.00789    0.40101    0.49143  219.01812   0.02522  0.02477  0.41569  0.00399  0.03046  0.04255
2046 358248.000  -2408358.9734   4698448.2821   3566488.7345   6  11   0.1750   0.2854   0.1933  -0.2000   0.2123  -0.1545   0.00    0.0    1.27388    2.53355   -2.32630   0.02232  0.02455  0.02052 -0.01150  0.01192 -0.00753    0.36872    0.55900  220.31008   0.02517  0.02473  0.41610  0.00398  0.03060  0.04238
2046 358249.000  -2408357.6023   4698450.8788   3566486.3455   6  10   0.1755   0.2850   0.1930  -0.2002   0.2121  -0.1549   0.00    0.0    1.45222    2.64473   -2.37223   0.02241  0.02443  0.02059 -0.01148  0.01173 -0.00721    0.37383    0.69294  222.35724   0.02510  0.02472  0.41549  0.00390  0.03049  0.04109
2046 358250.000  -2408356.1243   4698453.5612   3566483.9231   6  11   0.1750   0.2843   0.1924  -0.1997   0.2116  -0.1545   0.00    0.0    1.49263    2.72117   -2.41221   0.02242  0.02430  0.02054 -0.01138  0.01164 -0.00701    0.18234    0.70356  222.84512   0.02501  0.02468  0.41390  0.00377  0.03016  0.03909
2046 358251.000  -2408354.6734   4698456.2180   3566481.4836   6  10   0.1747   0.2836   0.1917  -0.1994   0.2111  -0.1542   0.00    0.0    1.41581    2.68300   -2.47088   0.02235  0.02417  0.02034 -0.01118  0.01164 -0.00713    0.24585    0.74330  221.58189   0.02492  0.02464  0.41244  0.00363  0.02964  0.03708
2046 358252.000  -2408353.3152   4698458.8790   3566479.0097   6  10   0.1743   0.2829   0.1911  -0.1990   0.2105  -0.1539   0.00    0.0    1.36104    2.67872   -2.55624   0.02232  0.02405  0.02020 -0.01099  0.01160 -0.00716    0.29364    0.86518  219.95418   0.02484  0.02460  0.41131  0.00349  0.02878  0.03530
2046 358253.000  -2408351.9547   4698461.5947   3566476.4466   6  10   0.1739   0.2822   0.1905  -0.1986   0.2100  -0.1536   0.00    0.0    1.40266    2.71734   -2.56116   0.02223  0.02393  0.02011 -0.01094  0.01150 -0.00709    0.26497    0.85960  220.20492   0.02476  0.02454  0.41011  0.00334  0.02757  0.03351
2046 358254.000  -2408350.6010   4698464.3144   3566473.8884   6   9   0.1741   0.2816   0.1898  -0.1984   0.2094  -0.1532   0.00    0.0    1.37867    2.73277   -2.54122   0.02217  0.02381  0.02000 -0.01086  0.01140 -0.00705    0.32018    0.79742  219.99221   0.02470  0.02450  0.40919  0.00326  0.02644  0.03187
2046 358255.000  -2408349.2749   4698467.0445   3566471.3133   6   9   0.1738   0.2809   0.1892  -0.1980   0.2089  -0.1529   0.00    0.0    1.39565    2.76233   -2.57578   0.02209  0.02369  0.01990 -0.01078  0.01132 -0.00700    0.12393    0.56244  219.51774   0.02463  0.02445  0.40840  0.00314  0.02516  0.03029
2046 358256.000  -2408347.8995   4698469.9171   3566468.5856   6   9   0.1734   0.2802   0.1886  -0.1976   0.2084  -0.1526   0.00    0.0    1.46605    2.96610   -2.72769   0.02222  0.02356  0.01989 -0.01067  0.01125 -0.00659    0.26026    0.83720  219.14746   0.02457  0.02440  0.40702  0.00300  0.02336  0.02825
2046 358257.000  -2408346.4690   4698472.8674   3566465.7660   6   9   0.1731   0.2795   0.1880  -0.1972   0.2078  -0.1523   0.00    0.0    1.47114    2.94712   -2.83038   0.02211  0.02344  0.01975 -0.01055  0.01119 -0.00668    0.32408    0.53573  219.45931   0.02451  0.02436  0.40536  0.00286  0.02120  0.02591
2046 358258.000  -2408344.9873   4698475.8657   3566462.9204   6   9   0.1728   0.2788   0.1874  -0.1968   0.2073  -0.1520   0.00    0.0    1.49677    3.03024   -2.83113   0.02199  0.02333  0.01966 -0.01050  0.01108 -0.00666    0.31716    0.44339  219.84481   0.02445  0.02432  0.40386  0.00275  0.01905  0.02339
2046 358259.000  -2408343.4885   4698478.8930   3566460.0874   6  10   0.1725   0.2781   0.1868  -0.1964   0.2068  -0.1517   0.00    0.0    1.54918    3.01645   -2.81347   0.02181  0.02321  0.01956 -0.01047  0.01096 -0.00675    0.26064    0.47009  220.26253   0.02440  0.02429  0.40274  0.00267  0.01705  0.02081
2046 358260.000  -2408341.9684   4698481.8846   3566457.2886   6  11   0.1721   0.2774   0.1861  -0.1960   0.2062  -0.1513   0.00    0.0    1.51772    2.99026   -2.72629   0.02160  0.02311  0.01941 -0.01039  0.01086 -0.00691    0.36954    0.49589  220.36569   0.02436  0.02426  0.40221  0.00261  0.01546  0.01846
2046 358261.000  -2408340.5425   4698484.8795   3566454.5549   6  12   0.1711   0.2765   0.1852  -0.1952   0.2054  -0.1506   0.00    0.0    1.51374    2.96255   -2.72614   0.02144  0.02300  0.01930 -0.01031  0.01077 -0.00692    0.24273    0.57245  220.41871   0.02432  0.02423  0.40218  0.00256  0.01411  0.01665
2046 358262.000  -2408338.9564   4698487.8043   3566451.7922   6  10   0.1712   0.2761   0.1850  -0.1951   0.2052  -0.1507   0.00    0.0    1.58401    2.89578   -2.72214   0.02135  0.02290  0.01920 -0.01023  0.01068 -0.00697    0.22259    0.59935  221.52386   0.02429  0.02421  0.40239  0.00253  0.01344  0.01497
2046 358263.000  -2408337.3771   4698490.7510   3566449.1014   6  10   0.1709   0.2755   0.1844  -0.1948   0.2047  -0.1505   0.00    0.0    1.57158    2.92522   -2.69349   0.02129  0.02280  0.01911 -0.01013  0.01059 -0.00696    0.54776    0.74672  221.67335   0.02426  0.02418  0.40272  0.00251  0.01336  0.01328
2046 358264.000  -2408335.8403   4698493.6611   3566446.4199   6  10   0.1706   0.2748   0.1839  -0.1944   0.2043  -0.1502   0.00    0.0    1.51003    2.90716   -2.69452   0.02122  0.02270  0.01902 -0.01003  0.01052 -0.00695    0.44061    0.39738  220.76540   0.02423  0.02415  0.40319  0.00249  0.01315  0.01220
2046 358265.000  -2408334.3885   4698496.5709   3566443.7011   6  10   0.1703   0.2742   0.1834  -0.1941   0.2038  -0.1500   0.00    0.0    1.47157    2.92347   -2.71405   0.02115  0.02261  0.01894 -0.00994  0.01044 -0.00692    0.35921    0.34088  220.22814   0.02419  0.02412  0.40371  0.00248  0.01249  0.01201
2046 358266.000  -2408332.8990   4698499.5657   3566440.8970   6  10   0.1701   0.2737   0.1829  -0.1937   0.2034  -0.1497   0.00    0.0    1.55471    3.04980   -2.84546   0.02115  0.02250  0.01888 -0.00985  0.01038 -0.00681    0.46384    0.59276  219.91361   0.02416  0.02409  0.40415  0.00247  0.01135  0.01128
2046 358267.000  -2408331.4363   4698502.5605   3566438.0744   6  10   0.1699   0.2731   0.1824  -0.1934   0.2029  -0.1495   0.00    0.0    1.43673    2.88637   -2.72723   0.02102  0.02242  0.01878 -0.00980  0.01030 -0.00683    0.16074    0.81660  219.35976   0.02413  0.02407  0.40460  0.00245  0.00998  0.01073
2046 358268.000  -2408330.1010   4698505.3492   3566435.4251   6  10   0.1697   0.2725   0.1819  -0.1931   0.2025  -0.1493   0.00    0.0    1.29418    2.69498   -2.52949   0.02101  0.02235  0.01875 -0.00975  0.01020 -0.00656    0.21914    0.94116  218.83271   0.02410  0.02404  0.40506  0.00245  0.01009  0.01276
2046 358269.000  -2408328.9154   4698507.8992   3566432.9762   6  10   0.1695   0.2720   0.1815  -0.1929   0.2021  -0.1491   0.00    0.0    1.13443    2.45704   -2.32897   0.02114  0.02228  0.01879 -0.00971  0.01012 -0.00598    0.28373    0.82036  218.15461   0.02408  0.02402  0.40468  0.00245  0.01178  0.01658
2046 358270.000  -2408327.8713   4698510.2664   3566430.6738   6  10   0.1693   0.2715   0.1811  -0.1926   0.2017  -0.1489   0.00    0.0    1.03579    2.44982   -2.37909   0.02097  0.02220  0.01871 -0.00967  0.01001 -0.00612    0.39415    0.65821  217.34079   0.02407  0.02400  0.40329  0.00249  0.01418  0.02064
2046 358271.000  -2408326.7461   4698512.8264   3566428.2000   6  10   0.1692   0.2710   0.1807  -0.1923   0.2014  -0.1487   0.00    0.0    1.16240    2.58536   -2.52589   0.02079  0.02209  0.01850 -0.00955  0.01002 -0.00655    0.22371    0.81682  217.40230   0.02405  0.02398  0.40316  0.00251  0.01520  0.02292
2046 358272.000  -2408325.5933   4698515.4074   3566425.7005   6  10   0.1690   0.2705   0.1803  -0.1921   0.2010  -0.1486   0.00    0.0    1.12440    2.50089   -2.39223   0.02079  0.02202  0.01843 -0.00949  0.00997 -0.00641    0.04459    0.86198  217.54404   0.02404  0.02397  0.40346  0.00251  0.01586  0.02438
2046 358273.000  -2408324.5694   4698517.7942   3566423.3282   6  10   0.1689   0.2700   0.1799  -0.1919   0.2007  -0.1484   0.00    0.0    0.98900    2.39687   -2.35025   0.02076  0.02195  0.01841 -0.00945  0.00988 -0.00625    0.09261    0.57952  216.69852   0.02404  0.02396  0.40334  0.00255  0.01710  0.02627
2046 358274.000  -2408323.5298   4698520.1923   3566420.9738   6   9   0.1694   0.2696   0.1796  -0.1919   0.2004  -0.1482   0.00    0.0    1.01003    2.33109   -2.28222   0.02082  0.02187  0.01833 -0.00937  0.00986 -0.00610    0.42765    0.70165  217.04762   0.02405  0.02396  0.40343  0.00267  0.01821  0.02776
2046 358275.000  -2408322.5546   4698522.4149   3566418.8220   6   9   0.1694   0.2692   0.1793  -0.1917   0.2001  -0.1481   0.00    0.0    0.91330    2.12211   -2.01819   0.02101  0.02182  0.01833 -0.00925  0.00983 -0.00563    0.38264    0.57292  217.80016   0.02405  0.02396  0.40302  0.00276  0.02012  0.02947
2046 358276.000  -2408321.5605   4698524.5931   3566416.7412   6   9   0.1691   0.2686   0.1787  -0.1913   0.1996  -0.1478   0.00    0.0    1.07714    2.24558   -2.10638   0.02075  0.02174  0.01814 -0.00920  0.00976 -0.00622    0.43873    0.90573  218.38751   0.02406  0.02396  0.40262  0.00287  0.02221  0.03091
2046 358277.000  -2408320.4946   4698526.8706   3566414.5767   6   9   0.1687   0.2679   0.1782  -0.1909   0.1991  -0.1475   0.00    0.0    1.13089    2.37636   -2.25491   0.02060  0.02164  0.01808 -0.00921  0.00968 -0.00632    0.45708    0.68229  219.28705   0.02406  0.02396  0.40289  0.00295  0.02369  0.03167
2046 358278.000  -2408319.2648   4698529.3717   3566412.2374   6   9   0.1683   0.2673   0.1776  -0.1905   0.1986  -0.1471   0.00    0.0    1.35001    2.65234   -2.44847   0.02066  0.02155  0.01817 -0.00925  0.00955 -0.00594    0.03562    1.22810  220.29361   0.02404  0.02396  0.40336  0.00295  0.02433  0.03121
2046 358279.000  -2408317.8604   4698532.0432   3566409.7343   6  10   0.1678   0.2667   0.1770  -0.1901   0.1981  -0.1468   0.00    0.0    1.47244    2.73563   -2.45815   0.02066  0.02148  0.01820 -0.00925  0.00941 -0.00574    0.05300    0.79356  221.89175   0.02400  0.02395  0.40300  0.00289  0.02421  0.02959
2046 358280.000  -2408316.2986   4698534.8039   3566407.2086   6  11   0.1671   0.2660   0.1764  -0.1895   0.1976  -0.1464   0.00    0.0    1.65033    2.83987   -2.47442   0.02063  0.02142  0.01827 -0.00926  0.00920 -0.00552   -0.00570    0.63371  223.75004   0.02396  0.02393  0.40174  0.00278  0.02399  0.02704
2046 358281.000  -2408314.6326   4698537.6009   3566404.6978   6  11   0.1658   0.2650   0.1756  -0.1886   0.1968  -0.1456   0.00    0.0    1.64888    2.84258   -2.51620   0.02052  0.02131  0.01812 -0.00911  0.00924 -0.00559    0.13549    0.53159  223.84777   0.02391  0.02391  0.40008  0.00266  0.02391  0.02385
2046 358282.000  -2408313.0179   4698540.4357   3566402.1264   6  12   0.1650   0.2642   0.1749  -0.1879   0.1961  -0.1450   0.00    0.0    1.56733    2.91436   -2.57021   0.02048  0.02120  0.01797 -0.00892  0.00930 -0.00563    0.49291    0.24844  222.44748   0.02387  0.02388  0.39876  0.00257  0.02342  0.02057
2046 358283.000  -2408311.4861   4698543.3282   3566399.4884   6  11   0.1648   0.2637   0.1743  -0.1876   0.1956  -0.1448   0.00    0.0    1.53791    2.98697   -2.71215   0.02054  0.02111  0.01787 -0.00874  0.00932 -0.00557    0.83578    0.36309  220.91780   0.02383  0.02384  0.39790  0.00251  0.02244  0.01750
2046 358284.000  -2408309.9676   4698546.3937   3566396.7038   6  11   0.1642   0.2629   0.1736  -0.1870   0.1950  -0.1443   0.00    0.0    1.55708    3.13950   -2.85675   0.02061  0.02103  0.01782 -0.00860  0.00931 -0.00536    0.77019    0.55398  220.31998   0.02378  0.02379  0.39657  0.00244  0.02056  0.01359
2046 358285.000  -2408308.4264   4698549.5582   3566393.8096   6  12   0.1635   0.2622   0.1730  -0.1864   0.1944  -0.1438   0.00    0.0    1.57730    3.17625   -2.92114   0.02047  0.02094  0.01771 -0.00852  0.00927 -0.00544    0.56185    0.71638  219.98422   0.02374  0.02374  0.39506  0.00238  0.01810  0.00807
