% program   : GINav v0.1.0
% obs start : 2019/03/28 03:28:10.0
% obs end   : 2019/03/28 03:59:50.0
% mode      : PPP/INS LC
% system    : GPS GLONASS 
% nfreqs    : 2
% elev mask : 10.0 deg
% ephemeris : precise
% ionos opt : iono-free LC
% trops opt : ZTD estimation
%
%  GPST              x-ecef(m)      y-ecef(m)      z-ecef(m)   Q  ns   sdx(m)   sdy(m)   sdz(m)  sdxy(m)  sdyz(m)  sdzx(m) age(s)  ratio    vx(m/s)    vy(m/s)    vz(m/s)      sdvx     sdvy     sdvz    sdvxy    sdvyz    sdvzx pitch(deg)  roll(deg)   yaw(deg)       sdp      sdr      sdy     sdpr     sdry     sdyp
2046 358097.000  -2408691.0401   4698107.8975   3566697.8613   3   0  25.9956  29.0088  29.8845 -10.7365   1.3054  -0.9347   0.00    0.0    1.46913    0.91224   -0.16498  10.00000 10.00000 10.00000  0.00000 -0.00000 -0.00000    0.00000    0.00000  262.85651   0.30000  0.30000  0.50000  0.00000  0.00000  0.00000
2046 358098.000  -2408689.3907   4698108.9778   3566697.5253   6  13   0.5215   0.8074   0.6823  -0.5141   0.6010  -0.4303   0.00    0.0    1.60382    0.98240   -0.27821   9.32056  9.44306  9.48496 -1.26424  0.17025 -0.12204   -0.19197    0.03523  259.42559   0.30002  0.30002  0.50001  0.00000 -0.00017 -0.00310
2046 358099.000  -2408687.7164   4698110.1457   3566697.1008   6  13   0.4934   0.7652   0.6464  -0.4878   0.5701  -0.4082   0.00    0.0    1.67776    1.11964   -0.39309   0.71419  1.10272  0.93388 -0.70058  0.81886 -0.58627   -0.69357   -2.07704  259.18825   0.30004  0.30004  0.50003 -0.00002  0.00028 -0.00440
2046 358100.000  -2408685.8474   4698111.3264   3566696.7416   6  13   0.4349   0.6764   0.5707  -0.4321   0.5052  -0.3617   0.00    0.0    1.96295    1.26975   -0.37818   0.35684  0.54679  0.46392 -0.34553  0.40403 -0.28931    0.36438    1.73071  259.95859   0.29968  0.29953  0.50005 -0.00014  0.00409 -0.00618
2046 358101.000  -2408683.7787   4698112.6513   3566696.3962   6  13   0.3868   0.6018   0.5076  -0.3845   0.4497  -0.3220   0.00    0.0    2.12379    1.22786   -0.17983   0.23839  0.34855  0.29997 -0.21224  0.24754 -0.17736    0.49132    1.16274  262.80660   0.29774  0.29682  0.50007 -0.00036  0.00851 -0.01052
2046 358102.000  -2408681.6108   4698113.9345   3566696.1968   6  13   0.3509   0.5435   0.4590  -0.3462   0.4048  -0.2898   0.00    0.0    2.24627    1.12572    0.01590   0.19499  0.25982  0.23101 -0.14352  0.16527 -0.11861    0.43965    0.78793  267.97872   0.29206  0.28921  0.50008 -0.00081  0.01745 -0.01562
2046 358103.000  -2408679.3024   4698115.1537   3566696.1953   6  13   0.3257   0.4989   0.4229  -0.3152   0.3680  -0.2635   0.00    0.0    2.39611    1.04363    0.19267   0.17860  0.21820  0.20177 -0.10486  0.11555 -0.08342    0.36452    0.82308  272.69834   0.28081  0.27514  0.50007 -0.00155  0.02940 -0.02056
2046 358104.000  -2408676.8060   4698116.3436   3566696.3660   6  13   0.3078   0.4652   0.3965  -0.2910   0.3385  -0.2425   0.00    0.0    2.59032    1.04494    0.36710   0.16723  0.19740  0.18712 -0.08759  0.08967 -0.06571    0.02102    1.15828  276.79558   0.26491  0.25729  0.50004 -0.00249  0.04056 -0.02508
2046 358105.000  -2408674.1367   4698117.5299   3566696.6617   6  13   0.2938   0.4401   0.3769  -0.2732   0.3165  -0.2269   0.00    0.0    2.72040    1.02089    0.45652   0.15429  0.18517  0.17585 -0.08484  0.08525 -0.06279   -0.17283    1.15577  279.65889   0.24827  0.24075  0.50002 -0.00338  0.04833 -0.02855
2046 358106.000  -2408671.2921   4698118.6941   3566697.0939   6  13   0.2820   0.4216   0.3618  -0.2614   0.3020  -0.2165   0.00    0.0    2.91866    1.02239    0.48370   0.14091  0.17656  0.16525 -0.08794  0.09173 -0.06728    0.02496    1.31847  282.11119   0.23445  0.22839  0.50002 -0.00406  0.05283 -0.03098
2046 358107.000  -2408668.3190   4698119.8701   3566697.6215   6  13   0.2717   0.4081   0.3498  -0.2538   0.2934  -0.2104   0.00    0.0    2.97565    1.01558    0.60092   0.12863  0.16944  0.15516 -0.09105  0.09892 -0.07200    0.00116    1.15875  283.62414   0.22447  0.22016  0.50006 -0.00448  0.05470 -0.03271
2046 358108.000  -2408665.3149   4698121.0286   3566698.2157   6  13   0.2625   0.3976   0.3398  -0.2489   0.2883  -0.2067   0.00    0.0    2.97637    1.06537    0.61364   0.11767  0.16202  0.14540 -0.09203  0.10293 -0.07454    0.16725    1.37440  283.87955   0.21767  0.21485  0.50011 -0.00460  0.05471 -0.03364
2046 358109.000  -2408662.3184   4698122.2128   3566698.8169   6  13   0.2541   0.3884   0.3307  -0.2448   0.2844  -0.2039   0.00    0.0    2.99021    1.10312    0.63067   0.10772  0.15360  0.13558 -0.09057  0.10317 -0.07447    0.00450    1.22908  284.25793   0.21302  0.21134  0.50015 -0.00440  0.05329 -0.03451
2046 358110.000  -2408659.2975   4698123.3512   3566699.4538   6  12   0.2464   0.3800   0.3224  -0.2410   0.2808  -0.2013   0.00    0.0    3.03461    1.03419    0.67287   0.09859  0.14439  0.12583 -0.08717  0.10049 -0.07230   -0.14767    1.39607  285.23617   0.20970  0.20891  0.50015 -0.00396  0.05116 -0.03576
2046 358111.000  -2408656.2723   4698124.5042   3566700.1068   6  13   0.2387   0.3708   0.3135  -0.2363   0.2760  -0.1978   0.00    0.0    3.05923    1.12097    0.59241   0.09017  0.13450  0.11617 -0.08238  0.09577 -0.06872   -0.10322    1.26693  284.38074   0.20713  0.20706  0.50012 -0.00301  0.04854 -0.03774
2046 358112.000  -2408653.1939   4698125.7084   3566700.7265   6  13   0.2309   0.3609   0.3043  -0.2309   0.2702  -0.1935   0.00    0.0    3.10242    1.15863    0.65004   0.08237  0.12451  0.10679 -0.07705  0.08999 -0.06445   -0.20618    1.28676  283.75170   0.20501  0.20554  0.50002 -0.00085  0.04564 -0.04074
2046 358113.000  -2408650.0849   4698126.9089   3566701.3253   6  11   0.2236   0.3512   0.2955  -0.2254   0.2640  -0.1891   0.00    0.0    3.11792    1.20299    0.57913   0.07535  0.11499  0.09813 -0.07162  0.08397 -0.06002   -0.11622    1.37870  283.33050   0.20319  0.20425  0.49986  0.00283  0.04265 -0.04430
2046 358114.000  -2408646.9870   4698128.1426   3566701.8830   6  10   0.2169   0.3419   0.2871  -0.2199   0.2580  -0.1847   0.00    0.0    3.10144    1.20077    0.60079   0.06906  0.10613  0.09021 -0.06649  0.07807 -0.05580   -0.00253    1.09911  282.91291   0.20162  0.20313  0.49963  0.00428  0.03951 -0.04817
2046 358115.000  -2408643.8974   4698129.3469   3566702.4863   6  10   0.2105   0.3328   0.2790  -0.2145   0.2519  -0.1803   0.00    0.0    3.11863    1.13312    0.66586   0.06350  0.09801  0.08305 -0.06166  0.07242 -0.05177   -0.02710    1.26474  284.61567   0.20027  0.20216  0.49937  0.00535  0.03638 -0.05178
2046 358116.000  -2408640.7785   4698130.4983   3566703.1675   6   9   0.2045   0.3240   0.2713  -0.2092   0.2458  -0.1759   0.00    0.0    3.18498    1.11244    0.75088   0.05871  0.09068  0.07676 -0.05712  0.06711 -0.04796   -0.08292    1.20193  285.72104   0.19905  0.20129  0.49916  0.00616  0.03338 -0.05489
2046 358117.000  -2408637.6118   4698131.6580   3566703.8873   6   9   0.1989   0.3156   0.2640  -0.2040   0.2399  -0.1717   0.00    0.0    3.20538    1.13256    0.72255   0.05451  0.08408  0.07119 -0.05288  0.06223 -0.04444   -0.21932    1.72144  285.13983   0.19787  0.20043  0.49899  0.00676  0.03050 -0.05768
2046 358118.000  -2408634.4307   4698132.8499   3566704.5664   6   9   0.1935   0.3075   0.2570  -0.1989   0.2341  -0.1675   0.00    0.0    3.20048    1.15867    0.74090   0.05071  0.07813  0.06618 -0.04904  0.05779 -0.04124   -0.23513    1.60474  284.72096   0.19670  0.19957  0.49882  0.00718  0.02750 -0.06042
2046 358119.000  -2408631.2454   4698134.0299   3566705.2504   6   9   0.1885   0.2998   0.2504  -0.1939   0.2284  -0.1634   0.00    0.0    3.20298    1.13908    0.73257   0.04736  0.07278  0.06170 -0.04555  0.05374 -0.03833   -0.04083    1.62831  285.16166   0.19555  0.19871  0.49865  0.00743  0.02423 -0.06304
2046 358120.000  -2408628.0747   4698135.1910   3566705.9698   6   9   0.1838   0.2923   0.2441  -0.1892   0.2230  -0.1595   0.00    0.0    3.19255    1.10374    0.80840   0.04449  0.06799  0.05773 -0.04241  0.04999 -0.03566   -0.13610    1.44801  285.78198   0.19441  0.19784  0.49852  0.00751  0.02030 -0.06540
2046 358121.000  -2408624.8982   4698136.3417   3566706.6980   6   9   0.1793   0.2853   0.2381  -0.1846   0.2177  -0.1558   0.00    0.0    3.22944    1.11212    0.74417   0.04197  0.06372  0.05421 -0.03948  0.04658 -0.03320   -0.23763    1.50192  285.66469   0.19326  0.19695  0.49840  0.00743  0.01512 -0.06750
2046 358122.000  -2408621.7086   4698137.4981   3566707.4293   6   9   0.1752   0.2786   0.2325  -0.1803   0.2127  -0.1521   0.00    0.0    3.21668    1.11465    0.84678   0.03978  0.05988  0.05106 -0.03686  0.04342 -0.03094   -0.29836    1.45401  285.79138   0.19211  0.19603  0.49832  0.00717  0.00615 -0.06939
2046 358123.000  -2408618.4714   4698138.6788   3566708.1573   6   9   0.1713   0.2723   0.2271  -0.1761   0.2078  -0.1486   0.00    0.0    3.25921    1.16239    0.77787   0.03782  0.05642  0.04826 -0.03442  0.04058 -0.02888   -0.30369    1.45664  285.15654   0.19095  0.19509  0.49825  0.00672 -0.01215 -0.07111
2046 358124.000  -2408615.2275   4698139.9146   3566708.8390   6   9   0.1676   0.2662   0.2221  -0.1721   0.2031  -0.1453   0.00    0.0    3.26401    1.22055    0.75348   0.03602  0.05324  0.04568 -0.03224  0.03800 -0.02704   -0.34372    1.47909  283.56299   0.18986  0.19418  0.49819  0.00606 -0.01818 -0.07283
2046 358125.000  -2408611.9811   4698141.2002   3566709.4596   6   9   0.1641   0.2605   0.2173  -0.1682   0.1987  -0.1421   0.00    0.0    3.26563    1.21717    0.69298   0.03437  0.05034  0.04331 -0.03027  0.03565 -0.02539   -0.37749    1.31269  282.72039   0.18895  0.19338  0.49809  0.00526 -0.02268 -0.07457
2046 358126.000  -2408608.7809   4698142.4744   3566710.0505   6   8   0.1609   0.2551   0.2128  -0.1646   0.1945  -0.1391   0.00    0.0    3.20561    1.18980    0.66363   0.03297  0.04774  0.04123 -0.02845  0.03343 -0.02387   -0.26037    1.41447  282.61338   0.18830  0.19276  0.49796  0.00446 -0.02674 -0.07608
2046 358127.000  -2408605.6063   4698143.7162   3566710.6572   6   8   0.1578   0.2499   0.2085  -0.1612   0.1904  -0.1362   0.00    0.0    3.20650    1.15044    0.77396   0.03184  0.04540  0.03944 -0.02676  0.03129 -0.02236   -0.28918    1.10036  283.89400   0.18790  0.19236  0.49783  0.00383 -0.03043 -0.07713
2046 358128.000  -2408602.4263   4698144.8998   3566711.3258   6   9   0.1549   0.2448   0.2044  -0.1578   0.1863  -0.1333   0.00    0.0    3.20482    1.10510    0.79605   0.03091  0.04331  0.03788 -0.02512  0.02924 -0.02089   -0.40967    1.22167  285.04119   0.18770  0.19211  0.49775  0.00351 -0.03356 -0.07760
2046 358129.000  -2408599.2050   4698146.0724   3566712.0342   6   9   0.1522   0.2399   0.2005  -0.1544   0.1822  -0.1304   0.00    0.0    3.26806    1.10900    0.85150   0.03011  0.04141  0.03650 -0.02357  0.02729 -0.01948   -0.36895    1.37300  285.24690   0.18761  0.19196  0.49773  0.00360 -0.03598 -0.07764
2046 358130.000  -2408595.9566   4698147.2725   3566712.7304   6  10   0.1496   0.2352   0.1967  -0.1511   0.1782  -0.1275   0.00    0.0    3.26153    1.14502    0.81695   0.02938  0.03968  0.03528 -0.02211  0.02545 -0.01818   -0.25973    1.25077  284.95481   0.18757  0.19186  0.49777  0.00409 -0.03783 -0.07743
2046 358131.000  -2408592.7031   4698148.4785   3566713.4299   6  11   0.1471   0.2306   0.1932  -0.1480   0.1743  -0.1247   0.00    0.0    3.26715    1.10958    0.86588   0.02872  0.03810  0.03416 -0.02076  0.02370 -0.01691   -0.42505    1.34849  285.23682   0.18755  0.19178  0.49783  0.00487 -0.03918 -0.07708
2046 358132.000  -2408589.4434   4698149.6796   3566714.1327   6  11   0.1447   0.2262   0.1897  -0.1449   0.1705  -0.1220   0.00    0.0    3.25530    1.10600    0.83139   0.02807  0.03662  0.03314 -0.01951  0.02206 -0.01574   -0.36252    1.36633  285.27404   0.18754  0.19171  0.49791  0.00579 -0.04010 -0.07663
2046 358133.000  -2408586.1823   4698150.8896   3566714.8228   6  11   0.1424   0.2220   0.1865  -0.1419   0.1668  -0.1194   0.00    0.0    3.28599    1.10419    0.79341   0.02745  0.03525  0.03220 -0.01836  0.02052 -0.01466   -0.41044    1.46711  285.06936   0.18752  0.19165  0.49800  0.00677 -0.04068 -0.07615
2046 358134.000  -2408582.9210   4698152.1174   3566715.4984   6  10   0.1402   0.2180   0.1834  -0.1391   0.1633  -0.1168   0.00    0.0    3.26286    1.14931    0.82307   0.02688  0.03399  0.03134 -0.01726  0.01906 -0.01362   -0.48390    1.49385  284.59272   0.18748  0.19158  0.49809  0.00776 -0.04101 -0.07568
2046 358135.000  -2408579.6433   4698153.3685   3566716.1302   6  11   0.1381   0.2141   0.1804  -0.1363   0.1599  -0.1144   0.00    0.0    3.33268    1.21666    0.76589   0.02632  0.03277  0.03053 -0.01627  0.01770 -0.01271   -0.40286    1.32684  283.93518   0.18743  0.19151  0.49820  0.00873 -0.04121 -0.07525
2046 358136.000  -2408576.2792   4698154.6669   3566716.7511   6  10   0.1361   0.2104   0.1776  -0.1337   0.1566  -0.1121   0.00    0.0    3.40116    1.22113    0.75770   0.02580  0.03165  0.02976 -0.01533  0.01639 -0.01182   -0.42576    1.30408  283.61180   0.18735  0.19143  0.49834  0.00970 -0.04129 -0.07498
2046 358137.000  -2408572.8659   4698155.9895   3566717.3599   6  10   0.1342   0.2068   0.1749  -0.1312   0.1536  -0.1100   0.00    0.0    3.43234    1.24315    0.75374   0.02532  0.03062  0.02906 -0.01444  0.01515 -0.01096   -0.52412    1.19957  283.42651   0.18723  0.19134  0.49850  0.01065 -0.04135 -0.07491
2046 358138.000  -2408569.4977   4698157.3139   3566717.9245   6  10   0.1323   0.2034   0.1723  -0.1288   0.1506  -0.1079   0.00    0.0    3.29024    1.25097    0.67042   0.02490  0.02965  0.02849 -0.01354  0.01401 -0.01017   -0.37775    1.07621  282.53345   0.18704  0.19121  0.49866  0.01157 -0.04153 -0.07488
2046 358139.000  -2408566.2643   4698158.6466   3566718.4060   6  10   0.1306   0.2001   0.1698  -0.1265   0.1478  -0.1058   0.00    0.0    3.19653    1.25827    0.56219   0.02465  0.02877  0.02809 -0.01258  0.01276 -0.00943   -0.34996    1.03999  280.81502   0.18672  0.19100  0.49883  0.01244 -0.04190 -0.07458
2046 358140.000  -2408563.0944   4698160.0179   3566718.8043   6  10   0.1289   0.1970   0.1675  -0.1243   0.1450  -0.1039   0.00    0.0    3.13940    1.29354    0.51337   0.02463  0.02807  0.02789 -0.01145  0.01127 -0.00851   -0.21801    0.69665  279.91964   0.18616  0.19063  0.49895  0.01325 -0.04239 -0.07372
2046 358141.000  -2408559.9285   4698161.4012   3566719.1915   6  10   0.1274   0.1940   0.1654  -0.1221   0.1424  -0.1021   0.00    0.0    3.24952    1.30033    0.53415   0.02468  0.02750  0.02766 -0.01034  0.00959 -0.00717   -0.23579    0.91959  280.08173   0.18519  0.18997  0.49903  0.01398 -0.04277 -0.07221
2046 358142.000  -2408556.6553   4698162.7633   3566719.6703   6  11   0.1260   0.1910   0.1632  -0.1199   0.1398  -0.1002   0.00    0.0    3.33933    1.23566    0.72419   0.02432  0.02699  0.02720 -0.00931  0.00828 -0.00570   -0.43519    0.94519  283.14972   0.18371  0.18888  0.49914  0.01462 -0.04298 -0.07069
2046 358143.000  -2408553.3266   4698163.9901   3566720.3366   6  11   0.1244   0.1882   0.1611  -0.1179   0.1373  -0.0984   0.00    0.0    3.30414    1.07717    0.86823   0.02335  0.02610  0.02622 -0.00891  0.00830 -0.00511   -0.46176    1.09707  286.81600   0.18188  0.18746  0.49932  0.01513 -0.04256 -0.07035
2046 358144.000  -2408550.0986   4698165.0577   3566721.1395   6  11   0.1226   0.1854   0.1588  -0.1159   0.1350  -0.0966   0.00    0.0    3.23850    0.94780    0.94464   0.02218  0.02502  0.02489 -0.00917  0.00876 -0.00518   -0.18618    1.10815  289.87370   0.18014  0.18604  0.49939  0.01544 -0.04060 -0.07145
2046 358145.000  -2408546.8376   4698166.1137   3566722.0062   6  11   0.1207   0.1826   0.1563  -0.1142   0.1330  -0.0951   0.00    0.0    3.26161    1.05311    1.03239   0.02138  0.02418  0.02371 -0.00925  0.00839 -0.00544   -0.28333    1.24267  289.50741   0.17891  0.18498  0.49926  0.01558 -0.03769 -0.07329
2046 358146.000  -2408543.5681   4698167.1927   3566722.8417   6  11   0.1187   0.1799   0.1538  -0.1126   0.1310  -0.0936   0.00    0.0    3.26222    1.05953    0.88144   0.02087  0.02347  0.02301 -0.00913  0.00752 -0.00526   -0.24689    1.06368  288.49226   0.17828  0.18437  0.49897  0.01560 -0.03448 -0.07476
2046 358147.000  -2408540.3026   4698168.3439   3566723.6226   6  13   0.1169   0.1772   0.1513  -0.1109   0.1290  -0.0922   0.00    0.0    3.25887    1.10509    0.84064   0.02070  0.02296  0.02259 -0.00865  0.00628 -0.00467   -0.13285    1.02215  287.24901   0.17804  0.18410  0.49867  0.01549 -0.03154 -0.07528
2046 358148.000  -2408537.0339   4698169.5278   3566724.3545   6  12   0.1153   0.1747   0.1490  -0.1094   0.1270  -0.0908   0.00    0.0    3.26924    1.13279    0.79052   0.02054  0.02247  0.02225 -0.00810  0.00497 -0.00400    0.01925    1.05087  286.42896   0.17793  0.18397  0.49846  0.01527 -0.02914 -0.07492
2046 358149.000  -2408533.7817   4698170.7373   3566725.0576   6  12   0.1139   0.1722   0.1469  -0.1078   0.1249  -0.0894   0.00    0.0    3.21159    1.19997    0.67211   0.02027  0.02199  0.02191 -0.00748  0.00377 -0.00309   -0.25521    0.84147  285.93953   0.17773  0.18380  0.49839  0.01498 -0.02732 -0.07401
2046 358150.000  -2408530.5813   4698171.9382   3566725.7308   6  13   0.1126   0.1698   0.1448  -0.1062   0.1229  -0.0881   0.00    0.0    3.17019    1.15486    0.75099   0.01999  0.02149  0.02149 -0.00707  0.00247 -0.00247   -0.08905    1.32443  285.47092   0.17734  0.18351  0.49844  0.01465 -0.02619 -0.07291
2046 358151.000  -2408527.3628   4698173.1706   3566726.3931   6  13   0.1112   0.1674   0.1428  -0.1045   0.1210  -0.0867   0.00    0.0    3.26363    1.18847    0.66067   0.01954  0.02088  0.02109 -0.00653  0.00160 -0.00172   -0.23461    1.37540  285.09393   0.17678  0.18307  0.49859  0.01432 -0.02553 -0.07198
2046 358152.000  -2408524.0573   4698174.4370   3566727.0521   6  13   0.1099   0.1651   0.1409  -0.1029   0.1191  -0.0854   0.00    0.0    3.33163    1.25651    0.70560   0.01909  0.02030  0.02068 -0.00615 -0.00068 -0.00082   -0.21756    1.62554  284.59471   0.17612  0.18254  0.49878  0.01403 -0.02462 -0.07147
2046 358153.000  -2408520.8008   4698175.7175   3566727.6580   6  13   0.1085   0.1628   0.1390  -0.1014   0.1173  -0.0841   0.00    0.0    3.16780    1.22049    0.63710   0.01857  0.01982  0.02009 -0.00576 -0.00044  0.00058   -0.35843    1.36815  284.08442   0.17546  0.18199  0.49899  0.01384 -0.02383 -0.07150
2046 358154.000  -2408517.6093   4698176.9506   3566728.2638   6  13   0.1071   0.1605   0.1372  -0.0999   0.1156  -0.0829   0.00    0.0    3.20620    1.19684    0.64318   0.01815  0.01930  0.01964 -0.00550 -0.00139  0.00120   -0.49650    1.33018  284.57546   0.17490  0.18151  0.49919  0.01376 -0.02359 -0.07185
2046 358155.000  -2408514.4195   4698178.1804   3566728.8737   6  13   0.1057   0.1583   0.1354  -0.0984   0.1140  -0.0817   0.00    0.0    3.18727    1.19991    0.67217   0.01781  0.01886  0.01925 -0.00517 -0.00215  0.00162   -0.52433    1.23154  284.37832   0.17449  0.18113  0.49938  0.01380 -0.02373 -0.07234
2046 358156.000  -2408511.2334   4698179.4368   3566729.4469   6  13   0.1043   0.1562   0.1336  -0.0970   0.1125  -0.0806   0.00    0.0    3.20034    1.25558    0.58372   0.01760  0.01843  0.01893 -0.00472 -0.00265  0.00212   -0.55106    1.09419  283.19231   0.17423  0.18087  0.49952  0.01391 -0.02423 -0.07291
2046 358157.000  -2408508.0230   4698180.7370   3566729.9693   6  12   0.1031   0.1542   0.1320  -0.0956   0.1110  -0.0795   0.00    0.0    3.30301    1.33897    0.55705   0.01753  0.01806  0.01876 -0.00432 -0.00349  0.00291   -0.71517    0.72316  282.22248   0.17413  0.18075  0.49958  0.01408 -0.02510 -0.07347
2046 358158.000  -2408504.6595   4698182.1350   3566730.4427   6  13   0.1019   0.1522   0.1304  -0.0943   0.1096  -0.0784   0.00    0.0    3.41896    1.44885    0.37155   0.01798  0.01781  0.01884 -0.00365 -0.00461  0.00414   -0.66843    0.82766  279.66870   0.17413  0.18074  0.49946  0.01430 -0.02641 -0.07384
2046 358159.000  -2408501.2090   4698183.7277   3566730.7326   6  13   0.1009   0.1502   0.1290  -0.0930   0.1081  -0.0773   0.00    0.0    3.52919    1.72435    0.23012   0.01958  0.01801  0.01967 -0.00173 -0.00688  0.00613   -0.69207    0.81265  275.21435   0.17406  0.18071  0.49881  0.01459 -0.02987 -0.07337
2046 358160.000  -2408497.5838   4698185.6019   3566730.7601   6  13   0.1005   0.1484   0.1279  -0.0917   0.1065  -0.0761   0.00    0.0    3.60590    1.99800   -0.17452   0.02355  0.01906  0.02179  0.00520 -0.01034  0.00867   -0.51194    0.28158  269.40335   0.17335  0.18025  0.49688  0.01511 -0.03823 -0.07010
2046 358161.000  -2408494.0520   4698187.8311   3566730.3087   6  12   0.1015   0.1470   0.1274  -0.0901   0.1045  -0.0746   0.00    0.0    3.38783    2.38802   -0.67305   0.03079  0.02198  0.02673  0.01124 -0.01599  0.01122   -0.11586    0.42514  259.21442   0.17056  0.17823  0.49234  0.01588 -0.05277 -0.05723
2046 358162.000  -2408490.7947   4698190.4174   3566729.2160   6  12   0.1046   0.1461   0.1284  -0.0881   0.1016  -0.0730   0.00    0.0    3.09807    2.66990   -1.26873   0.03993  0.02725  0.03517  0.01744 -0.02392  0.01468    0.24737    0.11289  248.99710   0.16280  0.17199  0.48393  0.01590 -0.07139  0.02719
2046 358163.000  -2408487.8900   4698193.2017   3566727.6350   6  12   0.1092   0.1460   0.1312  -0.0855   0.0972  -0.0710   0.00    0.0    2.75939    2.76429   -1.65725   0.04668  0.03263  0.04392  0.02157 -0.03118  0.01936    0.02325    0.10000  242.17522   0.14756  0.15803  0.47405  0.01180 -0.08823  0.08323
2046 358164.000  -2408485.3778   4698195.9857   3566725.7750   6  12   0.1127   0.1462   0.1346  -0.0832   0.0922  -0.0685   0.00    0.0    2.39957    2.76247   -1.88185   0.04944  0.03546  0.04893  0.02287 -0.03485  0.02344    0.16419    0.10582  236.62899   0.12661  0.13605  0.46784 -0.00911 -0.09658  0.11245
2046 358165.000  -2408483.1888   4698198.7696   3566723.7063   6  12   0.1141   0.1459   0.1365  -0.0816   0.0883  -0.0659   0.00    0.0    2.16336    2.78935   -2.07732   0.04889  0.03552  0.04901  0.02234 -0.03477  0.02500    0.73700   -0.22696  232.73849   0.10495  0.11099  0.46599 -0.01580 -0.09575  0.12575
2046 358166.000  -2408481.2166   4698201.5667   3566721.5082   6  12   0.1137   0.1449   0.1364  -0.0804   0.0861  -0.0639   0.00    0.0    1.92051    2.78518   -2.22303   0.04631  0.03382  0.04613  0.02114 -0.03249  0.02425    0.16388    0.71779  228.69757   0.08611  0.08840  0.46579 -0.01707 -0.08951  0.12831
2046 358167.000  -2408479.5511   4698204.2505   3566719.2019   6  13   0.1122   0.1434   0.1349  -0.0795   0.0853  -0.0627   0.00    0.0    1.58728    2.68392   -2.33921   0.04312  0.03146  0.04246  0.01989 -0.02946  0.02263    0.25806    0.88110  224.71195   0.07100  0.07042  0.46475 -0.01576 -0.08037  0.12489
2046 358168.000  -2408478.1197   4698206.9081   3566716.7653   6  11   0.1105   0.1418   0.1328  -0.0786   0.0851  -0.0621   0.00    0.0    1.35419    2.70442   -2.46976   0.03982  0.02923  0.03864  0.01866 -0.02658  0.02038    0.27745    0.69405  221.44532   0.05932  0.05690  0.46208 -0.01370 -0.07072  0.11875
2046 358169.000  -2408476.7965   4698209.5562   3566714.2781   6  12   0.1085   0.1402   0.1304  -0.0778   0.0852  -0.0619   0.00    0.0    1.26637    2.66983   -2.53460   0.03662  0.02731  0.03497  0.01760 -0.02397  0.01793    0.54535    0.52075  220.41729   0.05019  0.04692  0.45776 -0.01153 -0.06195  0.11128
2046 358170.000  -2408475.5119   4698212.1654   3566711.8209   6  11   0.1064   0.1385   0.1279  -0.0771   0.0853  -0.0618   0.00    0.0    1.29143    2.61763   -2.45139   0.03382  0.02583  0.03166  0.01697 -0.02173  0.01542    0.45888    0.63069  220.43818   0.04299  0.03960  0.45176 -0.00961 -0.05451  0.10310
2046 358171.000  -2408474.1918   4698214.7452   3566709.4220   6  12   0.1043   0.1370   0.1255  -0.0764   0.0854  -0.0619   0.00    0.0    1.39150    2.62619   -2.38100   0.03105  0.02457  0.02880  0.01623 -0.01992  0.01277    0.50772    0.26946  222.19438   0.03730  0.03426  0.44410 -0.00806 -0.04857  0.09457
2046 358172.000  -2408472.7253   4698217.3608   3566707.0728   6  13   0.1021   0.1354   0.1231  -0.0759   0.0853  -0.0620   0.00    0.0    1.51141    2.66027   -2.38209   0.02822  0.02327  0.02635  0.01509 -0.01833  0.01029    0.44767    0.54173  223.91621   0.03278  0.03037  0.43490 -0.00693 -0.04432  0.08588
2046 358173.000  -2408471.1981   4698220.0428   3566704.6655   6  13   0.0999   0.1339   0.1208  -0.0754   0.0853  -0.0622   0.00    0.0    1.46128    2.72479   -2.44784   0.02557  0.02167  0.02420  0.01349 -0.01659  0.00877    0.27216    0.64824  223.04298   0.02930  0.02756  0.42493 -0.00617 -0.04155  0.07758
2046 358174.000  -2408469.7246   4698222.7580   3566702.1891   6  13   0.0977   0.1324   0.1186  -0.0749   0.0852  -0.0622   0.00    0.0    1.41450    2.71676   -2.45426   0.02360  0.02037  0.02238  0.01234 -0.01506  0.00758    0.31089    0.62242  221.85269   0.02670  0.02555  0.41487 -0.00562 -0.03969  0.06998
2046 358175.000  -2408468.3106   4698225.5024   3566699.6284   6  12   0.0957   0.1309   0.1166  -0.0745   0.0850  -0.0622   0.00    0.0    1.34058    2.76978   -2.56456   0.02169  0.01909  0.02089  0.01093 -0.01370  0.00684    0.44858    0.44368  220.63321   0.02480  0.02411  0.40524 -0.00518 -0.03833  0.06321
2046 358176.000  -2408466.9010   4698228.2722   3566697.0392   6  10   0.0940   0.1295   0.1148  -0.0741   0.0849  -0.0621   0.00    0.0    1.36946    2.77330   -2.54917   0.02041  0.01831  0.01971  0.01026 -0.01275  0.00582    0.51814    0.64338  220.67229   0.02346  0.02310  0.39612 -0.00482 -0.03728  0.05720
2046 358177.000  -2408465.4875   4698231.0267   3566694.4669   6  12   0.0925   0.1283   0.1131  -0.0737   0.0847  -0.0620   0.00    0.0    1.35586    2.73747   -2.56125   0.01930  0.01751  0.01865  0.00955 -0.01177  0.00518    0.40201    0.68441  220.53012   0.02252  0.02240  0.38721 -0.00446 -0.03627  0.05170
2046 358178.000  -2408464.0967   4698233.7763   3566691.8915   6  12   0.0909   0.1270   0.1115  -0.0733   0.0844  -0.0618   0.00    0.0    1.33355    2.75302   -2.55826   0.01830  0.01680  0.01779  0.00885 -0.01096  0.00469    0.41590    0.80612  220.07977   0.02190  0.02194  0.37861 -0.00408 -0.03515  0.04669
2046 358179.000  -2408462.6971   4698236.6031   3566689.2258   6  13   0.0894   0.1257   0.1100  -0.0729   0.0841  -0.0615   0.00    0.0    1.38896    2.96351   -2.76354   0.01692  0.01608  0.01729  0.00746 -0.01048  0.00453    0.39573    0.88551  219.39195   0.02152  0.02165  0.37070 -0.00374 -0.03402  0.04225
2046 358180.000  -2408461.2068   4698239.6610   3566686.3217   6  13   0.0879   0.1245   0.1087  -0.0727   0.0837  -0.0613   0.00    0.0    1.50227    3.08717   -2.92533   0.01604  0.01558  0.01693  0.00651 -0.01015  0.00450    0.34676    0.91301  219.14311   0.02133  0.02151  0.36396 -0.00347 -0.03313  0.03846
2046 358181.000  -2408459.6563   4698242.8491   3566683.2859   6  12   0.0865   0.1233   0.1075  -0.0724   0.0833  -0.0609   0.00    0.0    1.55556    3.25785   -3.11296   0.01539  0.01506  0.01664  0.00551 -0.00976  0.00491    0.39396    0.98582  218.80462   0.02128  0.02146  0.35819 -0.00326 -0.03241  0.03519
2046 358182.000  -2408458.0159   4698246.2816   3566680.0064   6  11   0.0853   0.1222   0.1065  -0.0722   0.0829  -0.0605   0.00    0.0    1.66737    3.55635   -3.30830   0.01502  0.01468  0.01665  0.00447 -0.00961  0.00563    0.33664    0.96194  218.76567   0.02132  0.02149  0.35332 -0.00312 -0.03195  0.03236
2046 358183.000  -2408456.3057   4698249.8625   3566676.5888   6  12   0.0843   0.1212   0.1056  -0.0719   0.0824  -0.0601   0.00    0.0    1.68307    3.55258   -3.33367   0.01481  0.01440  0.01624  0.00456 -0.00922  0.00540    0.30154    0.77234  218.71622   0.02142  0.02158  0.34901 -0.00302 -0.03166  0.02974
2046 358184.000  -2408454.6212   4698253.3374   3566673.2829   6  11   0.0835   0.1203   0.1048  -0.0715   0.0820  -0.0597   0.00    0.0    1.68177    3.46622   -3.25005   0.01467  0.01422  0.01579  0.00502 -0.00888  0.00484    0.35465    0.66458  219.14352   0.02155  0.02168  0.34495 -0.00292 -0.03114  0.02715
2046 358185.000  -2408452.9013   4698256.8102   3566670.0026   6  11   0.0828   0.1194   0.1039  -0.0711   0.0816  -0.0594   0.00    0.0    1.72415    3.42657   -3.21334   0.01461  0.01408  0.01551  0.00527 -0.00866  0.00457    0.21435    0.78860  219.66806   0.02170  0.02178  0.34111 -0.00284 -0.03032  0.02447
2046 358186.000  -2408451.1868   4698260.1972   3566666.8274   6  11   0.0823   0.1186   0.1031  -0.0705   0.0813  -0.0591   0.00    0.0    1.73846    3.42411   -3.16001   0.01461  0.01394  0.01528  0.00549 -0.00845  0.00445    0.37171    0.94582  219.83769   0.02185  0.02188  0.33748 -0.00278 -0.02904  0.02170
2046 358187.000  -2408449.4954   4698263.5948   3566663.6308   6  11   0.0818   0.1178   0.1024  -0.0700   0.0809  -0.0588   0.00    0.0    1.66526    3.35242   -3.17235   0.01461  0.01370  0.01498  0.00556 -0.00807  0.00459    0.35879    0.79154  219.31462   0.02199  0.02196  0.33423 -0.00275 -0.02732  0.01886
2046 358188.000  -2408447.8578   4698266.9466   3566660.4590   6  11   0.0813   0.1170   0.1016  -0.0695   0.0805  -0.0584   0.00    0.0    1.61861    3.35793   -3.10842   0.01464  0.01356  0.01483  0.00563 -0.00790  0.00474    0.32302    0.80155  218.98719   0.02211  0.02201  0.33145 -0.00278 -0.02511  0.01605
2046 358189.000  -2408446.2444   4698270.2662   3566657.3088   6  11   0.0808   0.1162   0.1009  -0.0690   0.0801  -0.0580   0.00    0.0    1.59176    3.30597   -3.10108   0.01464  0.01342  0.01471  0.00561 -0.00775  0.00493    0.40913    0.40255  219.29273   0.02221  0.02204  0.32913 -0.00287 -0.02241  0.01336
2046 358190.000  -2408444.6112   4698273.5262   3566654.2548   6  11   0.0804   0.1155   0.1003  -0.0686   0.0797  -0.0576   0.00    0.0    1.66752    3.23973   -3.00673   0.01472  0.01339  0.01467  0.00575 -0.00778  0.00497    0.24956    0.71677  220.02656   0.02227  0.02204  0.32714 -0.00299 -0.01899  0.01088
2046 358191.000  -2408442.9360   4698276.7620   3566651.2479   6  12   0.0800   0.1148   0.0997  -0.0681   0.0793  -0.0572   0.00    0.0    1.71713    3.23061   -2.98513   0.01470  0.01331  0.01465  0.00570 -0.00779  0.00508    0.31704    0.83258  220.66411   0.02230  0.02202  0.32537 -0.00312 -0.01449  0.00867
2046 358192.000  -2408441.2403   4698279.9771   3566648.2933   6  10   0.0797   0.1141   0.0991  -0.0676   0.0789  -0.0569   0.00    0.0    1.71349    3.18750   -2.92005   0.01472  0.01324  0.01461  0.00570 -0.00776  0.00525    0.41702    1.13302  220.81705   0.02230  0.02199  0.32383 -0.00326 -0.00740  0.00692
2046 358193.000  -2408439.5963   4698283.1764   3566645.3204   6  10   0.0794   0.1135   0.0986  -0.0672   0.0785  -0.0565   0.00    0.0    1.60253    3.17576   -2.94725   0.01463  0.01311  0.01458  0.00549 -0.00769  0.00550    0.34386    0.98461  219.82928   0.02226  0.02193  0.32262 -0.00338  0.00988  0.00612
2046 358194.000  -2408437.9779   4698286.3570   3566642.3545   6   9   0.0792   0.1129   0.0982  -0.0668   0.0781  -0.0561   0.00    0.0    1.66025    3.16801   -2.89765   0.01459  0.01306  0.01456  0.00547 -0.00772  0.00552    0.31154    1.02401  220.34399   0.02219  0.02187  0.32176 -0.00347  0.01549  0.00649
2046 358195.000  -2408436.3332   4698289.4889   3566639.4718   6  10   0.0789   0.1123   0.0977  -0.0665   0.0777  -0.0557   0.00    0.0    1.63756    3.00435   -2.80965   0.01462  0.01301  0.01451  0.00545 -0.00769  0.00567    0.54021    1.26770  221.14617   0.02209  0.02179  0.32111 -0.00353  0.01938  0.00771
2046 358196.000  -2408434.6424   4698292.5917   3566636.6449   6  10   0.0786   0.1118   0.0973  -0.0661   0.0772  -0.0553   0.00    0.0    1.72362    3.10110   -2.80765   0.01448  0.01295  0.01448  0.00537 -0.00774  0.00557    0.22815    0.93461  222.00616   0.02198  0.02170  0.32062 -0.00356  0.02242  0.00925
2046 358197.000  -2408432.9319   4698295.7246   3566633.7866   6  11   0.0782   0.1112   0.0968  -0.0658   0.0768  -0.0550   0.00    0.0    1.73606    3.12276   -2.86309   0.01435  0.01286  0.01444  0.00524 -0.00772  0.00556    0.18965    0.88709  221.09094   0.02186  0.02161  0.32036 -0.00355  0.02483  0.01071
2046 358198.000  -2408431.3080   4698298.8596   3566630.8785   6  12   0.0777   0.1107   0.0964  -0.0655   0.0764  -0.0547   0.00    0.0    1.58506    3.09818   -2.93242   0.01423  0.01280  0.01439  0.00517 -0.00770  0.00558    0.50775    0.81983  219.69798   0.02172  0.02150  0.32037 -0.00352  0.02664  0.01210
2046 358199.000  -2408429.7583   4698301.9856   3566627.9502   6  12   0.0773   0.1101   0.0959  -0.0653   0.0761  -0.0544   0.00    0.0    1.56724    3.09730   -2.89864   0.01414  0.01273  0.01431  0.00513 -0.00766  0.00553    0.22036    0.93034  219.34355   0.02157  0.02139  0.32058 -0.00345  0.02792  0.01344
2046 358200.000  -2408428.2179   4698305.0634   3566625.0588   6  11   0.0769   0.1096   0.0955  -0.0650   0.0757  -0.0541   0.00    0.0    1.56511    3.06268   -2.82889   0.01406  0.01267  0.01421  0.00508 -0.00761  0.00549    0.32898    1.53065  219.44051   0.02143  0.02127  0.32089 -0.00335  0.02882  0.01471
2046 358201.000  -2408426.7123   4698308.0998   3566622.1958   6  12   0.0765   0.1090   0.0950  -0.0647   0.0754  -0.0539   0.00    0.0    1.52827    3.07267   -2.87531   0.01397  0.01262  0.01412  0.00510 -0.00756  0.00541    0.25073    1.75961  219.14972   0.02129  0.02116  0.32124 -0.00324  0.02943  0.01591
2046 358202.000  -2408425.2070   4698311.1594   3566619.3041   6  12   0.0761   0.1085   0.0946  -0.0644   0.0750  -0.0536   0.00    0.0    1.54890    3.07872   -2.92230   0.01391  0.01255  0.01402  0.00510 -0.00748  0.00536    0.34712    1.62056  219.25308   0.02116  0.02105  0.32160 -0.00312  0.02974  0.01695
2046 358203.000  -2408423.6785   4698314.2530   3566616.3926   6  12   0.0757   0.1080   0.0941  -0.0642   0.0747  -0.0534   0.00    0.0    1.56211    3.10203   -2.89677   0.01386  0.01248  0.01393  0.00507 -0.00742  0.00534    0.23851    1.56162  219.47777   0.02104  0.02094  0.32195 -0.00301  0.02981  0.01771
2046 358204.000  -2408422.1089   4698317.3568   3566613.4814   6  12   0.0753   0.1075   0.0936  -0.0639   0.0744  -0.0532   0.00    0.0    1.66505    3.10788   -2.91587   0.01382  0.01239  0.01385  0.00500 -0.00734  0.00537    0.07716    1.66485  220.04326   0.02093  0.02084  0.32225 -0.00290  0.02967  0.01818
2046 358205.000  -2408420.5133   4698320.4734   3566610.5644   6  12   0.0750   0.1070   0.0932  -0.0636   0.0741  -0.0530   0.00    0.0    1.61202    3.11796   -2.94212   0.01379  0.01235  0.01378  0.00503 -0.00729  0.00534    0.23718    1.60442  219.88328   0.02084  0.02075  0.32250 -0.00281  0.02939  0.01837
2046 358206.000  -2408418.9613   4698323.6004   3566607.6321   6  12   0.0747   0.1066   0.0928  -0.0634   0.0738  -0.0528   0.00    0.0    1.52861    3.11543   -2.93825   0.01374  0.01232  0.01371  0.00506 -0.00726  0.00528    0.36742    1.41024  218.95032   0.02075  0.02066  0.32266 -0.00273  0.02895  0.01836
2046 358207.000  -2408417.4910   4698326.7206   3566604.6696   6  12   0.0744   0.1061   0.0924  -0.0631   0.0735  -0.0526   0.00    0.0    1.48372    3.12923   -3.00042   0.01372  0.01228  0.01364  0.00511 -0.00721  0.00524    0.32043    1.37698  217.89777   0.02067  0.02058  0.32274 -0.00265  0.02834  0.01830
2046 358208.000  -2408416.0594   4698329.8594   3566601.6293   6  12   0.0741   0.1057   0.0920  -0.0628   0.0732  -0.0524   0.00    0.0    1.44152    3.16859   -3.05176   0.01370  0.01224  0.01358  0.00515 -0.00716  0.00521    0.34390    1.26807  217.53497   0.02060  0.02050  0.32268 -0.00259  0.02750  0.01816
2046 358209.000  -2408414.5961   4698333.0462   3566598.5560   6  12   0.0738   0.1053   0.0916  -0.0626   0.0730  -0.0522   0.00    0.0    1.55099    3.27630   -3.12806   0.01375  0.01215  0.01355  0.00507 -0.00707  0.00538    0.32575    1.18161  218.00403   0.02053  0.02043  0.32250 -0.00255  0.02647  0.01789
2046 358210.000  -2408413.0238   4698336.4026   3566595.3592   6  12   0.0736   0.1049   0.0912  -0.0623   0.0727  -0.0519   0.00    0.0    1.62272    3.40963   -3.23000   0.01385  0.01208  0.01357  0.00504 -0.00701  0.00559    0.46443    1.25300  218.41040   0.02048  0.02037  0.32208 -0.00253  0.02519  0.01720
2046 358211.000  -2408411.3818   4698339.8373   3566592.1163   6  12   0.0733   0.1045   0.0909  -0.0621   0.0725  -0.0517   0.00    0.0    1.72965    3.42113   -3.27459   0.01377  0.01201  0.01357  0.00485 -0.00701  0.00567    0.20860    1.26915  219.08035   0.02044  0.02031  0.32142 -0.00253  0.02368  0.01602
2046 358212.000  -2408409.6913   4698343.2724   3566588.8719   6  12   0.0731   0.1041   0.0905  -0.0620   0.0723  -0.0515   0.00    0.0    1.71231    3.40187   -3.16787   0.01354  0.01199  0.01349  0.00472 -0.00704  0.00545    0.11267    1.05820  219.46169   0.02040  0.02027  0.32066 -0.00254  0.02206  0.01438
2046 358213.000  -2408407.9891   4698346.6433   3566585.7177   6  12   0.0728   0.1037   0.0902  -0.0618   0.0720  -0.0513   0.00    0.0    1.74205    3.35466   -3.12472   0.01338  0.01197  0.01343  0.00463 -0.00706  0.00530    0.24634    1.10436  219.99698   0.02037  0.02024  0.32004 -0.00255  0.02056  0.01243
2046 358214.000  -2408406.3373   4698349.9498   3566582.6342   6  12   0.0724   0.1034   0.0899  -0.0616   0.0718  -0.0512   0.00    0.0    1.65489    3.16058   -2.99520   0.01322  0.01196  0.01329  0.00466 -0.00703  0.00505    0.25769    1.10991  219.47686   0.02035  0.02021  0.31971 -0.00254  0.01936  0.01036
2046 358215.000  -2408404.8037   4698353.0832   3566579.6728   6  12   0.0721   0.1030   0.0895  -0.0615   0.0716  -0.0511   0.00    0.0    1.53071    3.06192   -2.91347   0.01320  0.01195  0.01323  0.00468 -0.00700  0.00505    0.34832    0.83651  219.13107   0.02033  0.02019  0.31978 -0.00253  0.01864  0.00876
2046 358216.000  -2408403.3369   4698356.1296   3566576.7849   6  12   0.0717   0.1027   0.0892  -0.0613   0.0713  -0.0510   0.00    0.0    1.45132    3.01356   -2.87834   0.01319  0.01193  0.01321  0.00466 -0.00698  0.00510    0.23300    0.74643  218.67034   0.02031  0.02017  0.32013 -0.00250  0.01846  0.00807
2046 358217.000  -2408401.8620   4698359.1577   3566573.9295   6  11   0.0715   0.1024   0.0889  -0.0611   0.0712  -0.0509   0.00    0.0    1.53281    3.03693   -2.83054   0.01318  0.01191  0.01316  0.00469 -0.00696  0.00504    0.49537    0.59096  219.75350   0.02029  0.02016  0.32059 -0.00247  0.01874  0.00826
2046 358218.000  -2408400.3603   4698362.1801   3566571.1035   6  10   0.0714   0.1022   0.0886  -0.0609   0.0710  -0.0508   0.00    0.0    1.51214    3.02013   -2.83318   0.01318  0.01189  0.01313  0.00471 -0.00693  0.00503    0.25870    0.69876  219.60914   0.02028  0.02016  0.32105 -0.00243  0.01937  0.00897
2046 358219.000  -2408398.8767   4698365.1882   3566568.2762   6  12   0.0713   0.1019   0.0883  -0.0607   0.0709  -0.0507   0.00    0.0    1.49094    3.05607   -2.84471   0.01314  0.01187  0.01310  0.00469 -0.00692  0.00500    0.54414    0.58908  219.30496   0.02027  0.02016  0.32149 -0.00239  0.02020  0.00999
2046 358220.000  -2408397.3299   4698368.3434   3566565.3214   6  12   0.0710   0.1016   0.0880  -0.0606   0.0707  -0.0506   0.00    0.0    1.63282    3.23694   -3.00621   0.01309  0.01181  0.01311  0.00463 -0.00691  0.00497    0.44435    0.70203  219.63642   0.02026  0.02015  0.32195 -0.00237  0.02094  0.01073
2046 358221.000  -2408395.6754   4698371.6787   3566562.2232   6  12   0.0708   0.1013   0.0878  -0.0604   0.0705  -0.0505   0.00    0.0    1.65960    3.35827   -3.21366   0.01316  0.01175  0.01312  0.00465 -0.00684  0.00510    0.52229    0.80005  219.22043   0.02024  0.02014  0.32242 -0.00237  0.02137  0.01075
2046 358222.000  -2408394.0259   4698375.0839   3566559.0223   6  12   0.0705   0.1010   0.0875  -0.0603   0.0704  -0.0503   0.00    0.0    1.68802    3.39677   -3.18179   0.01312  0.01172  0.01311  0.00459 -0.00684  0.00510    0.29556    0.80812  219.14525   0.02023  0.02013  0.32282 -0.00239  0.02141  0.01010
2046 358223.000  -2408392.3906   4698378.4381   3566555.8657   6  11   0.0703   0.1007   0.0872  -0.0601   0.0702  -0.0502   0.00    0.0    1.63426    3.32401   -3.13932   0.01303  0.01170  0.01304  0.00460 -0.00681  0.00497    0.39001    0.61016  219.09481   0.02021  0.02011  0.32316 -0.00241  0.02126  0.00906
2046 358224.000  -2408390.7867   4698381.7012   3566552.8022   6  11   0.0700   0.1004   0.0870  -0.0600   0.0700  -0.0501   0.00    0.0    1.58536    3.21695   -3.03373   0.01294  0.01169  0.01297  0.00458 -0.00680  0.00488    0.34849    0.90368  219.47573   0.02020  0.02010  0.32352 -0.00244  0.02112  0.00796
2046 358225.000  -2408389.1876   4698384.8815   3566549.8334   6  11   0.0699   0.1001   0.0867  -0.0598   0.0699  -0.0500   0.00    0.0    1.60881    3.14403   -2.93073   0.01293  0.01169  0.01293  0.00458 -0.00679  0.00485    0.52873    0.78654  220.13774   0.02018  0.02009  0.32394 -0.00245  0.02117  0.00705
2046 358226.000  -2408387.5806   4698387.9963   3566546.9663   6  10   0.0697   0.0999   0.0864  -0.0597   0.0698  -0.0499   0.00    0.0    1.62991    3.10161   -2.84618   0.01294  0.01168  0.01290  0.00461 -0.00678  0.00483    0.49687    0.90843  220.70648   0.02017  0.02008  0.32442 -0.00247  0.02151  0.00658
2046 358227.000  -2408385.9740   4698391.0802   3566544.1305   6  10   0.0695   0.0996   0.0862  -0.0595   0.0696  -0.0498   0.00    0.0    1.60641    3.07564   -2.84723   0.01292  0.01166  0.01287  0.00460 -0.00675  0.00483    0.39332    1.17017  220.31341   0.02015  0.02007  0.32491 -0.00248  0.02207  0.00657
2046 358228.000  -2408384.3926   4698394.1650   3566541.2792   6  10   0.0694   0.0994   0.0859  -0.0593   0.0695  -0.0498   0.00    0.0    1.62509    2.98206   -2.83530   0.01290  0.01164  0.01283  0.00459 -0.00672  0.00483    0.39475    1.05174  220.21308   0.02013  0.02006  0.32541 -0.00248  0.02272  0.00696
2046 358229.000  -2408382.8150   4698397.2397   3566538.4426   6  12   0.0692   0.0991   0.0857  -0.0592   0.0694  -0.0497   0.00    0.0    1.58097    3.09025   -2.83949   0.01285  0.01161  0.01282  0.00457 -0.00671  0.00481    0.35425    1.63599  220.25058   0.02011  0.02005  0.32591 -0.00248  0.02342  0.00760
2046 358230.000  -2408381.2922   4698400.2574   3566535.6254   6  12   0.0690   0.0989   0.0854  -0.0591   0.0692  -0.0495   0.00    0.0    1.51215    3.00624   -2.77175   0.01283  0.01160  0.01279  0.00454 -0.00669  0.00485    0.17430    1.23988  219.22772   0.02009  0.02003  0.32640 -0.00247  0.02411  0.00861
2046 358231.000  -2408379.8849   4698403.2535   3566532.7878   6  12   0.0687   0.0986   0.0852  -0.0590   0.0690  -0.0494   0.00    0.0    1.46295    3.02608   -2.77325   0.01277  0.01157  0.01276  0.00450 -0.00667  0.00481    0.44842   -0.19045  218.38782   0.02007  0.02001  0.32690 -0.00244  0.02466  0.01012
2046 358232.000  -2408378.4193   4698406.2904   3566529.9392   6  12   0.0684   0.0983   0.0849  -0.0588   0.0689  -0.0493   0.00    0.0    1.53717    3.02939   -2.85603   0.01272  0.01152  0.01272  0.00447 -0.00662  0.00474    0.39909    0.09270  219.76678   0.02004  0.01999  0.32742 -0.00241  0.02506  0.01151
2046 358233.000  -2408376.8467   4698409.3359   3566527.1226   6  12   0.0682   0.0980   0.0846  -0.0587   0.0687  -0.0492   0.00    0.0    1.64666    3.08199   -2.77288   0.01270  0.01150  0.01271  0.00443 -0.00663  0.00472    0.32953   -0.06248  220.99876   0.02002  0.01998  0.32796 -0.00238  0.02540  0.01244
2046 358234.000  -2408375.2729   4698412.3623   3566524.3319   6  12   0.0679   0.0977   0.0844  -0.0586   0.0686  -0.0491   0.00    0.0    1.52137    3.01353   -2.76207   0.01267  0.01148  0.01267  0.00443 -0.00659  0.00471    0.06661    0.16984  220.24360   0.02000  0.01996  0.32851 -0.00236  0.02571  0.01309
2046 358235.000  -2408373.8551   4698415.2390   3566521.6392   6  12   0.0677   0.0975   0.0841  -0.0584   0.0684  -0.0490   0.00    0.0    1.33020    2.81299   -2.63673   0.01266  0.01148  0.01267  0.00438 -0.00660  0.00482    0.45793   -0.18274  218.96455   0.01998  0.01995  0.32905 -0.00232  0.02608  0.01399
2046 358236.000  -2408372.4944   4698418.0462   3566518.9623   6  12   0.0675   0.0972   0.0839  -0.0583   0.0682  -0.0489   0.00    0.0    1.43676    2.65294   -2.70776   0.01260  0.01143  0.01259  0.00435 -0.00652  0.00474    0.33739    0.51731  218.79729   0.01996  0.01993  0.32958 -0.00227  0.02644  0.01505
2046 358237.000  -2408371.1226   4698420.8704   3566516.2676   6  11   0.0673   0.0970   0.0837  -0.0582   0.0681  -0.0488   0.00    0.0    1.40628    2.90666   -2.64292   0.01258  0.01142  0.01257  0.00438 -0.00651  0.00466    0.18153    0.67347  218.63572   0.01994  0.01992  0.33010 -0.00221  0.02677  0.01611
2046 358238.000  -2408369.7756   4698423.7399   3566513.5146   6  11   0.0672   0.0967   0.0834  -0.0580   0.0680  -0.0487   0.00    0.0    1.35960    2.91373   -2.74696   0.01256  0.01139  0.01254  0.00442 -0.00648  0.00462    0.32648    0.74069  217.77065   0.01992  0.01990  0.33064 -0.00215  0.02695  0.01699
2046 358239.000  -2408368.4410   4698426.6605   3566510.7016   6  11   0.0671   0.0966   0.0832  -0.0579   0.0679  -0.0486   0.00    0.0    1.35831    2.92455   -2.82426   0.01259  0.01137  0.01251  0.00448 -0.00643  0.00462    0.34348    0.77611  217.57647   0.01990  0.01988  0.33117 -0.00209  0.02690  0.01766
2046 358240.000  -2408367.0781   4698429.6046   3566507.8580   6  10   0.0671   0.0964   0.0831  -0.0577   0.0678  -0.0485   0.00    0.0    1.40942    2.95725   -2.90532   0.01264  0.01133  0.01250  0.00450 -0.00638  0.00468    0.43141    1.09909  217.89417   0.01989  0.01986  0.33166 -0.00206  0.02664  0.01803
2046 358241.000  -2408365.6914   4698432.5596   3566505.0296   6   9   0.0671   0.0962   0.0829  -0.0575   0.0677  -0.0485   0.00    0.0    1.37321    2.89439   -2.74572   0.01256  0.01133  0.01247  0.00443 -0.00639  0.00462    0.28053    0.91160  218.48158   0.01987  0.01984  0.33209 -0.00205  0.02625  0.01811
2046 358242.000  -2408364.3512   4698435.2964   3566502.4183   6  11   0.0671   0.0961   0.0828  -0.0574   0.0676  -0.0484   0.00    0.0    1.31479    2.67450   -2.48885   0.01253  0.01135  0.01241  0.00443 -0.00639  0.00461    0.02537    0.84938  219.36472   0.01986  0.01983  0.33261 -0.00203  0.02606  0.01825
2046 358243.000  -2408363.0991   4698437.8128   3566500.0147   6  12   0.0669   0.0959   0.0825  -0.0573   0.0675  -0.0483   0.00    0.0    1.22256    2.42840   -2.32534   0.01263  0.01136  0.01239  0.00444 -0.00634  0.00479    0.03210    0.96550  219.24057   0.01985  0.01981  0.33320 -0.00198  0.02630  0.01869
2046 358244.000  -2408361.9490   4698440.1320   3566497.7998   6  11   0.0667   0.0957   0.0823  -0.0572   0.0674  -0.0482   0.00    0.0    1.09673    2.26744   -2.11077   0.01282  0.01137  0.01242  0.00448 -0.00631  0.00509   -0.03931    0.83298  219.10606   0.01984  0.01981  0.33368 -0.00188  0.02704  0.01959
2046 358245.000  -2408360.9381   4698442.2409   3566495.7702   6  10   0.0667   0.0956   0.0822  -0.0571   0.0674  -0.0481   0.00    0.0    0.95393    2.04520   -1.92201   0.01306  0.01138  0.01249  0.00449 -0.00628  0.00551    0.26974    0.92150  217.87762   0.01984  0.01983  0.33376 -0.00167  0.02824  0.02100
2046 358246.000  -2408360.0654   4698444.1446   3566493.9256   6  11   0.0667   0.0955   0.0820  -0.0570   0.0673  -0.0479   0.00    0.0    0.87816    1.87593   -1.79117   0.01313  0.01137  0.01249  0.00449 -0.00625  0.00564    0.39545    0.56205  218.03408   0.01984  0.01985  0.33317 -0.00131  0.02977  0.02285
2046 358247.000  -2408359.1141   4698446.1826   3566491.9643   6  11   0.0665   0.0953   0.0818  -0.0570   0.0672  -0.0479   0.00    0.0    1.05043    2.23441   -2.13723   0.01240  0.01128  0.01228  0.00432 -0.00628  0.00457    0.37470    0.55528  218.37268   0.01985  0.01988  0.33252 -0.00071  0.03127  0.02460
2046 358248.000  -2408357.9616   4698448.5840   3566489.6760   6  11   0.0661   0.0951   0.0816  -0.0569   0.0671  -0.0479   0.00    0.0    1.26254    2.53050   -2.33115   0.01249  0.01122  0.01238  0.00422 -0.00631  0.00478    0.34290    0.62227  219.67816   0.01985  0.01990  0.33268  0.00063  0.03228  0.02568
2046 358249.000  -2408356.6061   4698451.1520   3566487.3112   6  10   0.0659   0.0949   0.0814  -0.0568   0.0670  -0.0480   0.00    0.0    1.43762    2.63734   -2.37506   0.01270  0.01121  0.01260  0.00404 -0.00642  0.00525    0.34942    0.75518  221.74921   0.01985  0.01991  0.33326  0.00087  0.03282  0.02594
2046 358250.000  -2408355.1278   4698453.8182   3566484.8999   6  11   0.0658   0.0947   0.0813  -0.0568   0.0669  -0.0479   0.00    0.0    1.47785    2.71176   -2.41406   0.01288  0.01118  0.01270  0.00401 -0.00642  0.00556    0.15902    0.76635  222.26194   0.01983  0.01991  0.33364  0.00069  0.03289  0.02532
2046 358251.000  -2408353.6732   4698456.4885   3566482.4609   6  10   0.0658   0.0945   0.0811  -0.0567   0.0668  -0.0478   0.00    0.0    1.40253    2.67497   -2.47330   0.01294  0.01114  0.01258  0.00423 -0.00627  0.00547    0.22297    0.80776  221.01212   0.01981  0.01989  0.33349 -0.00052  0.03254  0.02399
2046 358252.000  -2408352.2964   4698459.1633   3566479.9673   6  10   0.0658   0.0943   0.0810  -0.0566   0.0668  -0.0476   0.00    0.0    1.35020    2.67389   -2.56165   0.01301  0.01112  0.01248  0.00445 -0.00615  0.00539    0.27020    0.93174  219.39344   0.01977  0.01986  0.33282 -0.00114  0.03180  0.02212
2046 358253.000  -2408350.9351   4698461.8856   3566477.3953   6  10   0.0657   0.0941   0.0809  -0.0565   0.0667  -0.0475   0.00    0.0    1.39215    2.71393   -2.56853   0.01297  0.01110  0.01247  0.00441 -0.00614  0.00538    0.24066    0.92643  219.64873   0.01974  0.01982  0.33161 -0.00156  0.03065  0.01974
2046 358254.000  -2408349.5731   4698464.6112   3566474.8263   6   9   0.0657   0.0939   0.0807  -0.0563   0.0666  -0.0473   0.00    0.0    1.36970    2.73064   -2.54987   0.01286  0.01109  0.01240  0.00444 -0.00613  0.00518    0.29567    0.86510  219.44079   0.01970  0.01977  0.33009 -0.00189  0.02924  0.01689
2046 358255.000  -2408348.2397   4698467.3496   3566472.2458   6   9   0.0657   0.0937   0.0806  -0.0562   0.0665  -0.0473   0.00    0.0    1.38777    2.76095   -2.58552   0.01279  0.01108  0.01236  0.00445 -0.00611  0.00508    0.09993    0.63096  218.96852   0.01967  0.01972  0.32847 -0.00213  0.02762  0.01354
2046 358256.000  -2408346.8555   4698470.2158   3566469.5079   6   9   0.0656   0.0935   0.0804  -0.0560   0.0664  -0.0472   0.00    0.0    1.45736    2.96399   -2.73920   0.01300  0.01104  0.01242  0.00451 -0.00605  0.00536    0.23712    0.90625  218.60277   0.01965  0.01967  0.32656 -0.00231  0.02565  0.00893
2046 358257.000  -2408345.4326   4698473.1599   3566466.6860   6   9   0.0656   0.0933   0.0802  -0.0559   0.0663  -0.0471   0.00    0.0    1.46122    2.94290   -2.84165   0.01287  0.01102  0.01232  0.00455 -0.00600  0.00513    0.30172    0.60432  218.91440   0.01963  0.01962  0.32444 -0.00245  0.02335 -0.00485
2046 358258.000  -2408343.9590   4698476.1498   3566463.8411   6   9   0.0654   0.0931   0.0801  -0.0558   0.0662  -0.0470   0.00    0.0    1.48630    3.02392   -2.84216   0.01272  0.01100  0.01228  0.00446 -0.00601  0.00499    0.29575    0.51182  219.30305   0.01961  0.01958  0.32236 -0.00253  0.02080 -0.01111
2046 358259.000  -2408342.4550   4698479.1606   3566461.0010   6  10   0.0652   0.0929   0.0799  -0.0557   0.0661  -0.0470   0.00    0.0    1.53991    3.00893   -2.82430   0.01250  0.01098  0.01222  0.00433 -0.00604  0.00475    0.23975    0.53895  219.72648   0.01961  0.01955  0.32055 -0.00256  0.01812 -0.01473
2046 358260.000  -2408340.9364   4698482.1413   3566458.2028   6  11   0.0650   0.0927   0.0796  -0.0556   0.0660  -0.0470   0.00    0.0    1.50927    2.98220   -2.73550   0.01229  0.01098  0.01212  0.00429 -0.00604  0.00446    0.34948    0.56522  219.83322   0.01960  0.01953  0.31930 -0.00256  0.01549 -0.01731
2046 358261.000  -2408339.4677   4698485.0886   3566455.4363   6  12   0.0646   0.0925   0.0794  -0.0555   0.0659  -0.0470   0.00    0.0    1.50849    2.95474   -2.73551   0.01218  0.01097  0.01206  0.00426 -0.00602  0.00433    0.22250    0.64320  219.88434   0.01960  0.01950  0.31867 -0.00255  0.01300 -0.01916
2046 358262.000  -2408337.9317   4698488.0203   3566452.7089   6  10   0.0643   0.0923   0.0792  -0.0554   0.0658  -0.0470   0.00    0.0    1.57430    2.88448   -2.72854   0.01214  0.01096  0.01201  0.00425 -0.00600  0.00425    0.20407    0.66803  220.98697   0.01960  0.01949  0.31858 -0.00252  0.01096 -0.02053
2046 358263.000  -2408336.3543   4698490.9495   3566450.0211   6  10   0.0641   0.0921   0.0790  -0.0553   0.0657  -0.0470   0.00    0.0    1.56237    2.91244   -2.69887   0.01214  0.01095  0.01199  0.00428 -0.00599  0.00424    0.53000    0.81571  221.13977   0.01960  0.01948  0.31887 -0.00250  0.00966 -0.02153
2046 358264.000  -2408334.8228   4698493.8705   3566447.3330   6  10   0.0639   0.0919   0.0788  -0.0552   0.0656  -0.0470   0.00    0.0    1.50196    2.89565   -2.70146   0.01214  0.01094  0.01197  0.00428 -0.00596  0.00429    0.42252    0.46705  220.23166   0.01959  0.01947  0.31939 -0.00250  0.00919 -0.02214
2046 358265.000  -2408333.3611   4698496.7793   3566444.6046   6  10   0.0638   0.0917   0.0786  -0.0551   0.0655  -0.0469   0.00    0.0    1.46576    2.91287   -2.72202   0.01213  0.01093  0.01196  0.00426 -0.00595  0.00433    0.34067    0.41172  219.69638   0.01958  0.01946  0.32003 -0.00250  0.00928 -0.02232
2046 358266.000  -2408331.8639   4698499.7713   3566441.7934   6  10   0.0637   0.0916   0.0784  -0.0550   0.0654  -0.0469   0.00    0.0    1.54958    3.03964   -2.85521   0.01208  0.01090  0.01193  0.00426 -0.00592  0.00422    0.44506    0.66448  219.38614   0.01956  0.01945  0.32070 -0.00250  0.00959 -0.02227
2046 358267.000  -2408330.3851   4698502.7700   3566438.9591   6  10   0.0636   0.0914   0.0782  -0.0549   0.0653  -0.0468   0.00    0.0    1.43639    2.87787   -2.73692   0.01213  0.01091  0.01195  0.00423 -0.00592  0.00441    0.14141    0.88961  218.83900   0.01955  0.01944  0.32135 -0.00250  0.01002 -0.02202
2046 358268.000  -2408329.0370   4698505.5616   3566436.2923   6  10   0.0635   0.0912   0.0780  -0.0548   0.0652  -0.0467   0.00    0.0    1.29785    2.68836   -2.53965   0.01235  0.01093  0.01204  0.00419 -0.00592  0.00491    0.19912    1.01467  218.31359   0.01953  0.01942  0.32188 -0.00251  0.01112 -0.02127
2046 358269.000  -2408327.8461   4698508.1188   3566433.8235   6  10   0.0634   0.0911   0.0779  -0.0547   0.0651  -0.0465   0.00    0.0    1.14087    2.45212   -2.34011   0.01272  0.01095  0.01221  0.00413 -0.00594  0.00561    0.26306    0.89373  217.63928   0.01950  0.01942  0.32193 -0.00252  0.01302 -0.01967
2046 358270.000  -2408326.7902   4698510.4962   3566431.5082   6  10   0.0635   0.0910   0.0778  -0.0546   0.0650  -0.0463   0.00    0.0    1.04317    2.44557   -2.39139   0.01251  0.01095  0.01221  0.00399 -0.00601  0.00546    0.37353    0.73200  216.82157   0.01947  0.01941  0.32114 -0.00252  0.01547 -0.01697
2046 358271.000  -2408325.6688   4698513.0499   3566429.0211   6  10   0.0634   0.0908   0.0777  -0.0545   0.0649  -0.0462   0.00    0.0    1.16686    2.58023   -2.54056   0.01215  0.01090  0.01194  0.00413 -0.00590  0.00470    0.20320    0.88971  216.88442   0.01944  0.01941  0.32018 -0.00248  0.01761 -0.01353
2046 358272.000  -2408324.5152   4698515.6280   3566426.5092   6  10   0.0633   0.0907   0.0775  -0.0544   0.0648  -0.0461   0.00    0.0    1.12965    2.49612   -2.40690   0.01220  0.01089  0.01190  0.00417 -0.00584  0.00475    0.02390    0.93451  217.02613   0.01943  0.01942  0.31938 -0.00242  0.01940 -0.00916
2046 358273.000  -2408323.4835   4698518.0266   3566424.1355   6  10   0.0632   0.0906   0.0774  -0.0543   0.0647  -0.0460   0.00    0.0    0.99651    2.39185   -2.36370   0.01218  0.01090  0.01193  0.00411 -0.00588  0.00481    0.07292    0.65289  216.17686   0.01942  0.01942  0.31847 -0.00233  0.02111  0.00418
2046 358274.000  -2408322.4508   4698520.4244   3566421.7751   6   9   0.0632   0.0905   0.0773  -0.0541   0.0646  -0.0460   0.00    0.0    1.01705    2.32521   -2.29598   0.01217  0.01089  0.01184  0.00421 -0.00581  0.00467    0.40797    0.77422  216.52628   0.01942  0.01944  0.31770 -0.00220  0.02263  0.01063
2046 358275.000  -2408321.4801   4698522.6412   3566419.6242   6   9   0.0633   0.0904   0.0772  -0.0540   0.0646  -0.0459   0.00    0.0    0.92176    2.11511   -2.02958   0.01243  0.01091  0.01186  0.00432 -0.00576  0.00499    0.36317    0.64482  217.27671   0.01942  0.01946  0.31683 -0.00204  0.02423  0.01440
2046 358276.000  -2408320.4897   4698524.8061   3566417.5533   6   9   0.0633   0.0903   0.0770  -0.0539   0.0645  -0.0458   0.00    0.0    1.08299    2.23659   -2.11696   0.01211  0.01088  0.01169  0.00436 -0.00575  0.00433    0.42041    0.97726  217.86122   0.01943  0.01948  0.31601 -0.00183  0.02585  0.01715
2046 358277.000  -2408319.4273   4698527.0682   3566415.4061   6   9   0.0631   0.0902   0.0768  -0.0538   0.0644  -0.0459   0.00    0.0    1.13394    2.36448   -2.26286   0.01195  0.01084  0.01167  0.00426 -0.00576  0.00414    0.43992    0.75372  218.76111   0.01944  0.01951  0.31566 -0.00160  0.02726  0.01904
2046 358278.000  -2408318.1966   4698529.5476   3566413.0855   6   9   0.0629   0.0900   0.0766  -0.0537   0.0643  -0.0460   0.00    0.0    1.35009    2.63807   -2.45491   0.01211  0.01079  0.01187  0.00409 -0.00585  0.00456    0.01960    1.29978  219.77935   0.01944  0.01953  0.31600 -0.00143  0.02825  0.01996
2046 358279.000  -2408316.8052   4698532.2072   3566410.6140   6  10   0.0627   0.0899   0.0765  -0.0536   0.0643  -0.0460   0.00    0.0    1.47114    2.71874   -2.46111   0.01223  0.01079  0.01204  0.00392 -0.00596  0.00490    0.03784    0.86513  221.40116   0.01944  0.01954  0.31664 -0.00141  0.02867  0.01985
2046 358280.000  -2408315.2649   4698534.9540   3566408.1281   6  11   0.0625   0.0897   0.0764  -0.0536   0.0642  -0.0459   0.00    0.0    1.64647    2.82048   -2.47326   0.01234  0.01080  0.01228  0.00365 -0.00616  0.00530   -0.01988    0.70516  223.29140   0.01943  0.01954  0.31699 -0.00154  0.02863  0.01867
2046 358281.000  -2408313.6133   4698537.7532   3566405.6410   6  11   0.0623   0.0894   0.0762  -0.0536   0.0640  -0.0457   0.00    0.0    1.64415    2.82327   -2.51315   0.01236  0.01076  0.01220  0.00372 -0.00605  0.00528    0.12185    0.60319  223.40305   0.01942  0.01953  0.31668 -0.00177  0.02823  0.01630
2046 358282.000  -2408312.0026   4698540.6214   3566403.0807   6  12   0.0621   0.0892   0.0761  -0.0536   0.0639  -0.0455   0.00    0.0    1.56412    2.89846   -2.56871   0.01242  0.01071  0.01207  0.00395 -0.00586  0.00520    0.47893    0.32082  221.99987   0.01940  0.01951  0.31573 -0.00202  0.02749  0.01269
2046 358283.000  -2408310.4663   4698543.5378   3566400.4369   6  11   0.0620   0.0889   0.0760  -0.0535   0.0638  -0.0454   0.00    0.0    1.53589    2.97424   -2.71421   0.01255  0.01067  0.01198  0.00421 -0.00570  0.00519    0.82103    0.43587  220.46142   0.01939  0.01948  0.31438 -0.00224  0.02641  0.00694
2046 358284.000  -2408308.9330   4698546.6097   3566397.6303   6  11   0.0619   0.0887   0.0758  -0.0534   0.0637  -0.0452   0.00    0.0    1.55593    3.12967   -2.86328   0.01272  0.01065  0.01196  0.00441 -0.00560  0.00528    0.75354    0.62697  219.85821   0.01937  0.01944  0.31252 -0.00242  0.02486 -0.00841
2046 358285.000  -2408307.3840   4698549.7723   3566394.7171   6  12   0.0619   0.0884   0.0756  -0.0533   0.0636  -0.0451   0.00    0.0    1.57662    3.16810   -2.93051   0.01259  0.01063  0.01187  0.00444 -0.00556  0.00504    0.54417    0.78914  219.51688   0.01936  0.01939  0.31027 -0.00255  0.02280 -0.01381
