% program   : GINav v0.1.0
% obs start : 2019/03/28 03:28:10.0
% obs end   : 2019/03/28 03:59:50.0
% mode      : PPK/INS LC
% system    : GPS 
% nfreqs    : 1
% elev mask : 10.0 deg
% ephemeris : broadcast
% ionos opt : broadcast model
% trops opt : Saastamoinen model
%
%  GPST              x-ecef(m)      y-ecef(m)      z-ecef(m)   Q  ns   sdx(m)   sdy(m)   sdz(m)  sdxy(m)  sdyz(m)  sdzx(m) age(s)  ratio    vx(m/s)    vy(m/s)    vz(m/s)      sdvx     sdvy     sdvz    sdvxy    sdvyz    sdvzx pitch(deg)  roll(deg)   yaw(deg)       sdp      sdr      sdy     sdpr     sdry     sdyp
2046 358097.000  -2408691.0763   4698108.5138   3566698.3480   3   0  25.9956  29.0088  29.8845 -10.7365   1.3054  -0.9347   0.00    0.0    1.46918    0.91718   -0.16143  10.00000 10.00000 10.00000  0.00000  0.00000  0.00000    0.00000    0.00000  262.88142   0.30000  0.30000  0.50000  0.00000  0.00000  0.00000
2046 358098.000  -2408689.3196   4698109.4420   3566698.0134   1   8   0.0077   0.0117   0.0103  -0.0074   0.0082  -0.0059   0.00    0.0    1.61549    0.97202   -0.27478   9.32036  9.44271  9.48472 -1.26341  0.15932 -0.11422   -0.19198    0.03523  259.45051   0.30002  0.30002  0.50001  0.00000 -0.00017 -0.00310
2046 358099.000  -2408687.6546   4698110.6274   3566697.5986   1   8   0.0077   0.0117   0.0103  -0.0074   0.0082  -0.0059   0.00    0.0    1.66845    1.13773   -0.38381   0.03604  0.03461  0.03564  0.00860 -0.01192  0.00863   -0.69357   -2.07705  259.21316   0.30004  0.30004  0.50003 -0.00002  0.00028 -0.00440
2046 358100.000  -2408685.7925   4698111.8306   3566697.2330   1   8   0.0075   0.0114   0.0100  -0.0071   0.0079  -0.0057   0.00    0.0    1.97947    1.32449   -0.46593   0.01777  0.02515  0.02328 -0.01508  0.01623 -0.01171    0.18934    1.47644  259.96430   0.21361  0.21089  0.49986 -0.00456  0.04819 -0.04213
2046 358101.000  -2408683.7397   4698113.1908   3566696.8773   1   8   0.0075   0.0113   0.0099  -0.0071   0.0079  -0.0057   0.00    0.0    2.11495    1.34098   -0.28480   0.01186  0.01773  0.01587 -0.01102  0.01231 -0.00886    0.36125    0.88244  262.78611   0.20820  0.20775  0.49908 -0.00197  0.03897 -0.05141
2046 358102.000  -2408681.5902   4698114.5164   3566696.6614   1   8   0.0073   0.0110   0.0096  -0.0069   0.0077  -0.0055   0.00    0.0    2.22120    1.27894   -0.10869   0.00898  0.01313  0.01169 -0.00801  0.00892 -0.00640    0.33382    0.48112  267.98166   0.20547  0.20624  0.49884  0.00403  0.03636 -0.04660
2046 358103.000  -2408679.2861   4698115.7742   3566696.6434   1   8   0.0071   0.0107   0.0094  -0.0067   0.0074  -0.0053   0.00    0.0    2.38120    1.21699    0.06268   0.00817  0.01063  0.00981 -0.00578  0.00613 -0.00447    0.23287    0.69585  272.64273   0.19011  0.19662  0.49636 -0.00611  0.00809  0.03710
2046 358104.000  -2408676.7816   4698116.9886   3566696.8066   1   8   0.0069   0.0103   0.0091  -0.0064   0.0071  -0.0051   0.00    0.0    2.59758    1.22170    0.25364   0.00785  0.00927  0.00913 -0.00404  0.00347 -0.00260   -0.17889    1.39658  276.64849   0.15121  0.16752  0.49495 -0.01292 -0.02934  0.07483
2046 358105.000  -2408674.1024   4698118.1928   3566697.1098   1   9   0.0068   0.0100   0.0089  -0.0061   0.0067  -0.0048   0.00    0.0    2.74491    1.19221    0.37339   0.00702  0.00819  0.00820 -0.00313  0.00144 -0.00069   -0.44818    1.64400  279.52782   0.10863  0.12759  0.49488 -0.01086 -0.01336  0.06859
2046 358106.000  -2408671.2537   4698119.3486   3566697.5503   1   8   0.0067   0.0098   0.0087  -0.0059   0.0064  -0.0046   0.00    0.0    2.94627    1.16436    0.42873   0.00619  0.00716  0.00728 -0.00253  0.00034  0.00129   -0.17363    1.80352  281.97334   0.07923  0.09507  0.49335 -0.00629  0.03709  0.04557
2046 358107.000  -2408668.2810   4698120.5131   3566698.0848   1   8   0.0064   0.0095   0.0085  -0.0057   0.0062  -0.0044   0.00    0.0    3.00038    1.13221    0.56653   0.00530  0.00628  0.00627 -0.00227  0.00039  0.00059   -0.16514    1.60271  283.40058   0.06166  0.07349  0.48915 -0.00517  0.04832 -0.03264
2046 358108.000  -2408665.2798   4698121.6553   3566698.6807   1   8   0.0063   0.0092   0.0083  -0.0055   0.0060  -0.0043   0.00    0.0    2.99601    1.15809    0.59302   0.00480  0.00567  0.00556 -0.00175  0.00030 -0.00084    0.04601    1.78459  283.50598   0.05274  0.06054  0.48202 -0.00474  0.03894 -0.06073
2046 358109.000  -2408662.2835   4698122.8189   3566699.2776   1   8   0.0062   0.0090   0.0081  -0.0054   0.0058  -0.0042   0.00    0.0    3.00467    1.17638    0.61600   0.00437  0.00511  0.00500 -0.00153  0.00065 -0.00116   -0.11696    1.60671  283.70130   0.04886  0.05320  0.46746  0.00345 -0.00606 -0.07589
2046 358110.000  -2408659.2604   4698123.9294   3566699.9068   1   7   0.0068   0.0100   0.0089  -0.0060   0.0064  -0.0046   0.00    0.0    3.04530    1.08598    0.66118   0.00422  0.00501  0.00497 -0.00187  0.00085 -0.00107   -0.24938    1.73990  284.35240   0.04763  0.05010  0.45490  0.00736 -0.03503 -0.08136
2046 358111.000  -2408656.2269   4698125.0465   3566700.5416   1   8   0.0070   0.0103   0.0092  -0.0063   0.0068  -0.0049   0.00    0.0    3.06654    1.15489    0.57851   0.00426  0.00478  0.00473 -0.00158  0.00102 -0.00126   -0.19481    1.59726  283.36430   0.04722  0.04852  0.44245  0.01011 -0.04723 -0.08291
2046 358112.000  -2408653.1434   4698126.2136   3566701.1434   1   8   0.0066   0.0098   0.0088  -0.0060   0.0065  -0.0047   0.00    0.0    3.10700    1.17787    0.63312   0.00399  0.00436  0.00442 -0.00155  0.00084 -0.00095   -0.28993    1.61107  282.62780   0.04717  0.04814  0.43077  0.01182 -0.05338 -0.08182
2046 358113.000  -2408650.0400   4698127.3967   3566701.7382   1   7   0.0068   0.0100   0.0090  -0.0062   0.0066  -0.0048   0.00    0.0    3.11407    1.21576    0.56182   0.00417  0.00434  0.00450 -0.00133 -0.00052 -0.00080   -0.18658    1.70092  282.14850   0.04699  0.04833  0.42357  0.01276 -0.05662 -0.07897
2046 358114.000  -2408646.9448   4698128.6160   3566702.2893   1   6   0.0071   0.0104   0.0093  -0.0064   0.0070  -0.0051   0.00    0.0    3.09289    1.21029    0.58070   0.00420  0.00435  0.00462 -0.00132 -0.00095 -0.00054   -0.04758    1.41620  281.75585   0.04633  0.04843  0.41742  0.01330 -0.05894 -0.07452
2046 358115.000  -2408643.8586   4698129.8002   3566702.8834   1   6   0.0072   0.0106   0.0094  -0.0065   0.0072  -0.0052   0.00    0.0    3.10270    1.13839    0.64027   0.00417  0.00430  0.00462 -0.00130 -0.00104  0.00073   -0.03925    1.59832  283.46866   0.04536  0.04804  0.41543  0.01341 -0.05942 -0.07121
2046 358116.000  -2408640.7380   4698130.9319   3566703.5513   1   6   0.0072   0.0106   0.0094  -0.0066   0.0072  -0.0052   0.00    0.0    3.16500    1.11633    0.71791   0.00418  0.00428  0.00450 -0.00101 -0.00106  0.00076   -0.05748    1.54395  284.69772   0.04456  0.04726  0.41393  0.01321 -0.05731 -0.07094
2046 358117.000  -2408637.5645   4698132.0827   3566704.2462   1   8   0.0072   0.0106   0.0094  -0.0065   0.0072  -0.0052   0.00    0.0    3.18721    1.14274    0.67832   0.00403  0.00420  0.00442 -0.00111 -0.00110  0.00066   -0.15431    2.03474  284.04684   0.04406  0.04646  0.41035  0.01286 -0.05427 -0.07193
2046 358118.000  -2408634.3769   4698133.2678   3566704.8974   1   6   0.0072   0.0105   0.0094  -0.0065   0.0071  -0.0051   0.00    0.0    3.18369    1.17492    0.68604   0.00398  0.00415  0.00438 -0.00111 -0.00112  0.00070   -0.13854    1.89441  283.55631   0.04367  0.04584  0.40857  0.01255 -0.05277 -0.07261
2046 358119.000  -2408631.1882   4698134.4351   3566705.5588   1   7   0.0071   0.0105   0.0093  -0.0064   0.0071  -0.0051   0.00    0.0    3.18379    1.15640    0.67116   0.00395  0.00410  0.00435 -0.00109 -0.00114  0.00072    0.07947    1.91486  284.00473   0.04334  0.04534  0.40775  0.01230 -0.05215 -0.07299
2046 358120.000  -2408628.0148   4698135.5871   3566706.2585   1   7   0.0070   0.0103   0.0092  -0.0063   0.0068  -0.0049   0.00    0.0    3.17250    1.12388    0.74066   0.00394  0.00406  0.00430 -0.00097 -0.00118  0.00085    0.01094    1.73124  284.63301   0.04303  0.04490  0.40694  0.01202 -0.05130 -0.07316
2046 358121.000  -2408624.8309   4698136.7346   3566706.9620   1   7   0.0071   0.0103   0.0092  -0.0063   0.0069  -0.0049   0.00    0.0    3.20979    1.13972    0.66634   0.00391  0.00405  0.00427 -0.00104 -0.00117  0.00076   -0.06062    1.76759  284.47744   0.04278  0.04456  0.40623  0.01175 -0.05045 -0.07316
2046 358122.000  -2408621.6341   4698137.8851   3566707.6684   1   7   0.0069   0.0101   0.0091  -0.0062   0.0067  -0.0048   0.00    0.0    3.19938    1.14804    0.76071   0.00387  0.00402  0.00424 -0.00096 -0.00121  0.00081   -0.09385    1.70819  284.57089   0.04256  0.04429  0.40583  0.01159 -0.05004 -0.07314
2046 358123.000  -2408618.3888   4698139.0699   3566708.3637   1   7   0.0069   0.0100   0.0090  -0.0061   0.0066  -0.0047   0.00    0.0    3.24272    1.20552    0.67988   0.00387  0.00398  0.00423 -0.00103 -0.00127  0.00090   -0.06910    1.68916  283.86306   0.04240  0.04410  0.40556  0.01163 -0.05057 -0.07333
2046 358124.000  -2408615.1299   4698140.2974   3566709.0129   1   7   0.0068   0.0099   0.0089  -0.0060   0.0064  -0.0046   0.00    0.0    3.25010    1.26779    0.64770   0.00392  0.00396  0.00424 -0.00099 -0.00132  0.00098   -0.08179    1.69088  282.27952   0.04217  0.04396  0.40483  0.01187 -0.05250 -0.07308
2046 358125.000  -2408611.8694   4698141.5738   3566709.5980   1   7   0.0068   0.0098   0.0089  -0.0060   0.0063  -0.0045   0.00    0.0    3.25322    1.26851    0.57818   0.00395  0.00396  0.00426 -0.00088 -0.00140  0.00096   -0.08542    1.50516  281.47672   0.04173  0.04380  0.40235  0.01220 -0.05543 -0.07168
2046 358126.000  -2408608.6571   4698142.8438   3566710.1503   1   7   0.0067   0.0097   0.0088  -0.0059   0.0062  -0.0045   0.00    0.0    3.19355    1.24624    0.53797   0.00390  0.00396  0.00428 -0.00081 -0.00150  0.00089    0.06937    1.59040  281.40371   0.04104  0.04349  0.40019  0.01231 -0.05777 -0.06938
2046 358127.000  -2408605.4813   4698144.0850   3566710.7236   1   7   0.0067   0.0096   0.0088  -0.0058   0.0061  -0.0044   0.00    0.0    3.19080    1.21177    0.63876   0.00389  0.00394  0.00426 -0.00079 -0.00145  0.00111    0.07840    1.28815  282.67528   0.04032  0.04297  0.39980  0.01217 -0.05848 -0.06779
2046 358128.000  -2408602.3046   4698145.2736   3566711.3630   1   7   0.0067   0.0096   0.0087  -0.0058   0.0061  -0.0043   0.00    0.0    3.18509    1.17119    0.65329   0.00388  0.00393  0.00420 -0.00069 -0.00138  0.00110   -0.00453    1.41910  283.85902   0.03984  0.04235  0.39864  0.01188 -0.05692 -0.06789
2046 358129.000  -2408599.0810   4698146.4503   3566712.0466   1   7   0.0067   0.0095   0.0087  -0.0057   0.0060  -0.0043   0.00    0.0    3.24993    1.18078    0.70451   0.00384  0.00394  0.00414 -0.00049 -0.00140  0.00085    0.05718    1.56954  283.98591   0.03963  0.04182  0.39456  0.01153 -0.05429 -0.06860
2046 358130.000  -2408595.8257   4698147.6531   3566712.7230   1   7   0.0066   0.0095   0.0087  -0.0057   0.0060  -0.0043   0.00    0.0    3.24675    1.22072    0.66899   0.00373  0.00389  0.00412 -0.00083 -0.00137  0.00090    0.17575    1.44415  283.53620   0.03956  0.04150  0.39087  0.01126 -0.05237 -0.06917
2046 358131.000  -2408592.5672   4698148.8602   3566713.4056   1   7   0.0066   0.0095   0.0086  -0.0057   0.0060  -0.0043   0.00    0.0    3.25657    1.18815    0.71838   0.00373  0.00388  0.00410 -0.00077 -0.00136  0.00088    0.01828    1.54837  283.71817   0.03954  0.04132  0.38844  0.01107 -0.05120 -0.06961
2046 358132.000  -2408589.3041   4698150.0584   3566714.0946   1   7   0.0066   0.0095   0.0086  -0.0057   0.0060  -0.0043   0.00    0.0    3.24583    1.18500    0.68594   0.00370  0.00385  0.00409 -0.00086 -0.00133  0.00093    0.08921    1.57375  283.68489   0.03955  0.04120  0.38697  0.01097 -0.05055 -0.06997
2046 358133.000  -2408586.0400   4698151.2691   3566714.7743   1   7   0.0066   0.0095   0.0086  -0.0057   0.0060  -0.0043   0.00    0.0    3.27754    1.18554    0.64926   0.00370  0.00384  0.00409 -0.00088 -0.00134  0.00097    0.04878    1.67959  283.41511   0.03955  0.04114  0.38640  0.01098 -0.05051 -0.07029
2046 358134.000  -2408582.7753   4698152.4866   3566715.4466   1   7   0.0066   0.0095   0.0086  -0.0057   0.0060  -0.0043   0.00    0.0    3.25493    1.22801    0.68440   0.00371  0.00383  0.00408 -0.00084 -0.00134  0.00096   -0.01815    1.71500  282.91647   0.03953  0.04111  0.38623  0.01109 -0.05106 -0.07048
2046 358135.000  -2408579.4950   4698153.7392   3566716.0830   1   7   0.0066   0.0095   0.0086  -0.0057   0.0060  -0.0043   0.00    0.0    3.32453    1.29680    0.63094   0.00375  0.00383  0.00412 -0.00091 -0.00139  0.00110    0.06592    1.55155  282.26005   0.03947  0.04110  0.38575  0.01131 -0.05229 -0.07041
2046 358136.000  -2408576.1296   4698155.0392   3566716.7117   1   7   0.0066   0.0095   0.0086  -0.0057   0.0060  -0.0043   0.00    0.0    3.39458    1.30198    0.62695   0.00374  0.00384  0.00414 -0.00092 -0.00147  0.00109    0.04315    1.53592  281.93205   0.03938  0.04108  0.38422  0.01165 -0.05396 -0.07045
2046 358137.000  -2408572.7177   4698156.3648   3566717.3334   1   7   0.0066   0.0095   0.0086  -0.0057   0.0059  -0.0043   0.00    0.0    3.42581    1.32288    0.62885   0.00373  0.00384  0.00412 -0.00088 -0.00147  0.00103   -0.05861    1.44241  281.73563   0.03927  0.04104  0.38218  0.01203 -0.05578 -0.07065
2046 358138.000  -2408569.3516   4698157.6906   3566717.9135   1   7   0.0066   0.0094   0.0086  -0.0057   0.0059  -0.0043   0.00    0.0    3.28223    1.32492    0.55404   0.00374  0.00385  0.00413 -0.00069 -0.00148  0.00092    0.08436    1.32348  280.84070   0.03906  0.04094  0.38139  0.01229 -0.05738 -0.07049
2046 358139.000  -2408566.1183   4698159.0239   3566718.4121   1   7   0.0066   0.0094   0.0086  -0.0057   0.0059  -0.0043   0.00    0.0    3.18845    1.32993    0.45143   0.00376  0.00391  0.00423 -0.00038 -0.00169  0.00075    0.10739    1.27643  279.20809   0.03858  0.04073  0.37971  0.01213 -0.05798 -0.06842
2046 358140.000  -2408562.9508   4698160.3882   3566718.8278   1   7   0.0066   0.0094   0.0086  -0.0056   0.0059  -0.0043   0.00    0.0    3.12861    1.36197    0.40664   0.00378  0.00392  0.00427 -0.00042 -0.00172  0.00088    0.22604    0.93546  278.39020   0.03784  0.04037  0.37479  0.01157 -0.05749 -0.06427
2046 358141.000  -2408559.7898   4698161.7663   3566719.2336   1   8   0.0066   0.0094   0.0086  -0.0056   0.0059  -0.0043   0.00    0.0    3.23587    1.36847    0.42973   0.00376  0.00385  0.00416 -0.00070 -0.00152  0.00109    0.18245    1.17425  278.58100   0.03709  0.03986  0.37127  0.01093 -0.05656 -0.06049
2046 358142.000  -2408556.5320   4698163.1179   3566719.7324   1   8   0.0065   0.0092   0.0083  -0.0054   0.0058  -0.0042   0.00    0.0    3.31962    1.29741    0.62555   0.00398  0.00392  0.00403  0.00105 -0.00153  0.00068   -0.05536    1.25251  281.70218   0.03664  0.03928  0.37098  0.01061 -0.05576 -0.06045
2046 358143.000  -2408553.2195   4698164.3273   3566720.4200   1   7   0.0065   0.0093   0.0085  -0.0055   0.0058  -0.0042   0.00    0.0    3.27899    1.12531    0.78139   0.00434  0.00395  0.00401  0.00138 -0.00134  0.00101   -0.12215    1.44347  285.74674   0.03660  0.03877  0.35919  0.01027 -0.05135 -0.06157
2046 358144.000  -2408550.0015   4698165.3804   3566721.2474   1   7   0.0066   0.0094   0.0085  -0.0055   0.0058  -0.0042   0.00    0.0    3.21436    0.98682    0.86994   0.00432  0.00390  0.00402  0.00103 -0.00128  0.00127    0.10641    1.46828  289.00847   0.03642  0.03836  0.33437  0.00890 -0.04261 -0.05810
2046 358145.000  -2408546.7312   4698166.4273   3566722.1412   1   7   0.0067   0.0094   0.0085  -0.0056   0.0059  -0.0042   0.00    0.0    3.25118    1.09195    0.96917   0.00401  0.00392  0.00409  0.00057 -0.00159  0.00086   -0.04666    1.61698  288.25587   0.03592  0.03809  0.31380  0.00726 -0.03424 -0.05182
2046 358146.000  -2408543.4448   4698167.4971   3566723.0039   1   7   0.0066   0.0094   0.0086  -0.0056   0.0059  -0.0042   0.00    0.0    3.26408    1.09868    0.82833   0.00379  0.00386  0.00414 -0.00074 -0.00159  0.00107   -0.05316    1.46324  286.95633   0.03529  0.03773  0.30621  0.00612 -0.02875 -0.04722
2046 358147.000  -2408540.1585   4698168.6220   3566723.8097   1   9   0.0066   0.0094   0.0086  -0.0056   0.0059  -0.0042   0.00    0.0    3.27139    1.14298    0.79602   0.00379  0.00382  0.00411 -0.00073 -0.00147  0.00117    0.03765    1.44577  285.64998   0.03484  0.03729  0.30564  0.00579 -0.02629 -0.04642
2046 358148.000  -2408536.8747   4698169.7805   3566724.5639   1   8   0.0065   0.0092   0.0083  -0.0054   0.0058  -0.0041   0.00    0.0    3.28576    1.16701    0.75216   0.00379  0.00374  0.00399 -0.00049 -0.00130  0.00115    0.18977    1.48511  284.86225   0.03469  0.03695  0.30438  0.00615 -0.02604 -0.04773
2046 358149.000  -2408533.6146   4698170.9675   3566725.2888   1   8   0.0064   0.0089   0.0081  -0.0052   0.0056  -0.0040   0.00    0.0    3.22355    1.22803    0.63992   0.00389  0.00372  0.00392  0.00064 -0.00122  0.00107   -0.07241    1.28010  284.34589   0.03473  0.03683  0.30087  0.00674 -0.02755 -0.04870
2046 358150.000  -2408530.4107   4698172.1350   3566725.9824   1   9   0.0063   0.0088   0.0079  -0.0051   0.0055  -0.0039   0.00    0.0    3.18074    1.17509    0.72412   0.00368  0.00369  0.00389 -0.00025 -0.00127  0.00089    0.11456    1.76870  283.81960   0.03476  0.03686  0.29717  0.00736 -0.03010 -0.04842
2046 358151.000  -2408527.1927   4698173.3287   3566726.6598   1   9   0.0060   0.0084   0.0076  -0.0049   0.0053  -0.0038   0.00    0.0    3.26610    1.20378    0.63398   0.00364  0.00361  0.00384 -0.00051 -0.00125  0.00097   -0.00698    1.82349  283.39635   0.03469  0.03691  0.29453  0.00788 -0.03254 -0.04752
2046 358152.000  -2408523.8903   4698174.5578   3566727.3300   1   9   0.0058   0.0080   0.0072  -0.0046   0.0050  -0.0036   0.00    0.0    3.32852    1.26789    0.67876   0.00359  0.00358  0.00380 -0.00050 -0.00132  0.00093    0.03553    2.07484  282.87404   0.03454  0.03689  0.29307  0.00825 -0.03468 -0.04715
2046 358153.000  -2408520.6387   4698175.8048   3566727.9462   1   9   0.0057   0.0077   0.0070  -0.0044   0.0048  -0.0034   0.00    0.0    3.15959    1.22532    0.61434   0.00356  0.00355  0.00377 -0.00031 -0.00129  0.00083   -0.08086    1.81411  282.35884   0.03429  0.03677  0.29239  0.00846 -0.03653 -0.04663
2046 358154.000  -2408517.4510   4698177.0005   3566728.5609   1   9   0.0056   0.0076   0.0069  -0.0043   0.0047  -0.0033   0.00    0.0    3.19481    1.19839    0.61974   0.00352  0.00351  0.00373 -0.00040 -0.00123  0.00086   -0.20489    1.78079  282.85392   0.03399  0.03652  0.29255  0.00838 -0.03695 -0.04604
2046 358155.000  -2408514.2640   4698178.1950   3566729.1753   1   9   0.0054   0.0074   0.0067  -0.0042   0.0045  -0.0033   0.00    0.0    3.17394    1.19864    0.64761   0.00346  0.00346  0.00366 -0.00042 -0.00115  0.00085   -0.21443    1.68037  282.66672   0.03371  0.03622  0.29264  0.00815 -0.03641 -0.04569
2046 358156.000  -2408511.0749   4698179.4264   3566729.7533   1   9   0.0054   0.0073   0.0067  -0.0042   0.0045  -0.0032   0.00    0.0    3.18742    1.25687    0.55712   0.00342  0.00343  0.00363 -0.00046 -0.00112  0.00077   -0.22675    1.52484  281.47248   0.03349  0.03597  0.29276  0.00790 -0.03598 -0.04536
2046 358157.000  -2408507.8633   4698180.7083   3566730.2793   1   8   0.0058   0.0078   0.0071  -0.0044   0.0047  -0.0034   0.00    0.0    3.28989    1.34390    0.52729   0.00358  0.00356  0.00379 -0.00044 -0.00128  0.00092   -0.38599    1.14292  280.51133   0.03334  0.03581  0.29300  0.00776 -0.03648 -0.04510
2046 358158.000  -2408504.4939   4698182.0959   3566730.7505   1   9   0.0061   0.0081   0.0074  -0.0045   0.0049  -0.0035   0.00    0.0    3.40537    1.45891    0.33655   0.00377  0.00357  0.00389 -0.00055 -0.00130  0.00127   -0.32972    1.21968  278.00283   0.03319  0.03566  0.29197  0.00785 -0.03844 -0.04544
2046 358159.000  -2408501.0288   4698183.6813   3566731.0352   1   9   0.0059   0.0080   0.0073  -0.0045   0.0049  -0.0035   0.00    0.0    3.51824    1.74074    0.18870   0.00399  0.00353  0.00398 -0.00061 -0.00138  0.00168   -0.34362    1.15191  273.80991   0.03287  0.03552  0.28615  0.00819 -0.04240 -0.04446
2046 358160.000  -2408497.3918   4698185.5571   3566731.0545   1   9   0.0058   0.0078   0.0071  -0.0045   0.0048  -0.0034   0.00    0.0    3.59399    2.02249   -0.22437   0.00455  0.00359  0.00398  0.00116 -0.00134  0.00181   -0.15187    0.54934  268.42270   0.03211  0.03535  0.26994  0.00837 -0.04765 -0.03977
2046 358161.000  -2408493.8406   4698187.7967   3566730.5935   1   8   0.0059   0.0079   0.0073  -0.0046   0.0048  -0.0034   0.00    0.0    3.38505    2.42592   -0.73507   0.00498  0.00403  0.00429  0.00212 -0.00207  0.00098    0.25618    0.56524  259.13490   0.03047  0.03478  0.24284  0.00671 -0.05081 -0.02366
2046 358162.000  -2408490.5926   4698190.3938   3566729.4833   1   8   0.0060   0.0080   0.0075  -0.0046   0.0047  -0.0035   0.00    0.0    3.07789    2.71472   -1.35053   0.00482  0.00430  0.00485  0.00200 -0.00283  0.00054    0.61933    0.18718  249.27078   0.02825  0.03275  0.21122 -0.00492 -0.04957  0.02787
2046 358163.000  -2408487.7322   4698193.1637   3566727.9011   1   8   0.0059   0.0079   0.0074  -0.0045   0.0045  -0.0034   0.00    0.0    2.69666    2.78504   -1.73537   0.00461  0.00417  0.00516  0.00108 -0.00299  0.00180    0.35883    0.21883  242.19871   0.02616  0.02893  0.19481 -0.00887 -0.04551  0.04134
2046 358164.000  -2408485.2608   4698195.9135   3566726.0669   1   8   0.0058   0.0078   0.0074  -0.0045   0.0044  -0.0033   0.00    0.0    2.31257    2.74864   -1.93277   0.00474  0.00398  0.00511  0.00080 -0.00270  0.00240    0.43657    0.27779  236.53374   0.02378  0.02436  0.18910 -0.00849 -0.03840  0.04504
2046 358165.000  -2408483.0931   4698198.6594   3566724.0382   1   9   0.0059   0.0077   0.0074  -0.0044   0.0044  -0.0032   0.00    0.0    2.07464    2.74850   -2.09639   0.00472  0.00393  0.00472  0.00143 -0.00230  0.00213    0.93981   -0.03032  232.61379   0.02105  0.02042  0.18310 -0.00622 -0.02904  0.04256
2046 358166.000  -2408481.1204   4698201.4236   3566721.8779   1   9   0.0058   0.0076   0.0072  -0.0043   0.0044  -0.0031   0.00    0.0    1.84844    2.73114   -2.21810   0.00446  0.00389  0.00440  0.00159 -0.00207  0.00170    0.29674    0.90134  228.43090   0.01845  0.01778  0.17471 -0.00372 -0.01999  0.03683
2046 358167.000  -2408479.4401   4698204.0893   3566719.6042   1   9   0.0056   0.0075   0.0070  -0.0042   0.0044  -0.0031   0.00    0.0    1.53997    2.63041   -2.31955   0.00409  0.00375  0.00413  0.00137 -0.00179  0.00139    0.32993    1.03483  224.16965   0.01648  0.01609  0.16480 -0.00099 -0.00955  0.03028
2046 358168.000  -2408477.9951   4698206.7342   3566717.1923   1   7   0.0064   0.0080   0.0073  -0.0041   0.0049  -0.0035   0.00    0.0    1.32781    2.65554   -2.44376   0.00417  0.00386  0.00405  0.00160 -0.00166  0.00098    0.30653    0.82505  220.62750   0.01555  0.01521  0.15898 -0.00090  0.00656  0.02614
2046 358169.000  -2408476.6513   4698209.3809   3566714.7222   1   7   0.0066   0.0083   0.0074  -0.0042   0.0053  -0.0038   0.00    0.0    1.26036    2.62974   -2.50782   0.00398  0.00385  0.00398  0.00141 -0.00159  0.00064    0.54102    0.63956  219.38535   0.01473  0.01459  0.15315  0.00053  0.01115  0.02116
2046 358170.000  -2408475.3507   4698211.9976   3566712.2741   1   7   0.0065   0.0084   0.0073  -0.0043   0.0054  -0.0039   0.00    0.0    1.30097    2.58809   -2.42820   0.00381  0.00383  0.00390  0.00127 -0.00163  0.00021    0.43681    0.74262  219.29129   0.01423  0.01422  0.14759 -0.00049  0.01253  0.01578
2046 358171.000  -2408474.0201   4698214.5869   3566709.8779   1   8   0.0072   0.0092   0.0080  -0.0046   0.0059  -0.0043   0.00    0.0    1.41021    2.60562   -2.36365   0.00397  0.00403  0.00407  0.00136 -0.00178 -0.00042    0.47595    0.37786  221.00774   0.01408  0.01412  0.14272 -0.00140  0.01265  0.01034
2046 358172.000  -2408472.5407   4698217.2160   3566707.5267   1   9   0.0069   0.0092   0.0080  -0.0049   0.0060  -0.0044   0.00    0.0    1.53774    2.64882   -2.37258   0.00374  0.00387  0.00398  0.00083 -0.00162  0.00031    0.40706    0.64825  222.67450   0.01400  0.01401  0.13616 -0.00168  0.01312 -0.00705
2046 358173.000  -2408471.0041   4698219.9181   3566705.1130   1   9   0.0065   0.0088   0.0078  -0.0049   0.0058  -0.0042   0.00    0.0    1.49182    2.72354   -2.44749   0.00365  0.00367  0.00381  0.00053 -0.00131  0.00071    0.22477    0.75296  221.68665   0.01407  0.01401  0.13120 -0.00204  0.01344 -0.01269
2046 358174.000  -2408469.5233   4698222.6596   3566702.6283   1   9   0.0062   0.0085   0.0075  -0.0048   0.0055  -0.0040   0.00    0.0    1.44892    2.72774   -2.46348   0.00362  0.00357  0.00370  0.00055 -0.00112  0.00074    0.25530    0.72603  220.40389   0.01418  0.01404  0.12846 -0.00233  0.01386 -0.01544
2046 358175.000  -2408468.1033   4698225.4289   3566700.0598   1   8   0.0062   0.0083   0.0073  -0.0047   0.0054  -0.0039   0.00    0.0    1.37709    2.78998   -2.58253   0.00364  0.00355  0.00367  0.00061 -0.00101  0.00077    0.38312    0.55268  219.16637   0.01427  0.01406  0.12746 -0.00252  0.01403 -0.01704
2046 358176.000  -2408466.6935   4698228.2197   3566697.4657   1   6   0.0070   0.0091   0.0079  -0.0048   0.0059  -0.0043   0.00    0.0    1.40745    2.79968   -2.57340   0.00390  0.00373  0.00380  0.00093 -0.00097  0.00071    0.44868    0.75582  219.25045   0.01437  0.01416  0.12725 -0.00262  0.01399 -0.01796
2046 358177.000  -2408465.2791   4698230.9960   3566694.8877   1   8   0.0074   0.0096   0.0083  -0.0051   0.0064  -0.0046   0.00    0.0    1.39400    2.76815   -2.58983   0.00392  0.00377  0.00382  0.00088 -0.00084  0.00061    0.33012    0.79928  219.16465   0.01441  0.01416  0.12734 -0.00267  0.01401 -0.01861
2046 358178.000  -2408463.8883   4698233.7652   3566692.3066   1   8   0.0069   0.0093   0.0081  -0.0052   0.0063  -0.0045   0.00    0.0    1.37080    2.78624   -2.59053   0.00371  0.00367  0.00375  0.00047 -0.00086  0.00062    0.34366    0.92381  218.78271   0.01442  0.01410  0.12763 -0.00270  0.01411 -0.01897
2046 358179.000  -2408462.4937   4698236.6134   3566689.6325   1   9   0.0065   0.0090   0.0079  -0.0051   0.0060  -0.0043   0.00    0.0    1.41755    2.99900   -2.80383   0.00370  0.00361  0.00374  0.00050 -0.00094  0.00076    0.32155    1.00275  218.16058   0.01444  0.01409  0.12796 -0.00269  0.01396 -0.01922
2046 358180.000  -2408461.0151   4698239.6900   3566686.7215   1   9   0.0063   0.0086   0.0076  -0.0049   0.0057  -0.0040   0.00    0.0    1.52394    3.12353   -2.97041   0.00369  0.00356  0.00372  0.00052 -0.00098  0.00086    0.27386    1.03011  217.97110   0.01447  0.01406  0.12782 -0.00258  0.01277 -0.01976
2046 358181.000  -2408459.4744   4698242.8912   3566683.6803   1   8   0.0061   0.0084   0.0075  -0.0048   0.0054  -0.0039   0.00    0.0    1.57197    3.29262   -3.15984   0.00370  0.00355  0.00376  0.00047 -0.00105  0.00092    0.32338    1.10559  217.70190   0.01453  0.01402  0.12727 -0.00240  0.01087 -0.02041
2046 358182.000  -2408457.8554   4698246.3399   3566680.3996   1   7   0.0061   0.0083   0.0075  -0.0047   0.0053  -0.0038   0.00    0.0    1.67105    3.58987   -3.35683   0.00371  0.00355  0.00380  0.00024 -0.00109  0.00100    0.27257    1.07676  217.67894   0.01461  0.01398  0.12604 -0.00209  0.00768 -0.02119
2046 358183.000  -2408456.1531   4698249.9274   3566676.9817   1   8   0.0070   0.0090   0.0080  -0.0049   0.0059  -0.0042   0.00    0.0    1.68836    3.58249   -3.37698   0.00388  0.00371  0.00382  0.00082 -0.00091  0.00066    0.24259    0.89185  217.70380   0.01469  0.01407  0.12522 -0.00175  0.00429 -0.02197
2046 358184.000  -2408454.4728   4698253.4032   3566673.6769   1   7   0.0070   0.0092   0.0081  -0.0050   0.0061  -0.0044   0.00    0.0    1.68931    3.49109   -3.28735   0.00379  0.00370  0.00379  0.00063 -0.00089  0.00063    0.30177    0.78616  218.18476   0.01474  0.01402  0.12539 -0.00156 -0.00141 -0.02243
2046 358185.000  -2408452.7618   4698256.8742   3566670.3971   1   7   0.0068   0.0091   0.0080  -0.0051   0.0060  -0.0043   0.00    0.0    1.72867    3.44575   -3.24683   0.00377  0.00367  0.00377  0.00058 -0.00094  0.00076    0.16779    0.90673  218.75724   0.01475  0.01401  0.12578 -0.00170  0.00349 -0.02251
2046 358186.000  -2408451.0477   4698260.2596   3566667.2256   1   7   0.0073   0.0096   0.0083  -0.0052   0.0065  -0.0046   0.00    0.0    1.74121    3.43965   -3.19012   0.00399  0.00377  0.00382  0.00095 -0.00087  0.00076    0.32871    1.06141  218.97871   0.01473  0.01410  0.12564 -0.00197  0.00704 -0.02206
2046 358187.000  -2408449.3535   4698263.6528   3566664.0289   1   8   0.0071   0.0095   0.0082  -0.0053   0.0064  -0.0046   0.00    0.0    1.66729    3.36467   -3.20034   0.00385  0.00370  0.00379  0.00067 -0.00089  0.00083    0.31659    0.90580  218.50030   0.01464  0.01407  0.12501 -0.00234  0.01023 -0.02118
2046 358188.000  -2408447.7192   4698267.0031   3566660.8569   1   8   0.0067   0.0091   0.0079  -0.0052   0.0061  -0.0043   0.00    0.0    1.61748    3.36846   -3.13582   0.00374  0.00365  0.00376  0.00053 -0.00101  0.00085    0.28085    0.91146  218.22301   0.01455  0.01406  0.12443 -0.00257  0.01233 -0.02009
2046 358189.000  -2408446.1116   4698270.3235   3566657.7118   1   8   0.0064   0.0087   0.0077  -0.0050   0.0058  -0.0041   0.00    0.0    1.58666    3.31427   -3.12531   0.00368  0.00361  0.00373  0.00048 -0.00105  0.00083    0.36920    0.50876  218.56206   0.01447  0.01407  0.12415 -0.00267  0.01375 -0.01900
2046 358190.000  -2408444.4885   4698273.5865   3566654.6618   1   8   0.0062   0.0085   0.0076  -0.0049   0.0055  -0.0039   0.00    0.0    1.65738    3.24697   -3.02966   0.00364  0.00359  0.00371  0.00040 -0.00108  0.00079    0.21129    0.81695  219.32701   0.01441  0.01408  0.12408 -0.00275  0.01495 -0.01808
2046 358191.000  -2408442.8274   4698276.8317   3566651.6631   1   8   0.0058   0.0081   0.0073  -0.0047   0.0051  -0.0036   0.00    0.0    1.69961    3.23830   -3.00560   0.00349  0.00352  0.00368 -0.00045 -0.00112  0.00078    0.28079    0.92656  219.98680   0.01437  0.01406  0.12427 -0.00285  0.01598 -0.01747
2046 358192.000  -2408441.1331   4698280.0507   3566648.7077   1   6   0.0068   0.0089   0.0078  -0.0048   0.0057  -0.0041   0.00    0.0    1.69700    3.19659   -2.94083   0.00387  0.00373  0.00378  0.00083 -0.00098  0.00068    0.37814    1.22872  220.14147   0.01437  0.01421  0.12473 -0.00280  0.01649 -0.01723
2046 358193.000  -2408439.4844   4698283.2558   3566645.7325   1   6   0.0073   0.0095   0.0082  -0.0050   0.0063  -0.0045   0.00    0.0    1.58866    3.18721   -2.96838   0.00392  0.00379  0.00381  0.00085 -0.00084  0.00060    0.30162    1.08477  219.15481   0.01435  0.01421  0.12526 -0.00282  0.01686 -0.01704
2046 358194.000  -2408437.8649   4698286.4414   3566642.7671   1   6   0.0076   0.0098   0.0084  -0.0052   0.0067  -0.0048   0.00    0.0    1.64760    3.18095   -2.91866   0.00390  0.00379  0.00382  0.00075 -0.00078  0.00056    0.26815    1.12545  219.67099   0.01433  0.01420  0.12583 -0.00282  0.01694 -0.01689
2046 358195.000  -2408436.2231   4698289.5794   3566639.8852   1   8   0.0077   0.0100   0.0086  -0.0054   0.0069  -0.0049   0.00    0.0    1.62459    3.01793   -2.82897   0.00391  0.00380  0.00381  0.00076 -0.00079  0.00058    0.49704    1.36723  220.47156   0.01432  0.01421  0.12642 -0.00281  0.01701 -0.01684
2046 358196.000  -2408434.5416   4698292.6866   3566637.0611   1   8   0.0071   0.0096   0.0083  -0.0054   0.0065  -0.0047   0.00    0.0    1.70580    3.11371   -2.82602   0.00376  0.00369  0.00376  0.00055 -0.00092  0.00065    0.18879    1.03087  221.32813   0.01430  0.01417  0.12700 -0.00285  0.01716 -0.01693
2046 358197.000  -2408432.8425   4698295.8286   3566634.2015   1   8   0.0066   0.0091   0.0079  -0.0052   0.0061  -0.0044   0.00    0.0    1.71427    3.13646   -2.88217   0.00371  0.00363  0.00373  0.00058 -0.00101  0.00074    0.15205    0.98174  220.40739   0.01430  0.01415  0.12757 -0.00287  0.01712 -0.01717
2046 358198.000  -2408431.2297   4698298.9771   3566631.2939   1   8   0.0063   0.0087   0.0077  -0.0050   0.0057  -0.0041   0.00    0.0    1.55975    3.11362   -2.95040   0.00369  0.00362  0.00373  0.00066 -0.00107  0.00075    0.47110    0.91349  219.00786   0.01430  0.01411  0.12809 -0.00285  0.01671 -0.01729
2046 358199.000  -2408429.6856   4698302.1058   3566628.3656   1   7   0.0064   0.0087   0.0077  -0.0049   0.0056  -0.0040   0.00    0.0    1.54282    3.11087   -2.91415   0.00372  0.00365  0.00376  0.00066 -0.00107  0.00077    0.18786    1.02717  218.64847   0.01429  0.01408  0.12856 -0.00277  0.01608 -0.01717
2046 358200.000  -2408428.1551   4698305.1825   3566625.4826   1   7   0.0062   0.0085   0.0076  -0.0048   0.0054  -0.0038   0.00    0.0    1.53780    3.07084   -2.83828   0.00360  0.00360  0.00373  0.00024 -0.00108  0.00078    0.30733    1.62678  218.72659   0.01427  0.01400  0.12909 -0.00270  0.01553 -0.01699
2046 358201.000  -2408426.6576   4698308.2163   3566622.6291   1   9   0.0061   0.0084   0.0075  -0.0047   0.0053  -0.0038   0.00    0.0    1.49699    3.07501   -2.87865   0.00359  0.00359  0.00373  0.00017 -0.00108  0.00079    0.23904    1.85569  218.42329   0.01425  0.01399  0.12970 -0.00264  0.01530 -0.01676
2046 358202.000  -2408425.1625   4698311.2757   3566619.7492   1   8   0.0060   0.0082   0.0074  -0.0046   0.0051  -0.0036   0.00    0.0    1.51343    3.07705   -2.92009   0.00353  0.00354  0.00370 -0.00030 -0.00108  0.00079    0.34287    1.71673  218.52073   0.01424  0.01396  0.13034 -0.00260  0.01509 -0.01668
2046 358203.000  -2408423.6420   4698314.3685   3566616.8474   1   8   0.0057   0.0080   0.0072  -0.0046   0.0049  -0.0035   0.00    0.0    1.52503    3.09767   -2.89013   0.00347  0.00351  0.00369 -0.00049 -0.00111  0.00081    0.23855    1.65958  218.74726   0.01425  0.01393  0.13096 -0.00258  0.01480 -0.01686
2046 358204.000  -2408422.0786   4698317.4727   3566613.9414   1   8   0.0057   0.0079   0.0072  -0.0045   0.0048  -0.0035   0.00    0.0    1.62641    3.10263   -2.90839   0.00347  0.00351  0.00369 -0.00047 -0.00116  0.00082    0.07771    1.76338  219.31823   0.01427  0.01393  0.13154 -0.00259  0.01462 -0.01727
2046 358205.000  -2408420.4850   4698320.5941   3566611.0240   1   8   0.0056   0.0078   0.0072  -0.0045   0.0048  -0.0034   0.00    0.0    1.57467    3.11446   -2.93549   0.00343  0.00349  0.00368 -0.00054 -0.00115  0.00083    0.23333    1.70508  219.16387   0.01429  0.01391  0.13211 -0.00263  0.01453 -0.01778
2046 358206.000  -2408418.9318   4698323.7287   3566608.0884   1   8   0.0055   0.0077   0.0071  -0.0045   0.0047  -0.0034   0.00    0.0    1.49492    3.11490   -2.93323   0.00339  0.00347  0.00365 -0.00056 -0.00113  0.00082    0.35866    1.51453  218.23995   0.01429  0.01389  0.13275 -0.00266  0.01444 -0.01813
2046 358207.000  -2408417.4558   4698326.8555   3566605.1187   1   9   0.0059   0.0080   0.0073  -0.0045   0.0049  -0.0035   0.00    0.0    1.45490    3.13186   -2.99906   0.00352  0.00354  0.00370 -0.00019 -0.00114  0.00082    0.30538    1.48583  217.20223   0.01431  0.01393  0.13345 -0.00264  0.01426 -0.01813
2046 358208.000  -2408416.0163   4698330.0023   3566602.0715   1   8   0.0058   0.0080   0.0073  -0.0046   0.0049  -0.0035   0.00    0.0    1.41732    3.17405   -3.05295   0.00344  0.00350  0.00369 -0.00047 -0.00114  0.00081    0.32367    1.38085  216.85838   0.01429  0.01388  0.13408 -0.00258  0.01373 -0.01795
2046 358209.000  -2408414.5473   4698333.1920   3566598.9914   1   9   0.0057   0.0079   0.0072  -0.0045   0.0049  -0.0035   0.00    0.0    1.52757    3.28188   -3.13208   0.00344  0.00347  0.00367 -0.00051 -0.00113  0.00085    0.30474    1.29446  217.33890   0.01428  0.01387  0.13472 -0.00250  0.01312 -0.01789
2046 358210.000  -2408412.9704   4698336.5495   3566595.7846   1   9   0.0056   0.0077   0.0070  -0.0044   0.0048  -0.0034   0.00    0.0    1.59975    3.41481   -3.23659   0.00343  0.00343  0.00365 -0.00050 -0.00112  0.00087    0.44294    1.36609  217.75703   0.01429  0.01384  0.13509 -0.00241  0.01198 -0.01836
2046 358211.000  -2408411.3269   4698339.9855   3566592.5328   1   8   0.0056   0.0077   0.0071  -0.0044   0.0047  -0.0034   0.00    0.0    1.70577    3.42612   -3.28313   0.00343  0.00346  0.00368 -0.00052 -0.00120  0.00087    0.18779    1.37986  218.43417   0.01435  0.01383  0.13532 -0.00234  0.01084 -0.01911
2046 358212.000  -2408409.6335   4698343.4223   3566589.2780   1   8   0.0055   0.0077   0.0070  -0.0044   0.0047  -0.0033   0.00    0.0    1.69059    3.40754   -3.17795   0.00339  0.00345  0.00365 -0.00053 -0.00118  0.00080    0.09048    1.16817  218.83028   0.01439  0.01381  0.13574 -0.00235  0.01035 -0.01988
2046 358213.000  -2408407.9253   4698346.7934   3566586.1163   1   8   0.0055   0.0076   0.0070  -0.0044   0.0046  -0.0033   0.00    0.0    1.72283    3.36054   -3.13529   0.00340  0.00345  0.00364 -0.00053 -0.00118  0.00084    0.22341    1.21508  219.38867   0.01441  0.01382  0.13631 -0.00248  0.01126 -0.02026
2046 358214.000  -2408406.2693   4698350.1074   3566583.0245   1   8   0.0055   0.0076   0.0070  -0.0044   0.0046  -0.0033   0.00    0.0    1.63788    3.16952   -3.00683   0.00347  0.00346  0.00365 -0.00051 -0.00117  0.00102    0.23229    1.21924  218.89254   0.01439  0.01384  0.13663 -0.00265  0.01284 -0.02002
2046 358215.000  -2408404.7274   4698353.2490   3566580.0572   1   8   0.0055   0.0076   0.0070  -0.0044   0.0046  -0.0033   0.00    0.0    1.51806    3.07382   -2.92526   0.00345  0.00345  0.00366 -0.00065 -0.00118  0.00107    0.31996    0.94884  218.55091   0.01432  0.01387  0.13615 -0.00279  0.01469 -0.01882
2046 358216.000  -2408403.2468   4698356.2956   3566577.1639   1   8   0.0055   0.0076   0.0070  -0.0044   0.0046  -0.0033   0.00    0.0    1.44450    3.02502   -2.88930   0.00341  0.00346  0.00365 -0.00061 -0.00120  0.00099    0.20570    0.86403  218.07353   0.01424  0.01392  0.13542 -0.00281  0.01615 -0.01712
2046 358217.000  -2408401.7643   4698359.3207   3566574.3072   1   8   0.0058   0.0079   0.0072  -0.0045   0.0048  -0.0034   0.00    0.0    1.52653    3.04550   -2.83987   0.00346  0.00350  0.00365 -0.00042 -0.00114  0.00083    0.47192    0.70804  219.15798   0.01420  0.01397  0.13536 -0.00275  0.01707 -0.01567
2046 358218.000  -2408400.2514   4698362.3388   3566571.4801   1   7   0.0068   0.0088   0.0077  -0.0047   0.0056  -0.0040   0.00    0.0    1.50722    3.02570   -2.84034   0.00378  0.00368  0.00375  0.00072 -0.00100  0.00072    0.23973    0.81681  219.01091   0.01419  0.01410  0.13593 -0.00266  0.01747 -0.01483
2046 358219.000  -2408398.7602   4698365.3434   3566568.6496   1   8   0.0073   0.0094   0.0082  -0.0050   0.0062  -0.0045   0.00    0.0    1.48617    3.06019   -2.85167   0.00386  0.00374  0.00379  0.00076 -0.00088  0.00067    0.52674    0.70689  218.70604   0.01418  0.01411  0.13669 -0.00262  0.01765 -0.01441
2046 358220.000  -2408397.2079   4698368.4929   3566565.6908   1   8   0.0069   0.0093   0.0081  -0.0051   0.0062  -0.0045   0.00    0.0    1.62567    3.23903   -3.01483   0.00376  0.00363  0.00378  0.00037 -0.00091  0.00091    0.42812    0.81894  219.03113   0.01417  0.01404  0.13727 -0.00263  0.01702 -0.01485
2046 358221.000  -2408395.5481   4698371.8254   3566562.5849   1   8   0.0066   0.0090   0.0079  -0.0051   0.0060  -0.0042   0.00    0.0    1.65093    3.35961   -3.22435   0.00378  0.00357  0.00376  0.00055 -0.00098  0.00102    0.50563    0.91686  218.60755   0.01421  0.01399  0.13678 -0.00261  0.01543 -0.01606
2046 358222.000  -2408393.9001   4698375.2281   3566559.3784   1   8   0.0063   0.0086   0.0077  -0.0050   0.0057  -0.0040   0.00    0.0    1.67734    3.39724   -3.19330   0.00366  0.00355  0.00372  0.00046 -0.00106  0.00088    0.28067    0.92216  218.50805   0.01425  0.01393  0.13574 -0.00252  0.01312 -0.01726
2046 358223.000  -2408392.2610   4698378.5787   3566556.2156   1   7   0.0064   0.0087   0.0077  -0.0049   0.0056  -0.0040   0.00    0.0    1.62580    3.32317   -3.14991   0.00369  0.00360  0.00374  0.00063 -0.00110  0.00078    0.37549    0.72577  218.46279   0.01430  0.01392  0.13575 -0.00242  0.01146 -0.01803
2046 358224.000  -2408390.6564   4698381.8373   3566553.1472   1   7   0.0062   0.0085   0.0076  -0.0048   0.0054  -0.0038   0.00    0.0    1.57750    3.21402   -3.04354   0.00361  0.00358  0.00373  0.00032 -0.00112  0.00086    0.33500    1.01809  218.84442   0.01430  0.01387  0.13650 -0.00240  0.01095 -0.01827
2046 358225.000  -2408389.0495   4698385.0142   3566550.1779   1   7   0.0070   0.0091   0.0080  -0.0049   0.0060  -0.0043   0.00    0.0    1.60483    3.13977   -2.93838   0.00391  0.00373  0.00377  0.00088 -0.00091  0.00078    0.51605    0.90441  219.50605   0.01429  0.01397  0.13720 -0.00241  0.01169 -0.01801
2046 358226.000  -2408387.4342   4698388.1248   3566547.3095   1   6   0.0074   0.0096   0.0083  -0.0051   0.0064  -0.0046   0.00    0.0    1.62819    3.09577   -2.85307   0.00396  0.00378  0.00380  0.00090 -0.00082  0.00071    0.48469    1.02729  220.07835   0.01427  0.01400  0.13748 -0.00250  0.01320 -0.01738
2046 358227.000  -2408385.8222   4698391.2091   3566544.4663   1   6   0.0076   0.0099   0.0085  -0.0053   0.0067  -0.0048   0.00    0.0    1.60537    3.07076   -2.85717   0.00392  0.00379  0.00382  0.00080 -0.00081  0.00065    0.37808    1.28790  219.69056   0.01425  0.01403  0.13768 -0.00258  0.01465 -0.01663
2046 358228.000  -2408384.2341   4698394.2938   3566541.6055   1   6   0.0077   0.0101   0.0086  -0.0054   0.0069  -0.0050   0.00    0.0    1.62662    2.97864   -2.84849   0.00393  0.00380  0.00381  0.00081 -0.00079  0.00061    0.37549    1.17014  219.58878   0.01422  0.01407  0.13815 -0.00260  0.01562 -0.01593
2046 358229.000  -2408382.6540   4698397.3657   3566538.7603   1   8   0.0077   0.0102   0.0086  -0.0055   0.0070  -0.0050   0.00    0.0    1.58186    3.08636   -2.85510   0.00394  0.00380  0.00381  0.00089 -0.00079  0.00057    0.33359    1.75335  219.62851   0.01420  0.01410  0.13885 -0.00259  0.01619 -0.01541
2046 358230.000  -2408381.1329   4698400.3790   3566535.9336   1   8   0.0071   0.0096   0.0083  -0.0054   0.0066  -0.0047   0.00    0.0    1.51192    3.00111   -2.78923   0.00379  0.00370  0.00376  0.00069 -0.00092  0.00068    0.15536    1.35447  218.60863   0.01417  0.01406  0.13962 -0.00260  0.01649 -0.01488
2046 358231.000  -2408379.7327   4698403.3760   3566533.0923   1   8   0.0066   0.0091   0.0079  -0.0052   0.0061  -0.0044   0.00    0.0    1.45895    3.02013   -2.79157   0.00372  0.00365  0.00373  0.00065 -0.00100  0.00073    0.43191   -0.07917  217.76762   0.01415  0.01403  0.14036 -0.00254  0.01626 -0.01411
2046 358232.000  -2408378.2660   4698406.4045   3566530.2456   1   8   0.0063   0.0087   0.0077  -0.0050   0.0057  -0.0041   0.00    0.0    1.53319    3.01769   -2.87016   0.00368  0.00361  0.00372  0.00055 -0.00101  0.00076    0.38844    0.20767  219.13666   0.01414  0.01398  0.14111 -0.00249  0.01568 -0.01379
2046 358233.000  -2408376.6939   4698409.4410   3566527.4307   1   8   0.0061   0.0084   0.0075  -0.0048   0.0055  -0.0039   0.00    0.0    1.64201    3.06544   -2.78379   0.00363  0.00359  0.00373  0.00026 -0.00108  0.00076    0.32475    0.05371  220.37068   0.01414  0.01394  0.14184 -0.00250  0.01517 -0.01424
2046 358234.000  -2408375.1211   4698412.4601   3566524.6374   1   8   0.0057   0.0080   0.0072  -0.0046   0.0050  -0.0036   0.00    0.0    1.51526    2.99323   -2.77128   0.00347  0.00351  0.00367 -0.00048 -0.00108  0.00077    0.06591    0.28439  219.61350   0.01415  0.01388  0.14255 -0.00255  0.01488 -0.01491
2046 358235.000  -2408373.6971   4698415.3349   3566521.9410   1   8   0.0056   0.0078   0.0071  -0.0045   0.0048  -0.0034   0.00    0.0    1.32889    2.79313   -2.64510   0.00346  0.00351  0.00368 -0.00054 -0.00111  0.00090    0.45545   -0.06563  218.33185   0.01415  0.01388  0.14340 -0.00257  0.01522 -0.01475
2046 358236.000  -2408372.3339   4698418.1435   3566519.2603   1   8   0.0056   0.0077   0.0071  -0.0044   0.0046  -0.0033   0.00    0.0    1.43487    2.63456   -2.71865   0.00343  0.00349  0.00365 -0.00057 -0.00108  0.00083    0.33205    0.63287  218.16847   0.01414  0.01388  0.14416 -0.00256  0.01568 -0.01409
2046 358237.000  -2408370.9598   4698420.9690   3566516.5658   1   7   0.0058   0.0079   0.0072  -0.0045   0.0049  -0.0035   0.00    0.0    1.40396    2.88831   -2.65343   0.00348  0.00352  0.00366 -0.00044 -0.00104  0.00075    0.17714    0.79020  218.00453   0.01412  0.01390  0.14500 -0.00253  0.01584 -0.01353
2046 358238.000  -2408369.6173   4698423.8443   3566513.8098   1   7   0.0059   0.0080   0.0072  -0.0046   0.0050  -0.0036   0.00    0.0    1.35293    2.89654   -2.75862   0.00347  0.00352  0.00367 -0.00048 -0.00102  0.00076    0.32216    0.85371  217.13643   0.01412  0.01388  0.14585 -0.00249  0.01546 -0.01333
2046 358239.000  -2408368.2830   4698426.7687   3566510.9942   1   7   0.0068   0.0089   0.0078  -0.0048   0.0058  -0.0041   0.00    0.0    1.35123    2.90824   -2.83638   0.00381  0.00369  0.00377  0.00072 -0.00089  0.00070    0.33787    0.89019  216.94365   0.01414  0.01398  0.14656 -0.00243  0.01478 -0.01346
2046 358240.000  -2408366.9233   4698429.7169   3566508.1469   1   7   0.0070   0.0091   0.0079  -0.0049   0.0061  -0.0044   0.00    0.0    1.40070    2.94179   -2.91886   0.00376  0.00365  0.00373  0.00063 -0.00078  0.00067    0.42412    1.21285  217.25992   0.01414  0.01393  0.14708 -0.00238  0.01358 -0.01400
2046 358241.000  -2408365.5418   4698432.6753   3566505.3180   1   7   0.0074   0.0096   0.0083  -0.0052   0.0065  -0.0047   0.00    0.0    1.36491    2.87907   -2.75790   0.00384  0.00374  0.00378  0.00074 -0.00082  0.00058    0.27360    1.02509  217.84834   0.01417  0.01396  0.14769 -0.00236  0.01275 -0.01469
2046 358242.000  -2408364.2127   4698435.4184   3566502.7119   1   8   0.0071   0.0095   0.0082  -0.0053   0.0064  -0.0046   0.00    0.0    1.30467    2.65929   -2.49822   0.00384  0.00371  0.00375  0.00073 -0.00089  0.00079    0.02025    0.95919  218.74437   0.01418  0.01395  0.14855 -0.00240  0.01331 -0.01490
2046 358243.000  -2408362.9642   4698437.9455   3566500.3110   1   9   0.0067   0.0091   0.0080  -0.0052   0.0061  -0.0044   0.00    0.0    1.21185    2.41588   -2.33415   0.00384  0.00365  0.00372  0.00069 -0.00096  0.00104    0.02531    1.07263  218.64333   0.01416  0.01398  0.14844 -0.00247  0.01528 -0.01409
2046 358244.000  -2408361.8060   4698440.2721   3566498.0951   1   8   0.0065   0.0088   0.0077  -0.0049   0.0058  -0.0041   0.00    0.0    1.09139    2.25749   -2.11955   0.00385  0.00363  0.00371  0.00074 -0.00100  0.00112   -0.04929    0.94315  218.49041   0.01413  0.01405  0.14697 -0.00247  0.01751 -0.01206
2046 358245.000  -2408360.7897   4698442.3892   3566496.0638   1   7   0.0065   0.0088   0.0077  -0.0049   0.0057  -0.0040   0.00    0.0    0.95218    2.03786   -1.93177   0.00382  0.00366  0.00377  0.00055 -0.00110  0.00116    0.25781    1.03258  217.25945   0.01412  0.01413  0.14477 -0.00235  0.01949 -0.00874
2046 358246.000  -2408359.9118   4698444.3015   3566494.2212   1   7   0.0063   0.0085   0.0076  -0.0048   0.0054  -0.0038   0.00    0.0    0.87889    1.87032   -1.80073   0.00365  0.00362  0.00372  0.00024 -0.00111  0.00098    0.38156    0.67424  217.40466   0.01410  0.01420  0.14266 -0.00206  0.02109 -0.00076
2046 358247.000  -2408358.9565   4698446.3465   3566492.2600   1   7   0.0062   0.0084   0.0076  -0.0047   0.0052  -0.0037   0.00    0.0    1.04691    2.22925   -2.15031   0.00376  0.00358  0.00377  0.00050 -0.00107  0.00112    0.35999    0.66900  217.73146   0.01410  0.01422  0.14324 -0.00188  0.02156  0.00561
2046 358248.000  -2408357.8064   4698448.7537   3566489.9738   1   8   0.0062   0.0083   0.0075  -0.0047   0.0052  -0.0037   0.00    0.0    1.25409    2.52476   -2.34491   0.00401  0.00355  0.00392 -0.00008 -0.00110  0.00164    0.33031    0.73584  219.02030   0.01409  0.01410  0.14216 -0.00210  0.01967 -0.00306
2046 358249.000  -2408356.4665   4698451.3290   3566487.6160   1   7   0.0065   0.0086   0.0077  -0.0048   0.0055  -0.0039   0.00    0.0    1.42237    2.63044   -2.38673   0.00399  0.00360  0.00394 -0.00031 -0.00108  0.00151    0.34142    0.86570  221.05802   0.01411  0.01401  0.13768 -0.00237  0.01651 -0.00988
2046 358250.000  -2408354.9790   4698453.9954   3566485.2046   1   8   0.0065   0.0087   0.0077  -0.0049   0.0057  -0.0040   0.00    0.0    1.46831    2.70419   -2.42388   0.00378  0.00360  0.00384 -0.00027 -0.00102  0.00111    0.14961    0.88419  221.63834   0.01416  0.01391  0.13273 -0.00247  0.01287 -0.01383
2046 358251.000  -2408353.5231   4698456.6712   3566482.7638   1   6   0.0072   0.0093   0.0082  -0.0050   0.0062  -0.0044   0.00    0.0    1.39431    2.66905   -2.48398   0.00391  0.00373  0.00382  0.00082 -0.00088  0.00071    0.21264    0.92640  220.38374   0.01424  0.01395  0.13082 -0.00242  0.01066 -0.01608
2046 358252.000  -2408352.1445   4698459.3547   3566480.2652   1   6   0.0075   0.0098   0.0084  -0.0052   0.0066  -0.0047   0.00    0.0    1.34251    2.67112   -2.57529   0.00391  0.00377  0.00382  0.00088 -0.00081  0.00052    0.25724    1.05021  218.76527   0.01428  0.01394  0.13055 -0.00232  0.00843 -0.01726
2046 358253.000  -2408350.7858   4698462.0829   3566477.6929   1   6   0.0077   0.0100   0.0086  -0.0054   0.0069  -0.0049   0.00    0.0    1.38370    2.71113   -2.58170   0.00391  0.00378  0.00383  0.00083 -0.00080  0.00055    0.22893    1.04428  219.02764   0.01428  0.01393  0.13104 -0.00221  0.00628 -0.01762
2046 358254.000  -2408349.4275   4698464.8128   3566475.1266   1   6   0.0077   0.0101   0.0087  -0.0055   0.0070  -0.0050   0.00    0.0    1.35970    2.72617   -2.56031   0.00393  0.00378  0.00383  0.00086 -0.00080  0.00063    0.28873    0.98194  218.83017   0.01427  0.01394  0.13180 -0.00214  0.00493 -0.01741
2046 358255.000  -2408348.0977   4698467.5584   3566472.5477   1   6   0.0077   0.0102   0.0087  -0.0056   0.0071  -0.0051   0.00    0.0    1.37560    2.75653   -2.59555   0.00396  0.00379  0.00382  0.00092 -0.00079  0.00062    0.09492    0.74596  218.38125   0.01424  0.01395  0.13251 -0.00213  0.00477 -0.01679
2046 358256.000  -2408346.7163   4698470.4342   3566469.8095   1   6   0.0077   0.0102   0.0087  -0.0056   0.0071  -0.0051   0.00    0.0    1.44309    2.96081   -2.75054   0.00398  0.00379  0.00383  0.00096 -0.00080  0.00054    0.23152    1.02111  218.04133   0.01423  0.01396  0.13327 -0.00212  0.00431 -0.01630
2046 358257.000  -2408345.2982   4698473.3868   3566466.9917   1   6   0.0077   0.0102   0.0087  -0.0056   0.0071  -0.0051   0.00    0.0    1.44656    2.93971   -2.85044   0.00398  0.00379  0.00383  0.00097 -0.00077  0.00052    0.29700    0.72089  218.37170   0.01422  0.01396  0.13410 -0.00210  0.00336 -0.01606
2046 358258.000  -2408343.8283   4698476.3853   3566464.1505   1   6   0.0078   0.0102   0.0087  -0.0056   0.0071  -0.0051   0.00    0.0    1.47277    3.02139   -2.84907   0.00400  0.00381  0.00384  0.00098 -0.00078  0.00052    0.29088    0.63096  218.77763   0.01423  0.01397  0.13496 -0.00208  0.00267 -0.01604
2046 358259.000  -2408342.3286   4698479.4055   3566461.3155   1   6   0.0078   0.0102   0.0087  -0.0056   0.0071  -0.0051   0.00    0.0    1.52693    3.00715   -2.82904   0.00400  0.00381  0.00383  0.00097 -0.00076  0.00050    0.23553    0.65937  219.21991   0.01423  0.01397  0.13581 -0.00210  0.00328 -0.01612
2046 358260.000  -2408340.8133   4698482.3985   3566458.5225   1   7   0.0078   0.0102   0.0087  -0.0056   0.0071  -0.0051   0.00    0.0    1.49793    2.98246   -2.73849   0.00403  0.00383  0.00383  0.00101 -0.00074  0.00057    0.34436    0.68674  219.34215   0.01423  0.01397  0.13659 -0.00215  0.00517 -0.01609
2046 358261.000  -2408339.3596   4698485.3706   3566455.7698   1   7   0.0073   0.0098   0.0085  -0.0055   0.0067  -0.0048   0.00    0.0    1.49104    2.95931   -2.73633   0.00390  0.00376  0.00381  0.00081 -0.00088  0.00069    0.21809    0.75898  219.43206   0.01422  0.01394  0.13719 -0.00223  0.00737 -0.01572
2046 358262.000  -2408337.8194   4698488.3094   3566453.0445   1   7   0.0076   0.0100   0.0085  -0.0054   0.0068  -0.0049   0.00    0.0    1.56303    2.89037   -2.72928   0.00401  0.00381  0.00382  0.00099 -0.00077  0.00059    0.19479    0.79012  220.52333   0.01421  0.01399  0.13773 -0.00229  0.00909 -0.01529
2046 358263.000  -2408336.2368   4698491.2464   3566450.3567   1   6   0.0077   0.0101   0.0086  -0.0055   0.0070  -0.0050   0.00    0.0    1.55554    2.92033   -2.70060   0.00401  0.00383  0.00383  0.00095 -0.00073  0.00056    0.51725    0.94096  220.67214   0.01420  0.01400  0.13822 -0.00236  0.01078 -0.01490
2046 358264.000  -2408334.7053   4698494.1780   3566447.6652   1   6   0.0077   0.0102   0.0086  -0.0055   0.0070  -0.0050   0.00    0.0    1.49719    2.90647   -2.70564   0.00398  0.00383  0.00383  0.00090 -0.00070  0.00055    0.40704    0.59269  219.76406   0.01418  0.01400  0.13882 -0.00241  0.01197 -0.01435
2046 358265.000  -2408333.2458   4698497.0968   3566444.9309   1   6   0.0077   0.0102   0.0087  -0.0056   0.0071  -0.0051   0.00    0.0    1.46067    2.92598   -2.72959   0.00398  0.00383  0.00384  0.00091 -0.00072  0.00053    0.32231    0.53522  219.23762   0.01416  0.01401  0.13954 -0.00240  0.01248 -0.01358
2046 358266.000  -2408331.7540   4698500.0980   3566442.1137   1   6   0.0077   0.0102   0.0087  -0.0056   0.0071  -0.0051   0.00    0.0    1.54212    3.05405   -2.86619   0.00400  0.00382  0.00384  0.00093 -0.00068  0.00052    0.42577    0.78576  218.93022   0.01415  0.01401  0.14038 -0.00238  0.01231 -0.01312
2046 358267.000  -2408330.2804   4698503.1034   3566439.2755   1   7   0.0078   0.0103   0.0087  -0.0056   0.0071  -0.0051   0.00    0.0    1.42864    2.89203   -2.74744   0.00399  0.00383  0.00383  0.00093 -0.00072  0.00055    0.12435    1.00894  218.37858   0.01415  0.01400  0.14121 -0.00235  0.01173 -0.01288
2046 358268.000  -2408328.9330   4698505.8991   3566436.6034   1   6   0.0078   0.0103   0.0087  -0.0056   0.0071  -0.0051   0.00    0.0    1.29141    2.70159   -2.54900   0.00404  0.00385  0.00386  0.00093 -0.00074  0.00082    0.18471    1.13339  217.85016   0.01413  0.01401  0.14195 -0.00232  0.01185 -0.01192
2046 358269.000  -2408327.7395   4698508.4584   3566434.1335   1   6   0.0078   0.0103   0.0087  -0.0056   0.0071  -0.0051   0.00    0.0    1.13705    2.46342   -2.34576   0.00412  0.00386  0.00388  0.00094 -0.00072  0.00105    0.25321    1.01416  217.16188   0.01412  0.01402  0.14192 -0.00228  0.01300 -0.00962
2046 358270.000  -2408326.6756   4698510.8385   3566431.8172   1   6   0.0078   0.0103   0.0087  -0.0056   0.0071  -0.0051   0.00    0.0    1.03986    2.45550   -2.39553   0.00401  0.00386  0.00384  0.00092 -0.00073  0.00075    0.36621    0.85351  216.33324   0.01410  0.01405  0.14104 -0.00219  0.01467 -0.00546
2046 358271.000  -2408325.5556   4698513.3943   3566429.3265   1   6   0.0078   0.0103   0.0087  -0.0056   0.0071  -0.0051   0.00    0.0    1.16090    2.58904   -2.54548   0.00400  0.00384  0.00384  0.00096 -0.00070  0.00060    0.19695    1.01091  216.39150   0.01410  0.01407  0.14151 -0.00211  0.01541  0.00157
2046 358272.000  -2408324.4042   4698515.9721   3566426.8175   1   6   0.0077   0.0103   0.0087  -0.0056   0.0071  -0.0051   0.00    0.0    1.12441    2.50228   -2.40691   0.00399  0.00384  0.00383  0.00093 -0.00071  0.00056    0.02225    1.05813  216.53043   0.01410  0.01407  0.14241 -0.00210  0.01537  0.00224
2046 358273.000  -2408323.3693   4698518.3682   3566424.4396   1   6   0.0077   0.0103   0.0087  -0.0056   0.0071  -0.0051   0.00    0.0    0.99159    2.39666   -2.36332   0.00398  0.00384  0.00383  0.00094 -0.00069  0.00055    0.07187    0.77547  215.67395   0.01411  0.01406  0.14330 -0.00210  0.01539  0.00239
2046 358274.000  -2408322.3384   4698520.7624   3566422.0759   1   6   0.0077   0.0103   0.0087  -0.0056   0.0071  -0.0051   0.00    0.0    1.01187    2.32799   -2.29453   0.00399  0.00385  0.00382  0.00094 -0.00070  0.00054    0.40791    0.89710  216.02530   0.01411  0.01406  0.14418 -0.00211  0.01527 -0.00108
2046 358275.000  -2408321.3683   4698522.9713   3566419.9218   1   6   0.0077   0.0103   0.0087  -0.0056   0.0071  -0.0051   0.00    0.0    0.91788    2.11449   -2.02515   0.00403  0.00386  0.00381  0.00098 -0.00068  0.00063    0.36512    0.76800  216.78153   0.01412  0.01407  0.14503 -0.00210  0.01573 -0.00183
2046 358276.000  -2408320.3767   4698525.1291   3566417.8450   1   6   0.0077   0.0103   0.0087  -0.0056   0.0071  -0.0051   0.00    0.0    1.07755    2.23467   -2.11456   0.00399  0.00385  0.00384  0.00090 -0.00078  0.00053    0.42122    1.10048  217.36838   0.01412  0.01409  0.14580 -0.00211  0.01642 -0.00297
2046 358277.000  -2408319.3160   4698527.3863   3566415.6903   1   7   0.0078   0.0103   0.0087  -0.0056   0.0071  -0.0051   0.00    0.0    1.12524    2.36226   -2.26321   0.00406  0.00383  0.00388  0.00090 -0.00074  0.00080    0.43739    0.87478  218.26206   0.01413  0.01410  0.14652 -0.00216  0.01661 -0.00565
2046 358278.000  -2408318.0863   4698529.8616   3566413.3596   1   8   0.0073   0.0098   0.0084  -0.0055   0.0067  -0.0048   0.00    0.0    1.33825    2.63713   -2.46059   0.00410  0.00374  0.00395  0.00060 -0.00091  0.00129    0.01236    1.41916  219.26004   0.01414  0.01403  0.14621 -0.00230  0.01561 -0.00946
2046 358279.000  -2408316.6975   4698532.5156   3566410.8798   1   8   0.0068   0.0092   0.0081  -0.0053   0.0062  -0.0044   0.00    0.0    1.45779    2.71769   -2.46902   0.00390  0.00366  0.00388  0.00035 -0.00101  0.00114    0.02822    0.98286  220.86472   0.01417  0.01395  0.14407 -0.00242  0.01336 -0.01313
2046 358280.000  -2408315.1587   4698535.2536   3566408.3869   1   8   0.0065   0.0088   0.0078  -0.0050   0.0058  -0.0041   0.00    0.0    1.63193    2.81814   -2.48291   0.00379  0.00363  0.00384  0.00029 -0.00109  0.00098   -0.03055    0.82159  222.74972   0.01422  0.01390  0.14181 -0.00246  0.01103 -0.01606
2046 358281.000  -2408313.5065   4698538.0515   3566405.8916   1   8   0.0063   0.0085   0.0076  -0.0048   0.0055  -0.0039   0.00    0.0    1.63125    2.82294   -2.52504   0.00369  0.00360  0.00375  0.00045 -0.00101  0.00074    0.10789    0.72070  222.85975   0.01428  0.01386  0.14075 -0.00249  0.00940 -0.01817
2046 358282.000  -2408311.8890   4698540.9233   3566403.3200   1   8   0.0058   0.0081   0.0073  -0.0047   0.0051  -0.0037   0.00    0.0    1.55581    2.90234   -2.58462   0.00353  0.00354  0.00371 -0.00028 -0.00107  0.00072    0.45981    0.44242  221.46996   0.01430  0.01378  0.14094 -0.00250  0.00781 -0.01932
2046 358283.000  -2408310.3466   4698543.8474   3566400.6655   1   7   0.0060   0.0082   0.0074  -0.0046   0.0051  -0.0036   0.00    0.0    1.53105    2.98282   -2.73446   0.00359  0.00359  0.00376  0.00032 -0.00111  0.00069    0.79707    0.56108  219.96420   0.01429  0.01378  0.14166 -0.00240  0.00605 -0.01942
2046 358284.000  -2408308.8126   4698546.9249   3566397.8541   1   7   0.0061   0.0082   0.0075  -0.0046   0.0051  -0.0037   0.00    0.0    1.55024    3.13894   -2.88339   0.00357  0.00358  0.00375  0.00026 -0.00108  0.00065    0.73236    0.75233  219.37507   0.01425  0.01375  0.14209 -0.00225 -0.00146 -0.01903
2046 358285.000  -2408307.2604   4698550.0911   3566394.9386   1   9   0.0061   0.0083   0.0075  -0.0046   0.0051  -0.0037   0.00    0.0    1.57241    3.17703   -2.94780   0.00355  0.00356  0.00374 -0.00024 -0.00106  0.00070    0.52728    0.91704  219.04127   0.01421  0.01374  0.14243 -0.00207 -0.00640 -0.01841
