% program   : GINav v0.1.0
% obs start : 2019/03/28 03:17:33.0
% obs end   : 2019/03/28 03:59:01.0
% mode      : SPP
% system    : GPS BDS 
% nfreqs    : 1
% elev mask : 15.0 deg
% ephemeris : broadcast
% ionos opt : broadcast model
% trops opt : Saastamoinen model
%
%  GPST          latitude(deg) longitude(deg)  height(m)   Q  ns   sdn(m)   sde(m)   sdu(m)  sdne(m)  sdeu(m)  sdun(m) age(s)  ratio    vn(m/s)    ve(m/s)    vu(m/s)      sdvn     sdve     sdvu    sdvne    sdveu    sdvun
2046 357455.000   34.220319791  117.143986566    30.3387   5   6   9.1748  17.3442  18.1289  12.1156 -11.8068 -16.3754   0.00    0.0    0.08875    0.04617   -0.10996   0.00000  0.00000  0.00000  0.00000  0.00000  0.00000
2046 357456.000   34.220303714  117.143975138    32.3855   5   8   2.6938   4.0872   7.6302  -0.8496   0.7990   2.1789   0.00    0.0   -0.00751   -0.00815    0.01625   0.00000  0.00000  0.00000  0.00000  0.00000  0.00000
2046 357457.000   34.220302710  117.143974450    32.3879   5   8   2.6940   4.0865   7.6297  -0.8488   0.8014   2.1773   0.00    0.0   -0.00063   -0.00106   -0.02375   0.00000  0.00000  0.00000  0.00000  0.00000  0.00000
2046 357458.000   34.220302431  117.143974843    32.3015   5   8   2.6942   4.0857   7.6292  -0.8481   0.8038   2.1757   0.00    0.0   -0.02945    0.00313   -0.00331   0.00000  0.00000  0.00000  0.00000  0.00000  0.00000
2046 357459.000   34.220298788  117.143976384    32.5108   5  10   2.3558   3.1497   6.6850  -0.7757  -1.9432   1.1423   0.00    0.0   -0.01236   -0.00202    0.00227   0.00000  0.00000  0.00000  0.00000  0.00000  0.00000
2046 357460.000   34.220295786  117.143976718    32.1061   5  11   2.3529   2.9660   6.4211  -0.6918  -1.8864  -0.8166   0.00    0.0    0.00239   -0.00762   -0.03734   0.00000  0.00000  0.00000  0.00000  0.00000  0.00000
2046 357461.000   34.220297658  117.143977223    32.4207   5  16   1.9639   2.8107   5.1419   0.7078   0.3529  -1.7242   0.00    0.0   -0.01508    0.00385   -0.01692   0.00000  0.00000  0.00000  0.00000  0.00000  0.00000
2046 357462.000   34.220296318  117.143975712    32.0260   5  19   1.7036   2.7795   4.1874   0.6440  -0.8262  -1.6603   0.00    0.0   -0.00288    0.00341   -0.01201   0.00000  0.00000  0.00000  0.00000  0.00000  0.00000
2046 357463.000   34.220296230  117.143975502    31.8179   5  19   1.7036   2.7795   4.1875   0.6440  -0.8259  -1.6603   0.00    0.0    0.00523    0.00039    0.00324   0.00000  0.00000  0.00000  0.00000  0.00000  0.00000
2046 357464.000   34.220295948  117.143975269    31.8068   5  19   1.7036   2.7795   4.1877   0.6439  -0.8257  -1.6604   0.00    0.0    0.01316    0.00124    0.00142   0.00000  0.00000  0.00000  0.00000  0.00000  0.00000
2046 357465.000   34.220295371  117.143975300    31.8515   5  19   1.7036   2.7795   4.1878   0.6439  -0.8254  -1.6604   0.00    0.0    0.00162    0.01326   -0.02845   0.00000  0.00000  0.00000  0.00000  0.00000  0.00000
2046 357466.000   34.220295104  117.143974914    31.8752   5  19   1.7036   2.7794   4.1879   0.6438  -0.8252  -1.6605   0.00    0.0   -0.00945   -0.00240   -0.01303   0.00000  0.00000  0.00000  0.00000  0.00000  0.00000
2046 357467.000   34.220294802  117.143974621    31.9100   5  19   1.7037   2.7794   4.1881   0.6437  -0.8250  -1.6606   0.00    0.0   -0.00367    0.00123   -0.00970   0.00000  0.00000  0.00000  0.00000  0.00000  0.00000
2046 357468.000   34.220294661  117.143974520    31.9153   5  19   1.7037   2.7794   4.1882   0.6437  -0.8247  -1.6606   0.00    0.0    0.00061    0.00778    0.00671   0.00000  0.00000  0.00000  0.00000  0.00000  0.00000
2046 357469.000   34.220294568  117.143974416    31.9219   5  19   1.7037   2.7794   4.1884   0.6436  -0.8245  -1.6607   0.00    0.0   -0.00009    0.00619    0.00513   0.00000  0.00000  0.00000  0.00000  0.00000  0.00000
2046 357470.000   34.220294629  117.143974437    31.9042   5  19   1.7037   2.7794   4.1885   0.6435  -0.8242  -1.6607   0.00    0.0   -0.00713   -0.00356    0.00817   0.00000  0.00000  0.00000  0.00000  0.00000  0.00000
2046 357471.000   34.220294604  117.143974389    31.8650   5  19   1.7037   2.7794   4.1887   0.6435  -0.8240  -1.6608   0.00    0.0    0.00252   -0.01037    0.00413   0.00000  0.00000  0.00000  0.00000  0.00000  0.00000
2046 357472.000   34.220294467  117.143974396    31.8612   5  19   1.7038   2.7794   4.1888   0.6434  -0.8238  -1.6609   0.00    0.0   -0.00859    0.00490   -0.00887   0.00000  0.00000  0.00000  0.00000  0.00000  0.00000
2046 357473.000   34.220294517  117.143974397    31.8243   5  19   1.7038   2.7794   4.1890   0.6433  -0.8235  -1.6609   0.00    0.0    0.00285   -0.01316    0.00431   0.00000  0.00000  0.00000  0.00000  0.00000  0.00000
2046 357474.000   34.220294526  117.143974417    31.8097   5  19   1.7038   2.7794   4.1891   0.6433  -0.8233  -1.6610   0.00    0.0    0.00428    0.00151   -0.01876   0.00000  0.00000  0.00000  0.00000  0.00000  0.00000
2046 357475.000   34.220294598  117.143974469    31.8003   5  19   1.7038   2.7794   4.1893   0.6432  -0.8230  -1.6610   0.00    0.0   -0.00614   -0.00841   -0.00442   0.00000  0.00000  0.00000  0.00000  0.00000  0.00000
2046 357476.000   34.220294523  117.143974500    31.7818   5  19   1.7038   2.7794   4.1894   0.6431  -0.8228  -1.6611   0.00    0.0   -0.00615    0.00145    0.02125   0.00000  0.00000  0.00000  0.00000  0.00000  0.00000
2046 357477.000   34.220294587  117.143974522    31.7707   5  19   1.7038   2.7794   4.1895   0.6431  -0.8225  -1.6612   0.00    0.0    0.00836   -0.00503    0.00458   0.00000  0.00000  0.00000  0.00000  0.00000  0.00000
2046 357478.000   34.220294597  117.143974538    31.7565   5  19   1.7039   2.7794   4.1897   0.6430  -0.8223  -1.6612   0.00    0.0   -0.00979    0.02681   -0.01165   0.00000  0.00000  0.00000  0.00000  0.00000  0.00000
2046 357479.000   34.220294521  117.143974562    31.7253   5  19   1.7039   2.7794   4.1898   0.6429  -0.8221  -1.6613   0.00    0.0   -0.00682    0.02552   -0.04348   0.00000  0.00000  0.00000  0.00000  0.00000  0.00000
2046 357480.000   34.220294531  117.143974620    31.6890   5  19   1.7039   2.7794   4.1900   0.6429  -0.8218  -1.6613   0.00    0.0   -0.00292   -0.00319    0.02129   0.00000  0.00000  0.00000  0.00000  0.00000  0.00000
2046 357481.000   34.220294539  117.143974651    31.6562   5  19   1.7039   2.7794   4.1901   0.6428  -0.8216  -1.6614   0.00    0.0    0.00718   -0.00176   -0.00021   0.00000  0.00000  0.00000  0.00000  0.00000  0.00000
2046 357482.000   34.220294617  117.143974607    31.6452   5  19   1.7039   2.7794   4.1903   0.6427  -0.8213  -1.6615   0.00    0.0    0.01343    0.00034   -0.02929   0.00000  0.00000  0.00000  0.00000  0.00000  0.00000
2046 357483.000   34.220294572  117.143974553    31.6254   5  19   1.7040   2.7794   4.1904   0.6427  -0.8211  -1.6615   0.00    0.0    0.00526   -0.00199    0.00643   0.00000  0.00000  0.00000  0.00000  0.00000  0.00000
2046 357484.000   34.220294484  117.143974564    31.6238   5  19   1.7040   2.7794   4.1906   0.6426  -0.8209  -1.6616   0.00    0.0   -0.00513    0.01154   -0.00892   0.00000  0.00000  0.00000  0.00000  0.00000  0.00000
2046 357485.000   34.220294529  117.143974545    31.6205   5  19   1.7040   2.7794   4.1907   0.6425  -0.8206  -1.6617   0.00    0.0    0.00253    0.00458    0.03479   0.00000  0.00000  0.00000  0.00000  0.00000  0.00000
2046 357486.000   34.220294618  117.143974579    31.6132   5  19   1.7040   2.7794   4.1909   0.6425  -0.8204  -1.6617   0.00    0.0    0.01020   -0.00383   -0.03820   0.00000  0.00000  0.00000  0.00000  0.00000  0.00000
2046 357487.000   34.220294609  117.143974625    31.5989   5  19   1.7040   2.7794   4.1910   0.6424  -0.8201  -1.6618   0.00    0.0    0.00032    0.00481   -0.02167   0.00000  0.00000  0.00000  0.00000  0.00000  0.00000
2046 357488.000   34.220294693  117.143974628    31.5946   5  19   1.7040   2.7794   4.1911   0.6423  -0.8199  -1.6618   0.00    0.0    0.01798    0.00263    0.00982   0.00000  0.00000  0.00000  0.00000  0.00000  0.00000
2046 357489.000   34.220294692  117.143974642    31.5861   5  19   1.7041   2.7794   4.1913   0.6423  -0.8196  -1.6619   0.00    0.0   -0.00908    0.00485   -0.00812   0.00000  0.00000  0.00000  0.00000  0.00000  0.00000
2046 357490.000   34.220294683  117.143974686    31.5590   5  19   1.7041   2.7793   4.1914   0.6422  -0.8194  -1.6620   0.00    0.0   -0.00087    0.00814    0.00062   0.00000  0.00000  0.00000  0.00000  0.00000  0.00000
2046 357491.000   34.220294752  117.143974681    31.5279   5  19   1.7041   2.7793   4.1916   0.6421  -0.8192  -1.6620   0.00    0.0    0.00737   -0.00874   -0.00311   0.00000  0.00000  0.00000  0.00000  0.00000  0.00000
2046 357492.000   34.220294729  117.143974727    31.5001   5  19   1.7041   2.7793   4.1917   0.6421  -0.8189  -1.6621   0.00    0.0   -0.00533   -0.00943   -0.01304   0.00000  0.00000  0.00000  0.00000  0.00000  0.00000
2046 357493.000   34.220294753  117.143974802    31.4901   5  19   1.7041   2.7793   4.1919   0.6420  -0.8187  -1.6622   0.00    0.0    0.00579    0.01131   -0.00102   0.00000  0.00000  0.00000  0.00000  0.00000  0.00000
2046 357494.000   34.220294777  117.143974813    31.4784   5  19   1.7042   2.7793   4.1920   0.6419  -0.8184  -1.6622   0.00    0.0   -0.00006    0.01283   -0.02492   0.00000  0.00000  0.00000  0.00000  0.00000  0.00000
2046 357495.000   34.220294760  117.143974830    31.4767   5  19   1.7042   2.7793   4.1922   0.6419  -0.8182  -1.6623   0.00    0.0    0.00310    0.00201    0.00237   0.00000  0.00000  0.00000  0.00000  0.00000  0.00000
2046 357496.000   34.220294761  117.143974901    31.4820   5  19   1.7042   2.7793   4.1923   0.6418  -0.8179  -1.6623   0.00    0.0   -0.00815    0.01061    0.02092   0.00000  0.00000  0.00000  0.00000  0.00000  0.00000
2046 357497.000   34.220294779  117.143974850    31.4793   5  19   1.7042   2.7793   4.1925   0.6417  -0.8177  -1.6624   0.00    0.0   -0.00051    0.01515    0.00915   0.00000  0.00000  0.00000  0.00000  0.00000  0.00000
2046 357498.000   34.220294871  117.143974850    31.4803   5  19   1.7042   2.7793   4.1926   0.6417  -0.8175  -1.6625   0.00    0.0    0.00001   -0.00517    0.03022   0.00000  0.00000  0.00000  0.00000  0.00000  0.00000
2046 357499.000   34.220294924  117.143974882    31.4661   5  19   1.7043   2.7793   4.1927   0.6416  -0.8172  -1.6625   0.00    0.0    0.00769    0.00133   -0.00130   0.00000  0.00000  0.00000  0.00000  0.00000  0.00000
2046 357500.000   34.220294960  117.143974902    31.4737   5  19   1.7043   2.7793   4.1929   0.6415  -0.8170  -1.6626   0.00    0.0   -0.00655    0.01030   -0.00105   0.00000  0.00000  0.00000  0.00000  0.00000  0.00000
2046 357501.000   34.220294944  117.143974889    31.4697   5  19   1.7043   2.7793   4.1930   0.6415  -0.8167  -1.6627   0.00    0.0   -0.00472    0.00810    0.00028   0.00000  0.00000  0.00000  0.00000  0.00000  0.00000
2046 357502.000   34.220294995  117.143974885    31.4746   5  19   1.7043   2.7793   4.1932   0.6414  -0.8165  -1.6627   0.00    0.0    0.01026    0.01021   -0.00371   0.00000  0.00000  0.00000  0.00000  0.00000  0.00000
2046 357503.000   34.220295036  117.143974879    31.4719   5  19   1.7043   2.7793   4.1933   0.6413  -0.8163  -1.6628   0.00    0.0    0.01115    0.00040    0.00363   0.00000  0.00000  0.00000  0.00000  0.00000  0.00000
2046 357504.000   34.220295070  117.143974863    31.4741   5  19   1.7043   2.7793   4.1935   0.6413  -0.8160  -1.6629   0.00    0.0   -0.00526   -0.00044    0.00817   0.00000  0.00000  0.00000  0.00000  0.00000  0.00000
2046 357505.000   34.220295098  117.143974879    31.4694   5  19   1.7044   2.7793   4.1936   0.6412  -0.8158  -1.6629   0.00    0.0    0.00630    0.00587   -0.02339   0.00000  0.00000  0.00000  0.00000  0.00000  0.00000
2046 357506.000   34.220295141  117.143974851    31.4623   5  19   1.7044   2.7793   4.1938   0.6411  -0.8155  -1.6630   0.00    0.0    0.01541   -0.00221   -0.00347   0.00000  0.00000  0.00000  0.00000  0.00000  0.00000
2046 357507.000   34.220295125  117.143974850    31.4629   5  19   1.7044   2.7793   4.1939   0.6411  -0.8153  -1.6630   0.00    0.0   -0.00070    0.00936   -0.00898   0.00000  0.00000  0.00000  0.00000  0.00000  0.00000
2046 357508.000   34.220295197  117.143974934    31.4530   5  19   1.7044   2.7793   4.1940   0.6410  -0.8150  -1.6631   0.00    0.0    0.00014    0.00521   -0.02408   0.00000  0.00000  0.00000  0.00000  0.00000  0.00000
2046 357509.000   34.220295224  117.143974932    31.4450   5  19   1.7044   2.7793   4.1942   0.6409  -0.8148  -1.6632   0.00    0.0   -0.00193   -0.01010    0.00242   0.00000  0.00000  0.00000  0.00000  0.00000  0.00000
2046 357510.000   34.220295201  117.143974950    31.4520   5  19   1.7045   2.7793   4.1943   0.6409  -0.8145  -1.6632   0.00    0.0   -0.01113   -0.00260    0.00716   0.00000  0.00000  0.00000  0.00000  0.00000  0.00000
2046 357511.000   34.220295149  117.143974962    31.4591   5  19   1.7045   2.7792   4.1945   0.6408  -0.8143  -1.6633   0.00    0.0    0.00282    0.00400    0.02573   0.00000  0.00000  0.00000  0.00000  0.00000  0.00000
2046 357512.000   34.220295213  117.143975003    31.4574   5  19   1.7045   2.7792   4.1946   0.6407  -0.8141  -1.6634   0.00    0.0    0.00713    0.01384   -0.01417   0.00000  0.00000  0.00000  0.00000  0.00000  0.00000
2046 357513.000   34.220295223  117.143974960    31.4602   5  19   1.7045   2.7792   4.1948   0.6407  -0.8138  -1.6634   0.00    0.0   -0.01413    0.00315    0.01342   0.00000  0.00000  0.00000  0.00000  0.00000  0.00000
2046 357514.000   34.220295267  117.143975008    31.4565   5  19   1.7045   2.7792   4.1949   0.6406  -0.8136  -1.6635   0.00    0.0   -0.01087    0.00411    0.00322   0.00000  0.00000  0.00000  0.00000  0.00000  0.00000
2046 357515.000   34.220295295  117.143975025    31.4714   5  19   1.7046   2.7792   4.1951   0.6405  -0.8133  -1.6636   0.00    0.0    0.00194   -0.00168    0.03260   0.00000  0.00000  0.00000  0.00000  0.00000  0.00000
2046 357516.000   34.220295302  117.143974962    31.4664   5  19   1.7046   2.7792   4.1952   0.6405  -0.8131  -1.6636   0.00    0.0    0.00829   -0.00312   -0.01626   0.00000  0.00000  0.00000  0.00000  0.00000  0.00000
2046 357517.000   34.220295271  117.143974928    31.4740   5  19   1.7046   2.7792   4.1953   0.6404  -0.8128  -1.6637   0.00    0.0   -0.00249    0.00806   -0.00660   0.00000  0.00000  0.00000  0.00000  0.00000  0.00000
2046 357518.000   34.220295293  117.143974914    31.4798   5  19   1.7046   2.7792   4.1955   0.6403  -0.8126  -1.6638   0.00    0.0    0.00552   -0.00028   -0.01596   0.00000  0.00000  0.00000  0.00000  0.00000  0.00000
2046 357519.000   34.220295295  117.143974879    31.4915   5  19   1.7046   2.7792   4.1956   0.6403  -0.8124  -1.6638   0.00    0.0    0.01827   -0.01607    0.02333   0.00000  0.00000  0.00000  0.00000  0.00000  0.00000
2046 357520.000   34.220295274  117.143974829    31.5023   5  19   1.7047   2.7792   4.1958   0.6402  -0.8121  -1.6639   0.00    0.0   -0.01135    0.00210    0.02714   0.00000  0.00000  0.00000  0.00000  0.00000  0.00000
2046 357521.000   34.220295338  117.143974819    31.5110   5  19   1.7047   2.7792   4.1959   0.6401  -0.8119  -1.6640   0.00    0.0   -0.00091    0.00673    0.00101   0.00000  0.00000  0.00000  0.00000  0.00000  0.00000
2046 357522.000   34.220295307  117.143974810    31.5171   5  19   1.7047   2.7792   4.1961   0.6401  -0.8116  -1.6640   0.00    0.0   -0.00467   -0.00059   -0.02051   0.00000  0.00000  0.00000  0.00000  0.00000  0.00000
2046 357523.000   34.220295335  117.143974782    31.5108   5  19   1.7047   2.7792   4.1962   0.6400  -0.8114  -1.6641   0.00    0.0   -0.00064    0.00015   -0.02024   0.00000  0.00000  0.00000  0.00000  0.00000  0.00000
2046 357524.000   34.220295318  117.143974770    31.5210   5  19   1.7047   2.7792   4.1964   0.6399  -0.8111  -1.6642   0.00    0.0    0.00301   -0.00439   -0.00431   0.00000  0.00000  0.00000  0.00000  0.00000  0.00000
2046 357525.000   34.220295305  117.143974736    31.5325   5  19   1.7047   2.7792   4.1965   0.6399  -0.8109  -1.6642   0.00    0.0    0.01105   -0.00166    0.01725   0.00000  0.00000  0.00000  0.00000  0.00000  0.00000
2046 357526.000   34.220295356  117.143974746    31.5420   5  19   1.7048   2.7792   4.1966   0.6398  -0.8107  -1.6643   0.00    0.0   -0.02214    0.00048    0.00669   0.00000  0.00000  0.00000  0.00000  0.00000  0.00000
2046 357527.000   34.220295422  117.143974744    31.5378   5  19   1.7048   2.7792   4.1968   0.6397  -0.8104  -1.6644   0.00    0.0   -0.00496   -0.01018    0.03221   0.00000  0.00000  0.00000  0.00000  0.00000  0.00000
2046 357528.000   34.220295420  117.143974735    31.5492   5  19   1.7048   2.7792   4.1969   0.6397  -0.8102  -1.6644   0.00    0.0   -0.00055    0.00583   -0.00381   0.00000  0.00000  0.00000  0.00000  0.00000  0.00000
2046 357529.000   34.220295419  117.143974753    31.5503   5  19   1.7048   2.7792   4.1971   0.6396  -0.8099  -1.6645   0.00    0.0    0.00301   -0.00574    0.00843   0.00000  0.00000  0.00000  0.00000  0.00000  0.00000
2046 357530.000   34.220295457  117.143974780    31.5518   5  19   1.7048   2.7791   4.1972   0.6396  -0.8097  -1.6646   0.00    0.0    0.00679    0.00585    0.00115   0.00000  0.00000  0.00000  0.00000  0.00000  0.00000
2046 357531.000   34.220295449  117.143974746    31.5631   5  19   1.7049   2.7791   4.1974   0.6395  -0.8094  -1.6646   0.00    0.0    0.00070    0.01002   -0.00172   0.00000  0.00000  0.00000  0.00000  0.00000  0.00000
2046 357532.000   34.220295457  117.143974741    31.5701   5  19   1.7049   2.7791   4.1975   0.6394  -0.8092  -1.6647   0.00    0.0   -0.00331   -0.00240   -0.00635   0.00000  0.00000  0.00000  0.00000  0.00000  0.00000
2046 357533.000   34.220295494  117.143974732    31.5746   5  19   1.7049   2.7791   4.1976   0.6394  -0.8089  -1.6648   0.00    0.0   -0.00550   -0.00067   -0.02390   0.00000  0.00000  0.00000  0.00000  0.00000  0.00000
2046 357534.000   34.220295519  117.143974690    31.5814   5  19   1.7049   2.7791   4.1978   0.6393  -0.8087  -1.6648   0.00    0.0    0.01518    0.00591   -0.02098   0.00000  0.00000  0.00000  0.00000  0.00000  0.00000
2046 357535.000   34.220295457  117.143974654    31.5885   5  19   1.7049   2.7791   4.1979   0.6392  -0.8085  -1.6649   0.00    0.0    0.00624   -0.00756   -0.01352   0.00000  0.00000  0.00000  0.00000  0.00000  0.00000
2046 357536.000   34.220295448  117.143974662    31.5941   5  19   1.7050   2.7791   4.1981   0.6392  -0.8082  -1.6650   0.00    0.0   -0.00492   -0.00557    0.00541   0.00000  0.00000  0.00000  0.00000  0.00000  0.00000
2046 357537.000   34.220295468  117.143974707    31.6021   5  19   1.7050   2.7791   4.1982   0.6391  -0.8080  -1.6650   0.00    0.0   -0.00123   -0.01658    0.00408   0.00000  0.00000  0.00000  0.00000  0.00000  0.00000
2046 357538.000   34.220295481  117.143974672    31.5975   5  19   1.7050   2.7791   4.1984   0.6390  -0.8077  -1.6651   0.00    0.0    0.01008   -0.00476   -0.00612   0.00000  0.00000  0.00000  0.00000  0.00000  0.00000
2046 357539.000   34.220295482  117.143974622    31.6112   5  19   1.7050   2.7791   4.1985   0.6390  -0.8075  -1.6652   0.00    0.0    0.00468    0.00078   -0.00801   0.00000  0.00000  0.00000  0.00000  0.00000  0.00000
2046 357540.000   34.220295445  117.143974663    31.6119   5  19   1.7050   2.7791   4.1987   0.6389  -0.8072  -1.6652   0.00    0.0    0.01001    0.01666   -0.00631   0.00000  0.00000  0.00000  0.00000  0.00000  0.00000
2046 357541.000   34.220295443  117.143974626    31.6164   5  19   1.7051   2.7791   4.1988   0.6388  -0.8070  -1.6653   0.00    0.0    0.00197   -0.00654    0.01139   0.00000  0.00000  0.00000  0.00000  0.00000  0.00000
2046 357542.000   34.220295462  117.143974649    31.6238   5  19   1.7051   2.7791   4.1989   0.6388  -0.8067  -1.6654   0.00    0.0   -0.00508    0.00807    0.00952   0.00000  0.00000  0.00000  0.00000  0.00000  0.00000
2046 357543.000   34.220295525  117.143974603    31.6371   5  19   1.7051   2.7791   4.1991   0.6387  -0.8065  -1.6654   0.00    0.0    0.00317   -0.00679   -0.00812   0.00000  0.00000  0.00000  0.00000  0.00000  0.00000
2046 357544.000   34.220295489  117.143974621    31.6485   5  19   1.7051   2.7791   4.1992   0.6386  -0.8063  -1.6655   0.00    0.0    0.01096    0.00993    0.01470   0.00000  0.00000  0.00000  0.00000  0.00000  0.00000
2046 357545.000   34.220295504  117.143974629    31.6536   5  19   1.7051   2.7791   4.1994   0.6386  -0.8060  -1.6656   0.00    0.0   -0.01020   -0.00303    0.01235   0.00000  0.00000  0.00000  0.00000  0.00000  0.00000
2046 357546.000   34.220295501  117.143974610    31.6509   5  19   1.7052   2.7791   4.1995   0.6385  -0.8058  -1.6657   0.00    0.0   -0.00768   -0.00514   -0.00278   0.00000  0.00000  0.00000  0.00000  0.00000  0.00000
2046 357547.000   34.220295544  117.143974634    31.6576   5  19   1.7052   2.7790   4.1997   0.6384  -0.8055  -1.6657   0.00    0.0    0.01299    0.00862   -0.00117   0.00000  0.00000  0.00000  0.00000  0.00000  0.00000
2046 357548.000   34.220295472  117.143974651    31.6503   5  19   1.7052   2.7790   4.1998   0.6384  -0.8053  -1.6658   0.00    0.0   -0.00765    0.00419   -0.04197   0.00000  0.00000  0.00000  0.00000  0.00000  0.00000
2046 357549.000   34.220295472  117.143974656    31.6497   5  19   1.7052   2.7790   4.1999   0.6383  -0.8050  -1.6659   0.00    0.0   -0.00365   -0.00084   -0.00580   0.00000  0.00000  0.00000  0.00000  0.00000  0.00000
2046 357550.000   34.220295445  117.143974597    31.6557   5  19   1.7052   2.7790   4.2001   0.6382  -0.8048  -1.6659   0.00    0.0   -0.00476    0.00569   -0.02131   0.00000  0.00000  0.00000  0.00000  0.00000  0.00000
2046 357551.000   34.220295449  117.143974581    31.6616   5  19   1.7053   2.7790   4.2002   0.6382  -0.8045  -1.6660   0.00    0.0   -0.00584   -0.01015    0.01752   0.00000  0.00000  0.00000  0.00000  0.00000  0.00000
2046 357552.000   34.220295494  117.143974588    31.6591   5  19   1.7053   2.7790   4.2004   0.6381  -0.8043  -1.6661   0.00    0.0   -0.00464   -0.00367    0.00019   0.00000  0.00000  0.00000  0.00000  0.00000  0.00000
2046 357553.000   34.220295473  117.143974637    31.6519   5  19   1.7053   2.7790   4.2005   0.6380  -0.8040  -1.6661   0.00    0.0    0.01811   -0.00504   -0.01297   0.00000  0.00000  0.00000  0.00000  0.00000  0.00000
2046 357554.000   34.220295417  117.143974653    31.6566   5  19   1.7053   2.7790   4.2007   0.6380  -0.8038  -1.6662   0.00    0.0   -0.02864   -0.00264   -0.00463   0.00000  0.00000  0.00000  0.00000  0.00000  0.00000
2046 357555.000   34.220295465  117.143974637    31.6585   5  19   1.7053   2.7790   4.2008   0.6379  -0.8036  -1.6663   0.00    0.0    0.00288   -0.00180   -0.00729   0.00000  0.00000  0.00000  0.00000  0.00000  0.00000
2046 357556.000   34.220295457  117.143974644    31.6544   5  19   1.7054   2.7790   4.2009   0.6378  -0.8033  -1.6664   0.00    0.0    0.00530   -0.00322   -0.01095   0.00000  0.00000  0.00000  0.00000  0.00000  0.00000
2046 357557.000   34.220295482  117.143974683    31.6584   5  19   1.7054   2.7790   4.2011   0.6378  -0.8031  -1.6664   0.00    0.0   -0.00189    0.00498    0.01537   0.00000  0.00000  0.00000  0.00000  0.00000  0.00000
2046 357558.000   34.220295486  117.143974728    31.6484   5  19   1.7054   2.7790   4.2012   0.6377  -0.8028  -1.6665   0.00    0.0    0.00418    0.00295    0.01947   0.00000  0.00000  0.00000  0.00000  0.00000  0.00000
2046 357559.000   34.220295481  117.143974717    31.6436   5  19   1.7054   2.7790   4.2014   0.6376  -0.8026  -1.6666   0.00    0.0    0.00983   -0.01087   -0.01108   0.00000  0.00000  0.00000  0.00000  0.00000  0.00000
2046 357560.000   34.220295471  117.143974790    31.6421   5  19   1.7054   2.7790   4.2015   0.6376  -0.8023  -1.6666   0.00    0.0   -0.00918    0.01039    0.00083   0.00000  0.00000  0.00000  0.00000  0.00000  0.00000
2046 357561.000   34.220295481  117.143974789    31.6483   5  19   1.7055   2.7790   4.2017   0.6375  -0.8021  -1.6667   0.00    0.0   -0.00525   -0.00017    0.00432   0.00000  0.00000  0.00000  0.00000  0.00000  0.00000
2046 357562.000   34.220295475  117.143974776    31.6546   5  19   1.7055   2.7790   4.2018   0.6374  -0.8018  -1.6668   0.00    0.0   -0.00933    0.01868   -0.00566   0.00000  0.00000  0.00000  0.00000  0.00000  0.00000
2046 357563.000   34.220295454  117.143974751    31.6636   5  19   1.7055   2.7789   4.2020   0.6374  -0.8016  -1.6668   0.00    0.0   -0.00143    0.00057   -0.00891   0.00000  0.00000  0.00000  0.00000  0.00000  0.00000
2046 357564.000   34.220295440  117.143974789    31.6654   5  19   1.7055   2.7789   4.2021   0.6373  -0.8013  -1.6669   0.00    0.0    0.00345   -0.00325   -0.00897   0.00000  0.00000  0.00000  0.00000  0.00000  0.00000
2046 357565.000   34.220295485  117.143974768    31.6698   5  19   1.7055   2.7789   4.2022   0.6372  -0.8011  -1.6670   0.00    0.0    0.00394   -0.00410    0.00419   0.00000  0.00000  0.00000  0.00000  0.00000  0.00000
2046 357566.000   34.220295480  117.143974767    31.6750   5  19   1.7056   2.7789   4.2024   0.6372  -0.8008  -1.6671   0.00    0.0    0.00104   -0.00108   -0.00153   0.00000  0.00000  0.00000  0.00000  0.00000  0.00000
2046 357567.000   34.220295495  117.143974754    31.6839   5  19   1.7056   2.7789   4.2025   0.6371  -0.8006  -1.6671   0.00    0.0    0.01443    0.00196   -0.00180   0.00000  0.00000  0.00000  0.00000  0.00000  0.00000
2046 357568.000   34.220295543  117.143974717    31.6878   5  19   1.7056   2.7789   4.2027   0.6370  -0.8004  -1.6672   0.00    0.0   -0.00806   -0.00196   -0.00376   0.00000  0.00000  0.00000  0.00000  0.00000  0.00000
2046 357569.000   34.220295503  117.143974718    31.6917   5  19   1.7056   2.7789   4.2028   0.6370  -0.8001  -1.6673   0.00    0.0   -0.00285   -0.00429   -0.00233   0.00000  0.00000  0.00000  0.00000  0.00000  0.00000
2046 357570.000   34.220295498  117.143974713    31.6862   5  19   1.7056   2.7789   4.2029   0.6369  -0.7999  -1.6674   0.00    0.0   -0.00644   -0.00499   -0.02686   0.00000  0.00000  0.00000  0.00000  0.00000  0.00000
2046 357571.000   34.220295515  117.143974742    31.6781   5  19   1.7057   2.7789   4.2031   0.6368  -0.7996  -1.6674   0.00    0.0   -0.01417   -0.00630   -0.01135   0.00000  0.00000  0.00000  0.00000  0.00000  0.00000
2046 357572.000   34.220295540  117.143974732    31.6941   5  19   1.7057   2.7789   4.2032   0.6368  -0.7994  -1.6675   0.00    0.0    0.01224    0.00528   -0.00783   0.00000  0.00000  0.00000  0.00000  0.00000  0.00000
2046 357573.000   34.220295495  117.143974776    31.6904   5  19   1.7057   2.7789   4.2034   0.6367  -0.7991  -1.6676   0.00    0.0   -0.01772    0.01089   -0.01407   0.00000  0.00000  0.00000  0.00000  0.00000  0.00000
2046 357574.000   34.220295535  117.143974716    31.6946   5  19   1.7057   2.7789   4.2035   0.6366  -0.7989  -1.6676   0.00    0.0   -0.00005   -0.00943    0.02539   0.00000  0.00000  0.00000  0.00000  0.00000  0.00000
2046 357575.000   34.220295511  117.143974755    31.6994   5  19   1.7057   2.7789   4.2037   0.6366  -0.7986  -1.6677   0.00    0.0    0.00102   -0.01014    0.00285   0.00000  0.00000  0.00000  0.00000  0.00000  0.00000
2046 357576.000   34.220295513  117.143974731    31.7017   5  19   1.7058   2.7789   4.2038   0.6365  -0.7984  -1.6678   0.00    0.0   -0.02278    0.00124    0.02240   0.00000  0.00000  0.00000  0.00000  0.00000  0.00000
2046 357577.000   34.220295516  117.143974743    31.6904   5  19   1.7058   2.7789   4.2039   0.6364  -0.7981  -1.6679   0.00    0.0    0.00762   -0.00429   -0.01489   0.00000  0.00000  0.00000  0.00000  0.00000  0.00000
2046 357578.000   34.220295508  117.143974732    31.7008   5  19   1.7058   2.7788   4.2041   0.6364  -0.7979  -1.6679   0.00    0.0   -0.00361   -0.00599    0.00481   0.00000  0.00000  0.00000  0.00000  0.00000  0.00000
2046 357579.000   34.220295545  117.143974752    31.6994   5  19   1.7058   2.7788   4.2042   0.6363  -0.7976  -1.6680   0.00    0.0   -0.01837    0.00383    0.00268   0.00000  0.00000  0.00000  0.00000  0.00000  0.00000
2046 357580.000   34.220295531  117.143974748    31.7002   5  19   1.7059   2.7788   4.2044   0.6362  -0.7974  -1.6681   0.00    0.0    0.00178    0.00497   -0.00095   0.00000  0.00000  0.00000  0.00000  0.00000  0.00000
2046 357581.000   34.220295532  117.143974743    31.7032   5  19   1.7059   2.7788   4.2045   0.6362  -0.7972  -1.6681   0.00    0.0    0.00066    0.00114   -0.00193   0.00000  0.00000  0.00000  0.00000  0.00000  0.00000
2046 357582.000   34.220295526  117.143974767    31.7031   5  19   1.7059   2.7788   4.2047   0.6361  -0.7969  -1.6682   0.00    0.0   -0.00655    0.00970   -0.00802   0.00000  0.00000  0.00000  0.00000  0.00000  0.00000
2046 357583.000   34.220295564  117.143974757    31.6993   5  19   1.7059   2.7788   4.2048   0.6360  -0.7967  -1.6683   0.00    0.0    0.01634   -0.00403   -0.00482   0.00000  0.00000  0.00000  0.00000  0.00000  0.00000
2046 357584.000   34.220295555  117.143974789    31.7017   5  19   1.7059   2.7788   4.2049   0.6360  -0.7964  -1.6684   0.00    0.0   -0.00512   -0.00034    0.02298   0.00000  0.00000  0.00000  0.00000  0.00000  0.00000
2046 357585.000   34.220295585  117.143974791    31.6954   5  19   1.7060   2.7788   4.2051   0.6359  -0.7962  -1.6684   0.00    0.0   -0.00847   -0.00447   -0.01021   0.00000  0.00000  0.00000  0.00000  0.00000  0.00000
2046 357586.000   34.220295560  117.143974769    31.7053   5  19   1.7060   2.7788   4.2052   0.6358  -0.7959  -1.6685   0.00    0.0   -0.01467    0.00776   -0.00489   0.00000  0.00000  0.00000  0.00000  0.00000  0.00000
2046 357587.000   34.220295636  117.143974729    31.6959   5  19   1.7060   2.7788   4.2054   0.6358  -0.7957  -1.6686   0.00    0.0    0.00097   -0.00496    0.00695   0.00000  0.00000  0.00000  0.00000  0.00000  0.00000
2046 357588.000   34.220295567  117.143974713    31.7068   5  19   1.7060   2.7788   4.2055   0.6357  -0.7954  -1.6687   0.00    0.0   -0.01152   -0.00198    0.02737   0.00000  0.00000  0.00000  0.00000  0.00000  0.00000
2046 357589.000   34.220295581  117.143974688    31.7027   5  19   1.7060   2.7788   4.2057   0.6356  -0.7952  -1.6687   0.00    0.0    0.01172    0.00071   -0.01257   0.00000  0.00000  0.00000  0.00000  0.00000  0.00000
2046 357590.000   34.220295603  117.143974687    31.7082   5  19   1.7061   2.7788   4.2058   0.6356  -0.7949  -1.6688   0.00    0.0   -0.00327    0.00072   -0.01741   0.00000  0.00000  0.00000  0.00000  0.00000  0.00000
2046 357591.000   34.220295613  117.143974694    31.7169   5  19   1.7061   2.7788   4.2059   0.6355  -0.7947  -1.6689   0.00    0.0    0.00631    0.00132    0.00375   0.00000  0.00000  0.00000  0.00000  0.00000  0.00000
2046 357592.000   34.220295651  117.143974685    31.7197   5  19   1.7061   2.7787   4.2061   0.6354  -0.7944  -1.6690   0.00    0.0    0.00618    0.00244    0.00195   0.00000  0.00000  0.00000  0.00000  0.00000  0.00000
2046 357593.000   34.220295620  117.143974646    31.7303   5  19   1.7061   2.7787   4.2062   0.6354  -0.7942  -1.6690   0.00    0.0    0.00587    0.00634   -0.01754   0.00000  0.00000  0.00000  0.00000  0.00000  0.00000
2046 357594.000   34.220295625  117.143974646    31.7331   5  19   1.7061   2.7787   4.2064   0.6353  -0.7939  -1.6691   0.00    0.0   -0.01763    0.00638   -0.01094   0.00000  0.00000  0.00000  0.00000  0.00000  0.00000
2046 357595.000   34.220295612  117.143974601    31.7401   5  19   1.7062   2.7787   4.2065   0.6352  -0.7937  -1.6692   0.00    0.0    0.01125    0.00145    0.00165   0.00000  0.00000  0.00000  0.00000  0.00000  0.00000
2046 357596.000   34.220295607  117.143974608    31.7436   5  19   1.7062   2.7787   4.2066   0.6352  -0.7934  -1.6693   0.00    0.0   -0.00340   -0.00466   -0.02487   0.00000  0.00000  0.00000  0.00000  0.00000  0.00000
2046 357597.000   34.220295634  117.143974652    31.7452   5  19   1.7062   2.7787   4.2068   0.6351  -0.7932  -1.6693   0.00    0.0    0.00196    0.00714   -0.01308   0.00000  0.00000  0.00000  0.00000  0.00000  0.00000
2046 357598.000   34.220295599  117.143974649    31.7413   5  19   1.7062   2.7787   4.2069   0.6350  -0.7929  -1.6694   0.00    0.0   -0.00505    0.00512   -0.02144   0.00000  0.00000  0.00000  0.00000  0.00000  0.00000
2046 357599.000   34.220295654  117.143974667    31.7448   5  19   1.7062   2.7787   4.2071   0.6350  -0.7927  -1.6695   0.00    0.0   -0.00755    0.00436   -0.03401   0.00000  0.00000  0.00000  0.00000  0.00000  0.00000
2046 357600.000   34.220295666  117.143974655    31.7494   5  19   1.7063   2.7787   4.2072   0.6349  -0.7925  -1.6696   0.00    0.0   -0.01047    0.00711    0.00390   0.00000  0.00000  0.00000  0.00000  0.00000  0.00000
2046 357601.000   34.220295701  117.143974682    31.7493   5  19   1.7063   2.7787   4.2074   0.6348  -0.7922  -1.6696   0.00    0.0    0.01764    0.01490    0.00113   0.00000  0.00000  0.00000  0.00000  0.00000  0.00000
2046 357602.000   34.220295694  117.143974633    31.7448   5  19   1.7063   2.7787   4.2075   0.6348  -0.7920  -1.6697   0.00    0.0   -0.02157    0.00711    0.00567   0.00000  0.00000  0.00000  0.00000  0.00000  0.00000
2046 357603.000   34.220295708  117.143974656    31.7500   5  19   1.7063   2.7787   4.2076   0.6347  -0.7917  -1.6698   0.00    0.0    0.01442   -0.00809   -0.00697   0.00000  0.00000  0.00000  0.00000  0.00000  0.00000
2046 357604.000   34.220295740  117.143974721    31.7352   5  19   1.7064   2.7787   4.2078   0.6347  -0.7915  -1.6699   0.00    0.0   -0.01612   -0.00746   -0.01295   0.00000  0.00000  0.00000  0.00000  0.00000  0.00000
2046 357605.000   34.220295704  117.143974762    31.7365   5  19   1.7064   2.7786   4.2079   0.6346  -0.7912  -1.6699   0.00    0.0   -0.00361    0.00015    0.00949   0.00000  0.00000  0.00000  0.00000  0.00000  0.00000
2046 357606.000   34.220295751  117.143974699    31.7238   5  19   1.7064   2.7786   4.2081   0.6345  -0.7910  -1.6700   0.00    0.0   -0.01944   -0.04463   -0.11954   0.00000  0.00000  0.00000  0.00000  0.00000  0.00000
2046 357607.000   34.220295771  117.143974694    31.7143   5  19   1.7064   2.7786   4.2082   0.6345  -0.7907  -1.6701   0.00    0.0    0.00283   -0.00142    0.01065   0.00000  0.00000  0.00000  0.00000  0.00000  0.00000
2046 357608.000   34.220295775  117.143974735    31.7009   5  19   1.7064   2.7786   4.2083   0.6344  -0.7905  -1.6702   0.00    0.0   -0.00622   -0.00338   -0.00673   0.00000  0.00000  0.00000  0.00000  0.00000  0.00000
2046 357609.000   34.220295804  117.143974753    31.7096   5  19   1.7065   2.7786   4.2085   0.6343  -0.7902  -1.6702   0.00    0.0    0.00271   -0.00366   -0.00954   0.00000  0.00000  0.00000  0.00000  0.00000  0.00000
2046 357610.000   34.220295800  117.143974750    31.7029   5  19   1.7065   2.7786   4.2086   0.6343  -0.7900  -1.6703   0.00    0.0    0.01195   -0.00743    0.00267   0.00000  0.00000  0.00000  0.00000  0.00000  0.00000
2046 357611.000   34.220295803  117.143974763    31.7061   5  19   1.7065   2.7786   4.2088   0.6342  -0.7897  -1.6704   0.00    0.0    0.00214   -0.00673   -0.01622   0.00000  0.00000  0.00000  0.00000  0.00000  0.00000
2046 357612.000   34.220295821  117.143974744    31.6988   5  19   1.7065   2.7786   4.2089   0.6341  -0.7895  -1.6705   0.00    0.0   -0.00381   -0.00794   -0.00825   0.00000  0.00000  0.00000  0.00000  0.00000  0.00000
2046 357613.000   34.220295837  117.143974762    31.6937   5  19   1.7065   2.7786   4.2091   0.6341  -0.7892  -1.6706   0.00    0.0    0.00136    0.00604   -0.01256   0.00000  0.00000  0.00000  0.00000  0.00000  0.00000
2046 357614.000   34.220295778  117.143974765    31.7032   5  19   1.7066   2.7786   4.2092   0.6340  -0.7890  -1.6706   0.00    0.0    0.00326   -0.00614    0.02966   0.00000  0.00000  0.00000  0.00000  0.00000  0.00000
2046 357615.000   34.220295831  117.143974770    31.6912   5  19   1.7066   2.7786   4.2093   0.6339  -0.7887  -1.6707   0.00    0.0   -0.00154    0.00169   -0.00947   0.00000  0.00000  0.00000  0.00000  0.00000  0.00000
2046 357616.000   34.220295778  117.143974830    31.6992   5  19   1.7066   2.7786   4.2095   0.6339  -0.7885  -1.6708   0.00    0.0   -0.00425    0.00006   -0.00209   0.00000  0.00000  0.00000  0.00000  0.00000  0.00000
2046 357617.000   34.220295799  117.143974764    31.6794   5  19   1.7066   2.7786   4.2096   0.6338  -0.7882  -1.6709   0.00    0.0   -0.00369   -0.03823   -0.14546   0.00000  0.00000  0.00000  0.00000  0.00000  0.00000
2046 357618.000   34.220295606  117.143975226    31.8500   5  18   1.7861   2.7916   4.6834   0.5095   0.6784  -1.8291   0.00    0.0    0.00083    0.00164    0.02685   0.00000  0.00000  0.00000  0.00000  0.00000  0.00000
2046 357619.000   34.220295484  117.143975602    31.9857   5  19   1.7067   2.7785   4.2099   0.6337  -0.7877  -1.6710   0.00    0.0    0.00338    0.00786    0.01264   0.00000  0.00000  0.00000  0.00000  0.00000  0.00000
2046 357620.000   34.220295550  117.143975370    31.9080   5  19   1.7067   2.7785   4.2100   0.6336  -0.7875  -1.6711   0.00    0.0   -0.01178    0.00779   -0.00873   0.00000  0.00000  0.00000  0.00000  0.00000  0.00000
2046 357621.000   34.220295556  117.143975350    31.8854   5  19   1.7067   2.7785   4.2102   0.6335  -0.7872  -1.6712   0.00    0.0   -0.01917    0.00092   -0.00843   0.00000  0.00000  0.00000  0.00000  0.00000  0.00000
2046 357622.000   34.220295582  117.143975305    31.8874   5  19   1.7067   2.7785   4.2103   0.6335  -0.7870  -1.6713   0.00    0.0   -0.00528    0.00095   -0.00722   0.00000  0.00000  0.00000  0.00000  0.00000  0.00000
2046 357623.000   34.220295515  117.143975408    31.9184   5  19   1.7068   2.7785   4.2105   0.6334  -0.7867  -1.6713   0.00    0.0   -0.00094   -0.00292   -0.00624   0.00000  0.00000  0.00000  0.00000  0.00000  0.00000
2046 357624.000   34.220295538  117.143975311    31.9063   5  19   1.7068   2.7785   4.2106   0.6333  -0.7865  -1.6714   0.00    0.0    0.00382    0.00886    0.01032   0.00000  0.00000  0.00000  0.00000  0.00000  0.00000
2046 357625.000   34.220295561  117.143975236    31.8894   5  19   1.7068   2.7785   4.2107   0.6333  -0.7862  -1.6715   0.00    0.0    0.00533    0.01542    0.01807   0.00000  0.00000  0.00000  0.00000  0.00000  0.00000
2046 357626.000   34.220295626  117.143975150    31.8477   5  19   1.7068   2.7785   4.2109   0.6332  -0.7860  -1.6716   0.00    0.0    0.00271   -0.00426    0.01897   0.00000  0.00000  0.00000  0.00000  0.00000  0.00000
2046 357627.000   34.220295589  117.143975141    31.8447   5  19   1.7068   2.7785   4.2110   0.6331  -0.7857  -1.6716   0.00    0.0    0.00847    0.01407   -0.00292   0.00000  0.00000  0.00000  0.00000  0.00000  0.00000
2046 357628.000   34.220295591  117.143975044    31.8300   5  19   1.7069   2.7785   4.2112   0.6331  -0.7855  -1.6717   0.00    0.0   -0.00569   -0.01055   -0.00477   0.00000  0.00000  0.00000  0.00000  0.00000  0.00000
2046 357629.000   34.220295600  117.143975067    31.8462   5  19   1.7069   2.7785   4.2113   0.6330  -0.7852  -1.6718   0.00    0.0    0.01552   -0.00080    0.00574   0.00000  0.00000  0.00000  0.00000  0.00000  0.00000
2046 357630.000   34.220295548  117.143975083    31.8535   5  19   1.7069   2.7785   4.2115   0.6329  -0.7850  -1.6719   0.00    0.0    0.00319    0.00061    0.00326   0.00000  0.00000  0.00000  0.00000  0.00000  0.00000
2046 357631.000   34.220295583  117.143975089    31.8590   5  19   1.7069   2.7784   4.2116   0.6329  -0.7847  -1.6720   0.00    0.0    0.00886   -0.00372    0.00036   0.00000  0.00000  0.00000  0.00000  0.00000  0.00000
2046 357632.000   34.220295540  117.143975134    31.8616   5  19   1.7070   2.7784   4.2117   0.6328  -0.7845  -1.6720   0.00    0.0   -0.00221    0.00320   -0.01348   0.00000  0.00000  0.00000  0.00000  0.00000  0.00000
2046 357633.000   34.220295514  117.143975079    31.8780   5  19   1.7070   2.7784   4.2119   0.6327  -0.7842  -1.6721   0.00    0.0   -0.00335    0.00254   -0.01537   0.00000  0.00000  0.00000  0.00000  0.00000  0.00000
2046 357634.000   34.220295492  117.143975088    31.8817   5  19   1.7070   2.7784   4.2120   0.6327  -0.7840  -1.6722   0.00    0.0   -0.00566    0.00033    0.02200   0.00000  0.00000  0.00000  0.00000  0.00000  0.00000
2046 357635.000   34.220295494  117.143975056    31.8860   5  19   1.7070   2.7784   4.2122   0.6326  -0.7837  -1.6723   0.00    0.0   -0.00905   -0.00064   -0.00605   0.00000  0.00000  0.00000  0.00000  0.00000  0.00000
2046 357636.000   34.220295458  117.143975054    31.8828   5  19   1.7070   2.7784   4.2123   0.6325  -0.7835  -1.6724   0.00    0.0   -0.01125   -0.00848   -0.01310   0.00000  0.00000  0.00000  0.00000  0.00000  0.00000
2046 357637.000   34.220295410  117.143975097    31.8936   5  19   1.7071   2.7784   4.2124   0.6325  -0.7832  -1.6724   0.00    0.0   -0.00852    0.00137   -0.00510   0.00000  0.00000  0.00000  0.00000  0.00000  0.00000
2046 357638.000   34.220295421  117.143975061    31.8906   5  19   1.7071   2.7784   4.2126   0.6324  -0.7830  -1.6725   0.00    0.0   -0.00268   -0.01768    0.01460   0.00000  0.00000  0.00000  0.00000  0.00000  0.00000
2046 357639.000   34.220295401  117.143975026    31.8831   5  19   1.7071   2.7784   4.2127   0.6323  -0.7827  -1.6726   0.00    0.0    0.00057   -0.00031   -0.02868   0.00000  0.00000  0.00000  0.00000  0.00000  0.00000
2046 357640.000   34.220295401  117.143975024    31.8826   5  19   1.7071   2.7784   4.2129   0.6323  -0.7825  -1.6727   0.00    0.0    0.00523   -0.00111    0.00141   0.00000  0.00000  0.00000  0.00000  0.00000  0.00000
2046 357641.000   34.220295337  117.143974993    31.8852   5  19   1.7071   2.7784   4.2130   0.6322  -0.7822  -1.6728   0.00    0.0    0.00466   -0.01717   -0.00272   0.00000  0.00000  0.00000  0.00000  0.00000  0.00000
2046 357642.000   34.220295350  117.143974989    31.8803   5  19   1.7072   2.7784   4.2131   0.6321  -0.7820  -1.6728   0.00    0.0    0.00997    0.02283   -0.02173   0.00000  0.00000  0.00000  0.00000  0.00000  0.00000
2046 357643.000   34.220295342  117.143974959    31.8952   5  19   1.7072   2.7783   4.2133   0.6321  -0.7817  -1.6729   0.00    0.0    0.00403    0.00491    0.01125   0.00000  0.00000  0.00000  0.00000  0.00000  0.00000
2046 357644.000   34.220295341  117.143974958    31.9046   5  19   1.7072   2.7783   4.2134   0.6320  -0.7815  -1.6730   0.00    0.0    0.00660   -0.00304    0.00025   0.00000  0.00000  0.00000  0.00000  0.00000  0.00000
2046 357645.000   34.220295291  117.143974911    31.9094   5  19   1.7072   2.7783   4.2136   0.6319  -0.7812  -1.6731   0.00    0.0    0.00314    0.00966   -0.00720   0.00000  0.00000  0.00000  0.00000  0.00000  0.00000
2046 357646.000   34.220295368  117.143974848    31.8995   5  19   1.7073   2.7783   4.2137   0.6319  -0.7810  -1.6732   0.00    0.0    0.00220   -0.00188   -0.00530   0.00000  0.00000  0.00000  0.00000  0.00000  0.00000
2046 357647.000   34.220295332  117.143974820    31.8985   5  19   1.7073   2.7783   4.2138   0.6318  -0.7807  -1.6732   0.00    0.0    0.00065    0.00301    0.02523   0.00000  0.00000  0.00000  0.00000  0.00000  0.00000
2046 357648.000   34.220295348  117.143974785    31.8855   5  19   1.7073   2.7783   4.2140   0.6317  -0.7805  -1.6733   0.00    0.0   -0.00535    0.00417   -0.02459   0.00000  0.00000  0.00000  0.00000  0.00000  0.00000
2046 357649.000   34.220295358  117.143974788    31.8822   5  19   1.7073   2.7783   4.2141   0.6317  -0.7802  -1.6734   0.00    0.0   -0.01180   -0.00002   -0.00906   0.00000  0.00000  0.00000  0.00000  0.00000  0.00000
2046 357650.000   34.220295373  117.143974811    31.8843   5  19   1.7073   2.7783   4.2143   0.6316  -0.7800  -1.6735   0.00    0.0   -0.01451   -0.00286   -0.00274   0.00000  0.00000  0.00000  0.00000  0.00000  0.00000
2046 357651.000   34.220295389  117.143974833    31.8796   5  19   1.7074   2.7783   4.2144   0.6315  -0.7797  -1.6736   0.00    0.0   -0.00091   -0.00481    0.00677   0.00000  0.00000  0.00000  0.00000  0.00000  0.00000
2046 357652.000   34.220295355  117.143974819    31.8836   5  19   1.7074   2.7783   4.2145   0.6315  -0.7795  -1.6737   0.00    0.0   -0.00975   -0.00714    0.00501   0.00000  0.00000  0.00000  0.00000  0.00000  0.00000
2046 357653.000   34.220295332  117.143974856    31.8888   5  19   1.7074   2.7783   4.2147   0.6314  -0.7792  -1.6737   0.00    0.0    0.00090    0.01140    0.01967   0.00000  0.00000  0.00000  0.00000  0.00000  0.00000
2046 357654.000   34.220295350  117.143974858    31.8839   5  19   1.7074   2.7782   4.2148   0.6313  -0.7790  -1.6738   0.00    0.0    0.00399   -0.00160    0.01366   0.00000  0.00000  0.00000  0.00000  0.00000  0.00000
2046 357655.000   34.220295358  117.143974846    31.8835   5  19   1.7075   2.7782   4.2150   0.6313  -0.7787  -1.6739   0.00    0.0   -0.00237    0.00573   -0.01144   0.00000  0.00000  0.00000  0.00000  0.00000  0.00000
2046 357656.000   34.220295345  117.143974825    31.8730   5  19   1.7075   2.7782   4.2151   0.6312  -0.7785  -1.6740   0.00    0.0   -0.00612    0.00952   -0.02976   0.00000  0.00000  0.00000  0.00000  0.00000  0.00000
2046 357657.000   34.220295330  117.143974833    31.8745   5  19   1.7075   2.7782   4.2152   0.6311  -0.7782  -1.6741   0.00    0.0   -0.01645    0.00907   -0.00677   0.00000  0.00000  0.00000  0.00000  0.00000  0.00000
2046 357658.000   34.220295328  117.143974839    31.8841   5  19   1.7075   2.7782   4.2154   0.6311  -0.7780  -1.6741   0.00    0.0   -0.00338   -0.00195    0.01451   0.00000  0.00000  0.00000  0.00000  0.00000  0.00000
2046 357659.000   34.220295277  117.143974860    31.8862   5  19   1.7075   2.7782   4.2155   0.6310  -0.7777  -1.6742   0.00    0.0    0.00203   -0.00222   -0.00069   0.00000  0.00000  0.00000  0.00000  0.00000  0.00000
2046 357660.000   34.220295228  117.143974910    31.8902   5  19   1.7076   2.7782   4.2157   0.6309  -0.7775  -1.6743   0.00    0.0   -0.00116    0.01236    0.00830   0.00000  0.00000  0.00000  0.00000  0.00000  0.00000
2046 357661.000   34.220295288  117.143974859    31.8829   5  19   1.7076   2.7782   4.2158   0.6309  -0.7772  -1.6744   0.00    0.0   -0.00850   -0.00705   -0.01403   0.00000  0.00000  0.00000  0.00000  0.00000  0.00000
2046 357662.000   34.220295214  117.143974840    31.8863   5  19   1.7076   2.7782   4.2159   0.6308  -0.7770  -1.6745   0.00    0.0   -0.01436    0.00113    0.01563   0.00000  0.00000  0.00000  0.00000  0.00000  0.00000
2046 357663.000   34.220295178  117.143974845    31.8763   5  19   1.7076   2.7782   4.2161   0.6307  -0.7767  -1.6746   0.00    0.0   -0.00178   -0.00430    0.00241   0.00000  0.00000  0.00000  0.00000  0.00000  0.00000
2046 357664.000   34.220295233  117.143974867    31.8756   5  19   1.7077   2.7782   4.2162   0.6307  -0.7765  -1.6746   0.00    0.0    0.00694   -0.00064    0.00258   0.00000  0.00000  0.00000  0.00000  0.00000  0.00000
2046 357665.000   34.220295166  117.143974853    31.8707   5  19   1.7077   2.7781   4.2164   0.6306  -0.7762  -1.6747   0.00    0.0   -0.02026   -0.00307    0.00138   0.00000  0.00000  0.00000  0.00000  0.00000  0.00000
2046 357666.000   34.220295203  117.143974889    31.8724   5  19   1.7077   2.7781   4.2165   0.6305  -0.7760  -1.6748   0.00    0.0   -0.01009    0.01316    0.00912   0.00000  0.00000  0.00000  0.00000  0.00000  0.00000
2046 357667.000   34.220295215  117.143974890    31.8685   5  19   1.7077   2.7781   4.2166   0.6305  -0.7757  -1.6749   0.00    0.0    0.01425    0.00257   -0.00589   0.00000  0.00000  0.00000  0.00000  0.00000  0.00000
2046 357668.000   34.220295182  117.143974894    31.8706   5  19   1.7078   2.7781   4.2168   0.6304  -0.7755  -1.6750   0.00    0.0   -0.00768   -0.00247   -0.00912   0.00000  0.00000  0.00000  0.00000  0.00000  0.00000
2046 357669.000   34.220295198  117.143974900    31.8693   5  19   1.7078   2.7781   4.2169   0.6303  -0.7752  -1.6751   0.00    0.0    0.01060   -0.00549   -0.00900   0.00000  0.00000  0.00000  0.00000  0.00000  0.00000
2046 357670.000   34.220295167  117.143974882    31.8643   5  19   1.7078   2.7781   4.2171   0.6303  -0.7750  -1.6751   0.00    0.0    0.00090    0.00358   -0.02903   0.00000  0.00000  0.00000  0.00000  0.00000  0.00000
2046 357671.000   34.220295201  117.143974891    31.8744   5  19   1.7078   2.7781   4.2172   0.6302  -0.7747  -1.6752   0.00    0.0    0.00483    0.00196    0.00693   0.00000  0.00000  0.00000  0.00000  0.00000  0.00000
2046 357672.000   34.220295196  117.143974879    31.8830   5  19   1.7078   2.7781   4.2173   0.6301  -0.7745  -1.6753   0.00    0.0    0.00493   -0.00017    0.01358   0.00000  0.00000  0.00000  0.00000  0.00000  0.00000
2046 357673.000   34.220295152  117.143974870    31.8893   5  19   1.7079   2.7781   4.2175   0.6301  -0.7742  -1.6754   0.00    0.0    0.00057   -0.00277    0.00711   0.00000  0.00000  0.00000  0.00000  0.00000  0.00000
2046 357674.000   34.220295149  117.143974826    31.8925   5  19   1.7079   2.7781   4.2176   0.6300  -0.7740  -1.6755   0.00    0.0    0.01144    0.00293    0.00137   0.00000  0.00000  0.00000  0.00000  0.00000  0.00000
2046 357675.000   34.220295124  117.143974823    31.8871   5  19   1.7079   2.7781   4.2178   0.6299  -0.7737  -1.6756   0.00    0.0   -0.01422   -0.00390    0.02135   0.00000  0.00000  0.00000  0.00000  0.00000  0.00000
2046 357676.000   34.220295137  117.143974842    31.8906   5  19   1.7079   2.7780   4.2179   0.6299  -0.7735  -1.6756   0.00    0.0    0.01099    0.00224    0.03116   0.00000  0.00000  0.00000  0.00000  0.00000  0.00000
2046 357677.000   34.220295149  117.143974849    31.8716   5  19   1.7080   2.7780   4.2180   0.6298  -0.7732  -1.6757   0.00    0.0   -0.00731    0.00076    0.00477   0.00000  0.00000  0.00000  0.00000  0.00000  0.00000
2046 357678.000   34.220295117  117.143974852    31.8756   5  19   1.7080   2.7780   4.2182   0.6297  -0.7730  -1.6758   0.00    0.0   -0.00865    0.00088    0.00647   0.00000  0.00000  0.00000  0.00000  0.00000  0.00000
2046 357679.000   34.220295144  117.143974812    31.8681   5  19   1.7080   2.7780   4.2183   0.6297  -0.7727  -1.6759   0.00    0.0    0.00429   -0.00249   -0.03361   0.00000  0.00000  0.00000  0.00000  0.00000  0.00000
2046 357680.000   34.220295128  117.143974826    31.8760   5  19   1.7080   2.7780   4.2184   0.6296  -0.7725  -1.6760   0.00    0.0   -0.00864    0.00168    0.00721   0.00000  0.00000  0.00000  0.00000  0.00000  0.00000
2046 357681.000   34.220295097  117.143974820    31.8723   5  19   1.7080   2.7780   4.2186   0.6295  -0.7722  -1.6761   0.00    0.0   -0.00676    0.00307   -0.01020   0.00000  0.00000  0.00000  0.00000  0.00000  0.00000
2046 357682.000   34.220295153  117.143974877    31.8687   5  19   1.7081   2.7780   4.2187   0.6295  -0.7719  -1.6762   0.00    0.0   -0.00451    0.00635   -0.01989   0.00000  0.00000  0.00000  0.00000  0.00000  0.00000
2046 357683.000   34.220295078  117.143974918    31.8710   5  19   1.7081   2.7780   4.2189   0.6294  -0.7717  -1.6762   0.00    0.0   -0.00375    0.01231   -0.03259   0.00000  0.00000  0.00000  0.00000  0.00000  0.00000
2046 357684.000   34.220295117  117.143974893    31.8761   5  19   1.7081   2.7780   4.2190   0.6293  -0.7714  -1.6763   0.00    0.0    0.01183   -0.01582   -0.01111   0.00000  0.00000  0.00000  0.00000  0.00000  0.00000
2046 357685.000   34.220295122  117.143974897    31.8721   5  19   1.7081   2.7780   4.2191   0.6293  -0.7712  -1.6764   0.00    0.0    0.00513   -0.01443   -0.01879   0.00000  0.00000  0.00000  0.00000  0.00000  0.00000
2046 357686.000   34.220295113  117.143974865    31.8788   5  19   1.7082   2.7780   4.2193   0.6292  -0.7709  -1.6765   0.00    0.0   -0.00503   -0.00600   -0.01991   0.00000  0.00000  0.00000  0.00000  0.00000  0.00000
2046 357687.000   34.220295096  117.143974877    31.8635   5  19   1.7082   2.7779   4.2194   0.6291  -0.7707  -1.6766   0.00    0.0   -0.01226   -0.01170   -0.01481   0.00000  0.00000  0.00000  0.00000  0.00000  0.00000
2046 357688.000   34.220295093  117.143974921    31.8679   5  19   1.7082   2.7779   4.2196   0.6291  -0.7704  -1.6767   0.00    0.0    0.00137    0.00929   -0.00552   0.00000  0.00000  0.00000  0.00000  0.00000  0.00000
2046 357689.000   34.220295091  117.143974931    31.8714   5  19   1.7082   2.7779   4.2197   0.6290  -0.7702  -1.6768   0.00    0.0    0.00780    0.00907   -0.00951   0.00000  0.00000  0.00000  0.00000  0.00000  0.00000
2046 357690.000   34.220295088  117.143974942    31.8644   5  19   1.7083   2.7779   4.2198   0.6289  -0.7699  -1.6768   0.00    0.0   -0.00819    0.00021   -0.01481   0.00000  0.00000  0.00000  0.00000  0.00000  0.00000
2046 357691.000   34.220295073  117.143974975    31.8678   5  19   1.7083   2.7779   4.2200   0.6289  -0.7697  -1.6769   0.00    0.0   -0.01104    0.00230    0.00592   0.00000  0.00000  0.00000  0.00000  0.00000  0.00000
2046 357692.000   34.220295049  117.143974964    31.8609   5  19   1.7083   2.7779   4.2201   0.6288  -0.7694  -1.6770   0.00    0.0   -0.01175    0.00457    0.00909   0.00000  0.00000  0.00000  0.00000  0.00000  0.00000
2046 357693.000   34.220295099  117.143974957    31.8473   5  19   1.7083   2.7779   4.2203   0.6287  -0.7692  -1.6771   0.00    0.0    0.00160   -0.00496   -0.01110   0.00000  0.00000  0.00000  0.00000  0.00000  0.00000
2046 357694.000   34.220295114  117.143974975    31.8516   5  19   1.7083   2.7779   4.2204   0.6287  -0.7689  -1.6772   0.00    0.0   -0.01011    0.00494    0.02130   0.00000  0.00000  0.00000  0.00000  0.00000  0.00000
2046 357695.000   34.220295107  117.143975060    31.8444   5  19   1.7084   2.7779   4.2205   0.6286  -0.7687  -1.6773   0.00    0.0   -0.01208    0.00150   -0.00929   0.00000  0.00000  0.00000  0.00000  0.00000  0.00000
2046 357696.000   34.220295117  117.143975072    31.8304   5  19   1.7084   2.7779   4.2207   0.6285  -0.7684  -1.6774   0.00    0.0    0.00219    0.00673    0.01178   0.00000  0.00000  0.00000  0.00000  0.00000  0.00000
2046 357697.000   34.220295080  117.143975075    31.8332   5  19   1.7084   2.7778   4.2208   0.6285  -0.7682  -1.6774   0.00    0.0   -0.00246    0.00514   -0.00762   0.00000  0.00000  0.00000  0.00000  0.00000  0.00000
2046 357698.000   34.220295016  117.143975078    31.8366   5  19   1.7084   2.7778   4.2209   0.6284  -0.7679  -1.6775   0.00    0.0    0.00744   -0.00407    0.00322   0.00000  0.00000  0.00000  0.00000  0.00000  0.00000
2046 357699.000   34.220295038  117.143975147    31.8206   5  19   1.7085   2.7778   4.2211   0.6283  -0.7677  -1.6776   0.00    0.0   -0.00571    0.00421   -0.00769   0.00000  0.00000  0.00000  0.00000  0.00000  0.00000
2046 357700.000   34.220295044  117.143975150    31.8180   5  19   1.7085   2.7778   4.2212   0.6283  -0.7674  -1.6777   0.00    0.0   -0.01701    0.00524    0.00672   0.00000  0.00000  0.00000  0.00000  0.00000  0.00000
2046 357701.000   34.220295016  117.143975157    31.8131   5  19   1.7085   2.7778   4.2214   0.6282  -0.7671  -1.6778   0.00    0.0    0.00109   -0.00265   -0.00956   0.00000  0.00000  0.00000  0.00000  0.00000  0.00000
2046 357702.000   34.220295051  117.143975198    31.8039   5  19   1.7085   2.7778   4.2215   0.6281  -0.7669  -1.6779   0.00    0.0   -0.00482    0.01416   -0.01968   0.00000  0.00000  0.00000  0.00000  0.00000  0.00000
2046 357703.000   34.220295005  117.143975141    31.8048   5  19   1.7086   2.7778   4.2216   0.6281  -0.7666  -1.6780   0.00    0.0    0.00983   -0.01161    0.00070   0.00000  0.00000  0.00000  0.00000  0.00000  0.00000
2046 357704.000   34.220295017  117.143975215    31.8040   5  19   1.7086   2.7778   4.2218   0.6280  -0.7664  -1.6781   0.00    0.0    0.00329    0.01382    0.01568   0.00000  0.00000  0.00000  0.00000  0.00000  0.00000
2046 357705.000   34.220295044  117.143975240    31.8009   5  19   1.7086   2.7778   4.2219   0.6279  -0.7661  -1.6781   0.00    0.0    0.01616    0.00460   -0.00843   0.00000  0.00000  0.00000  0.00000  0.00000  0.00000
2046 357706.000   34.220294976  117.143975233    31.7901   5  19   1.7086   2.7778   4.2221   0.6279  -0.7659  -1.6782   0.00    0.0   -0.00350   -0.00838   -0.00713   0.00000  0.00000  0.00000  0.00000  0.00000  0.00000
2046 357707.000   34.220294972  117.143975248    31.7891   5  19   1.7086   2.7777   4.2222   0.6278  -0.7656  -1.6783   0.00    0.0   -0.00985   -0.00018    0.00165   0.00000  0.00000  0.00000  0.00000  0.00000  0.00000
2046 357708.000   34.220295026  117.143975232    31.7808   5  19   1.7087   2.7777   4.2223   0.6277  -0.7654  -1.6784   0.00    0.0   -0.00087    0.00280   -0.01994   0.00000  0.00000  0.00000  0.00000  0.00000  0.00000
2046 357709.000   34.220295015  117.143975282    31.7832   5  19   1.7087   2.7777   4.2225   0.6277  -0.7651  -1.6785   0.00    0.0    0.00463    0.00507   -0.00750   0.00000  0.00000  0.00000  0.00000  0.00000  0.00000
2046 357710.000   34.220295037  117.143975265    31.7834   5  19   1.7087   2.7777   4.2226   0.6276  -0.7649  -1.6786   0.00    0.0    0.01081   -0.00311    0.00895   0.00000  0.00000  0.00000  0.00000  0.00000  0.00000
2046 357711.000   34.220295016  117.143975227    31.7796   5  19   1.7087   2.7777   4.2227   0.6275  -0.7646  -1.6787   0.00    0.0   -0.00693    0.00286    0.01432   0.00000  0.00000  0.00000  0.00000  0.00000  0.00000
2046 357712.000   34.220294997  117.143975242    31.7761   5  19   1.7088   2.7777   4.2229   0.6275  -0.7644  -1.6788   0.00    0.0   -0.00138    0.00930    0.00449   0.00000  0.00000  0.00000  0.00000  0.00000  0.00000
2046 357713.000   34.220295029  117.143975168    31.7938   5  19   1.7088   2.7777   4.2230   0.6274  -0.7641  -1.6788   0.00    0.0    0.03060   -0.02077    0.03081   0.00000  0.00000  0.00000  0.00000  0.00000  0.00000
2046 357714.000   34.220295004  117.143975153    31.7888   5  19   1.7088   2.7777   4.2232   0.6273  -0.7639  -1.6789   0.00    0.0   -0.00772    0.01043   -0.00196   0.00000  0.00000  0.00000  0.00000  0.00000  0.00000
2046 357715.000   34.220294974  117.143975217    31.7869   5  19   1.7088   2.7777   4.2233   0.6273  -0.7636  -1.6790   0.00    0.0    0.00452    0.01959   -0.00172   0.00000  0.00000  0.00000  0.00000  0.00000  0.00000
2046 357716.000   34.220294917  117.143975199    31.7877   5  19   1.7089   2.7777   4.2234   0.6272  -0.7633  -1.6791   0.00    0.0   -0.00003    0.01185   -0.00049   0.00000  0.00000  0.00000  0.00000  0.00000  0.00000
2046 357717.000   34.220294968  117.143975209    31.7889   5  19   1.7089   2.7776   4.2236   0.6271  -0.7631  -1.6792   0.00    0.0   -0.01684    0.01204    0.01017   0.00000  0.00000  0.00000  0.00000  0.00000  0.00000
2046 357718.000   34.220294904  117.143975204    31.7949   5  19   1.7089   2.7776   4.2237   0.6271  -0.7628  -1.6793   0.00    0.0   -0.01549   -0.00840    0.00831   0.00000  0.00000  0.00000  0.00000  0.00000  0.00000
2046 357719.000   34.220294918  117.143975162    31.7888   5  19   1.7089   2.7776   4.2239   0.6270  -0.7626  -1.6794   0.00    0.0   -0.00484   -0.00180    0.01342   0.00000  0.00000  0.00000  0.00000  0.00000  0.00000
2046 357720.000   34.220294954  117.143975192    31.7905   5  19   1.7090   2.7776   4.2240   0.6269  -0.7623  -1.6795   0.00    0.0    0.00551   -0.00672    0.01285   0.00000  0.00000  0.00000  0.00000  0.00000  0.00000
2046 357721.000   34.220295016  117.143975182    31.7865   5  19   1.7090   2.7776   4.2241   0.6269  -0.7621  -1.6796   0.00    0.0    0.02025    0.01366    0.01351   0.00000  0.00000  0.00000  0.00000  0.00000  0.00000
2046 357722.000   34.220294993  117.143975160    31.8047   5  19   1.7090   2.7776   4.2243   0.6268  -0.7618  -1.6797   0.00    0.0    0.00277    0.00071   -0.00051   0.00000  0.00000  0.00000  0.00000  0.00000  0.00000
2046 357723.000   34.220294926  117.143975175    31.8103   5  19   1.7090   2.7776   4.2244   0.6267  -0.7616  -1.6797   0.00    0.0    0.01085   -0.00654    0.01545   0.00000  0.00000  0.00000  0.00000  0.00000  0.00000
