% program   : GINav v0.1.0
% obs start : 2019/03/28 03:17:46.0
% obs end   : 2019/03/28 03:59:50.0
% mode      : PPK
% system    : GPS 
% nfreqs    : 1
% elev mask : 10.0 deg
% ephemeris : broadcast
% ionos opt : broadcast model
% trops opt : Saastamoinen model
%
%  GPST              x-ecef(m)      y-ecef(m)      z-ecef(m)   Q  ns   sdx(m)   sdy(m)   sdz(m)  sdxy(m)  sdyz(m)  sdzx(m) age(s)  ratio    vx(m/s)    vy(m/s)    vz(m/s)      sdvx     sdvy     sdvz    sdvxy    sdvyz    sdvzx
2046 357466.000  -2408694.9744   4698107.1506   3566698.4051   2   8   0.6953   1.2231   1.0503  -0.6946   0.8932  -0.4911   0.00    0.0   -0.01111    0.01924    0.01885   0.00000  0.00000  0.00000  0.00000  0.00000  0.00000
2046 357467.000  -2408694.9792   4698107.1741   3566698.4002   2   8   0.4945   0.8698   0.7454  -0.4939   0.6343  -0.3490   0.00    0.0   -0.00365    0.00515   -0.00953   0.00000  0.00000  0.00000  0.00000  0.00000  0.00000
2046 357468.000  -2408694.9869   4698107.2080   3566698.4115   2   8   0.4046   0.7115   0.6092  -0.4041   0.5186  -0.2854   0.00    0.0   -0.01802    0.01497    0.00812   0.00000  0.00000  0.00000  0.00000  0.00000  0.00000
2046 357469.000  -2408694.9869   4698107.2259   3566698.4217   2   8   0.3508   0.6167   0.5278  -0.3503   0.4493  -0.2473   0.00    0.0   -0.02405    0.03118    0.04090   0.00000  0.00000  0.00000  0.00000  0.00000  0.00000
2046 357470.000  -2408694.9874   4698107.2352   3566698.4368   2   8   0.3139   0.5519   0.4720  -0.3135   0.4019  -0.2213   0.00    0.0   -0.00410    0.00056   -0.00847   0.00000  0.00000  0.00000  0.00000  0.00000  0.00000
2046 357471.000  -2408694.9859   4698107.2437   3566698.4504   2   8   0.2867   0.5039   0.4307  -0.2862   0.3668  -0.2021   0.00    2.9   -0.00316    0.00453   -0.01637   0.00000  0.00000  0.00000  0.00000  0.00000  0.00000
2046 357472.000  -2408694.9842   4698107.2478   3566698.4597   2   8   0.2655   0.4666   0.3986  -0.2651   0.3395  -0.1871   0.00    2.8   -0.02657    0.04951    0.04172   0.00000  0.00000  0.00000  0.00000  0.00000  0.00000
2046 357473.000  -2408694.9798   4698107.2498   3566698.4638   2   8   0.2484   0.4365   0.3726  -0.2480   0.3175  -0.1750   0.00    2.8    0.01449    0.00999   -0.00073   0.00000  0.00000  0.00000  0.00000  0.00000  0.00000
2046 357474.000  -2408694.9713   4698107.2449   3566698.4607   2   8   0.2343   0.4115   0.3510  -0.2338   0.2992  -0.1650   0.00    2.9    0.01626   -0.01352   -0.01337   0.00000  0.00000  0.00000  0.00000  0.00000  0.00000
2046 357475.000  -2408694.9657   4698107.2394   3566698.4582   2   8   0.2223   0.3904   0.3327  -0.2218   0.2836  -0.1565   0.00    3.0    0.00249    0.01242    0.00117   0.00000  0.00000  0.00000  0.00000  0.00000  0.00000
2046 357476.000  -2408694.9618   4698107.2380   3566698.4541   2   8   0.2120   0.3722   0.3169  -0.2115   0.2703  -0.1491   0.00    3.0   -0.00957    0.03306    0.00526   0.00000  0.00000  0.00000  0.00000  0.00000  0.00000
2046 357477.000  -2408694.4815   4698106.4830   3566698.3553   1   8   0.0071   0.0124   0.0106  -0.0070   0.0090  -0.0050   0.00    3.1    0.00652   -0.01259    0.00339   0.00000  0.00000  0.00000  0.00000  0.00000  0.00000
2046 357478.000  -2408694.4778   4698106.4875   3566698.3572   1   8   0.0070   0.0124   0.0106  -0.0070   0.0090  -0.0049   0.00    3.1   -0.01112   -0.01777   -0.00464   0.00000  0.00000  0.00000  0.00000  0.00000  0.00000
2046 357479.000  -2408694.4774   4698106.4867   3566698.3582   1   8   0.0070   0.0124   0.0106  -0.0070   0.0090  -0.0049   0.00    3.1   -0.01451   -0.01627    0.00609   0.00000  0.00000  0.00000  0.00000  0.00000  0.00000
2046 357480.000  -2408694.9377   4698107.1975   3566698.4259   2   8   0.1816   0.3184   0.2701  -0.1811   0.2306  -0.1275   0.00    3.0   -0.01944    0.02932    0.01064   0.00000  0.00000  0.00000  0.00000  0.00000  0.00000
2046 357481.000  -2408694.9352   4698107.1972   3566698.4231   2   8   0.1758   0.3082   0.2611  -0.1753   0.2231  -0.1234   0.00    2.9   -0.00250    0.01052    0.01081   0.00000  0.00000  0.00000  0.00000  0.00000  0.00000
2046 357482.000  -2408694.9316   4698107.1911   3566698.4244   2   8   0.1706   0.2989   0.2529  -0.1700   0.2162  -0.1197   0.00    2.9    0.01236   -0.01144    0.00607   0.00000  0.00000  0.00000  0.00000  0.00000  0.00000
2046 357483.000  -2408694.9291   4698107.1822   3566698.4155   2   8   0.1658   0.2904   0.2454  -0.1652   0.2098  -0.1162   0.00    2.9   -0.00066   -0.01506   -0.02141   0.00000  0.00000  0.00000  0.00000  0.00000  0.00000
2046 357484.000  -2408694.9233   4698107.1760   3566698.4083   2   8   0.1613   0.2825   0.2385  -0.1608   0.2040  -0.1131   0.00    2.9   -0.02290    0.01890   -0.00349   0.00000  0.00000  0.00000  0.00000  0.00000  0.00000
2046 357485.000  -2408694.9217   4698107.1757   3566698.4100   2   8   0.1573   0.2753   0.2320  -0.1567   0.1986  -0.1101   0.00    2.8   -0.01466    0.00139    0.00161   0.00000  0.00000  0.00000  0.00000  0.00000  0.00000
2046 357486.000  -2408694.9216   4698107.1729   3566698.4054   2   8   0.1535   0.2685   0.2260  -0.1529   0.1935  -0.1074   0.00    2.8    0.03060   -0.01921    0.00171   0.00000  0.00000  0.00000  0.00000  0.00000  0.00000
2046 357487.000  -2408694.9198   4698107.1689   3566698.3995   2   8   0.1499   0.2623   0.2204  -0.1493   0.1888  -0.1049   0.00    2.8    0.00880   -0.02455   -0.02814   0.00000  0.00000  0.00000  0.00000  0.00000  0.00000
2046 357488.000  -2408694.9162   4698107.1638   3566698.3961   2   8   0.1466   0.2564   0.2151  -0.1460   0.1844  -0.1025   0.00    2.8   -0.00336   -0.00416    0.01207   0.00000  0.00000  0.00000  0.00000  0.00000  0.00000
2046 357489.000  -2408694.9159   4698107.1631   3566698.3920   2   8   0.1435   0.2509   0.2101  -0.1429   0.1803  -0.1002   0.00    2.8    0.00553   -0.00809   -0.01355   0.00000  0.00000  0.00000  0.00000  0.00000  0.00000
2046 357490.000  -2408694.9120   4698107.1566   3566698.3868   2   8   0.1406   0.2457   0.2054  -0.1399   0.1763  -0.0981   0.00    2.9    0.00292    0.01066    0.01869   0.00000  0.00000  0.00000  0.00000  0.00000  0.00000
2046 357491.000  -2408694.9087   4698107.1496   3566698.3806   2   8   0.1379   0.2408   0.2009  -0.1372   0.1726  -0.0961   0.00    2.9    0.00087   -0.00333   -0.00894   0.00000  0.00000  0.00000  0.00000  0.00000  0.00000
2046 357492.000  -2408694.9057   4698107.1458   3566698.3765   2   8   0.1353   0.2362   0.1967  -0.1346   0.1691  -0.0943   0.00    3.0   -0.00577    0.01627    0.00118   0.00000  0.00000  0.00000  0.00000  0.00000  0.00000
2046 357493.000  -2408694.4838   4698106.4843   3566698.3556   1   8   0.0071   0.0124   0.0106  -0.0070   0.0090  -0.0050   0.00    3.0   -0.02600    0.00011    0.02030   0.00000  0.00000  0.00000  0.00000  0.00000  0.00000
2046 357494.000  -2408694.4836   4698106.4832   3566698.3550   1   8   0.0070   0.0124   0.0106  -0.0070   0.0090  -0.0050   0.00    3.1   -0.00953   -0.01173   -0.00468   0.00000  0.00000  0.00000  0.00000  0.00000  0.00000
2046 357495.000  -2408694.4835   4698106.4857   3566698.3561   1   8   0.0071   0.0124   0.0106  -0.0070   0.0090  -0.0050   0.00    3.1   -0.01487    0.02073    0.01070   0.00000  0.00000  0.00000  0.00000  0.00000  0.00000
2046 357496.000  -2408694.4842   4698106.4832   3566698.3546   1   8   0.0071   0.0124   0.0106  -0.0070   0.0090  -0.0050   0.00    3.2   -0.02042    0.00875   -0.00017   0.00000  0.00000  0.00000  0.00000  0.00000  0.00000
2046 357497.000  -2408694.4825   4698106.4805   3566698.3521   1   8   0.0070   0.0124   0.0106  -0.0071   0.0090  -0.0050   0.00    3.2   -0.00388    0.00478    0.00707   0.00000  0.00000  0.00000  0.00000  0.00000  0.00000
2046 357498.000  -2408694.4826   4698106.4805   3566698.3542   1   8   0.0071   0.0124   0.0105  -0.0071   0.0090  -0.0049   0.00  118.4   -0.00567    0.01829    0.02022   0.00000  0.00000  0.00000  0.00000  0.00000  0.00000
2046 357499.000  -2408694.4826   4698106.4791   3566698.3522   1   8   0.0071   0.0124   0.0106  -0.0071   0.0090  -0.0050   0.00  150.0   -0.01022    0.00945    0.01756   0.00000  0.00000  0.00000  0.00000  0.00000  0.00000
2046 357500.000  -2408694.4834   4698106.4808   3566698.3528   1   8   0.0070   0.0124   0.0106  -0.0070   0.0090  -0.0050   0.00  182.5   -0.01839    0.01388    0.01974   0.00000  0.00000  0.00000  0.00000  0.00000  0.00000
2046 357501.000  -2408694.4826   4698106.4791   3566698.3517   1   8   0.0071   0.0124   0.0106  -0.0070   0.0090  -0.0049   0.00  217.0   -0.02346    0.01454    0.01016   0.00000  0.00000  0.00000  0.00000  0.00000  0.00000
2046 357502.000  -2408694.4819   4698106.4802   3566698.3520   1   8   0.0070   0.0124   0.0105  -0.0071   0.0090  -0.0051   0.00  252.2   -0.00468    0.00110    0.01186   0.00000  0.00000  0.00000  0.00000  0.00000  0.00000
2046 357503.000  -2408694.4826   4698106.4811   3566698.3515   1   8   0.0071   0.0124   0.0106  -0.0070   0.0090  -0.0049   0.00  288.5   -0.00190    0.00626    0.01626   0.00000  0.00000  0.00000  0.00000  0.00000  0.00000
2046 357504.000  -2408694.4823   4698106.4823   3566698.3532   1   8   0.0070   0.0124   0.0105  -0.0071   0.0090  -0.0050   0.00  324.3   -0.00385    0.01391    0.00127   0.00000  0.00000  0.00000  0.00000  0.00000  0.00000
2046 357505.000  -2408694.4823   4698106.4790   3566698.3543   1   8   0.0070   0.0124   0.0105  -0.0071   0.0090  -0.0050   0.00  365.4   -0.00993    0.00887    0.01032   0.00000  0.00000  0.00000  0.00000  0.00000  0.00000
2046 357506.000  -2408694.4827   4698106.4831   3566698.3553   1   8   0.0071   0.0124   0.0106  -0.0070   0.0089  -0.0050   0.00  398.7   -0.00309    0.01374    0.01382   0.00000  0.00000  0.00000  0.00000  0.00000  0.00000
2046 357507.000  -2408694.4836   4698106.4823   3566698.3546   1   8   0.0070   0.0124   0.0106  -0.0071   0.0090  -0.0050   0.00  433.7   -0.00496    0.01437    0.02298   0.00000  0.00000  0.00000  0.00000  0.00000  0.00000
2046 357508.000  -2408694.4837   4698106.4816   3566698.3553   1   8   0.0071   0.0123   0.0105  -0.0071   0.0090  -0.0050   0.00  472.4    0.00299    0.00073    0.01052   0.00000  0.00000  0.00000  0.00000  0.00000  0.00000
2046 357509.000  -2408694.4847   4698106.4807   3566698.3543   1   8   0.0071   0.0124   0.0105  -0.0071   0.0090  -0.0050   0.00  506.1    0.01172    0.00184   -0.01728   0.00000  0.00000  0.00000  0.00000  0.00000  0.00000
2046 357510.000  -2408694.4844   4698106.4840   3566698.3568   1   8   0.0070   0.0124   0.0106  -0.0070   0.0090  -0.0050   0.00  541.0   -0.00333    0.01123   -0.00245   0.00000  0.00000  0.00000  0.00000  0.00000  0.00000
2046 357511.000  -2408694.4853   4698106.4855   3566698.3581   1   8   0.0070   0.0124   0.0106  -0.0070   0.0090  -0.0049   0.00  573.2   -0.00195    0.00317   -0.00066   0.00000  0.00000  0.00000  0.00000  0.00000  0.00000
2046 357512.000  -2408694.4845   4698106.4835   3566698.3554   1   8   0.0072   0.0124   0.0106  -0.0070   0.0090  -0.0049   0.00  601.7   -0.00761   -0.01234    0.00759   0.00000  0.00000  0.00000  0.00000  0.00000  0.00000
2046 357513.000  -2408694.4843   4698106.4842   3566698.3574   1   8   0.0070   0.0124   0.0106  -0.0071   0.0090  -0.0049   0.00  623.1   -0.00264    0.01920    0.00193   0.00000  0.00000  0.00000  0.00000  0.00000  0.00000
2046 357514.000  -2408694.4839   4698106.4826   3566698.3579   1   8   0.0070   0.0124   0.0106  -0.0070   0.0089  -0.0050   0.00  644.5   -0.01803    0.02436    0.00829   0.00000  0.00000  0.00000  0.00000  0.00000  0.00000
2046 357515.000  -2408694.4830   4698106.4818   3566698.3576   1   8   0.0071   0.0124   0.0105  -0.0071   0.0090  -0.0049   0.00  662.8   -0.02116    0.04002    0.02758   0.00000  0.00000  0.00000  0.00000  0.00000  0.00000
2046 357516.000  -2408694.4824   4698106.4813   3566698.3573   1   8   0.0071   0.0124   0.0105  -0.0071   0.0090  -0.0050   0.00  685.8    0.01134   -0.01837   -0.01249   0.00000  0.00000  0.00000  0.00000  0.00000  0.00000
2046 357517.000  -2408694.4831   4698106.4810   3566698.3581   1   8   0.0070   0.0124   0.0106  -0.0070   0.0090  -0.0051   0.00  706.4    0.00308   -0.00811   -0.00491   0.00000  0.00000  0.00000  0.00000  0.00000  0.00000
2046 357518.000  -2408694.4822   4698106.4807   3566698.3573   1   8   0.0070   0.0123   0.0105  -0.0071   0.0090  -0.0050   0.00  729.0   -0.01252    0.00838    0.01558   0.00000  0.00000  0.00000  0.00000  0.00000  0.00000
2046 357519.000  -2408694.4826   4698106.4827   3566698.3589   1   8   0.0071   0.0123   0.0105  -0.0070   0.0090  -0.0048   0.00  749.6    0.01541   -0.00275    0.01472   0.00000  0.00000  0.00000  0.00000  0.00000  0.00000
2046 357520.000  -2408694.4814   4698106.4805   3566698.3591   1   8   0.0071   0.0124   0.0106  -0.0070   0.0089  -0.0050   0.00  769.8   -0.02618    0.04583    0.02654   0.00000  0.00000  0.00000  0.00000  0.00000  0.00000
2046 357521.000  -2408694.4811   4698106.4809   3566698.3591   1   8   0.0071   0.0123   0.0105  -0.0071   0.0090  -0.0050   0.00  789.0   -0.00461   -0.00510    0.00526   0.00000  0.00000  0.00000  0.00000  0.00000  0.00000
2046 357522.000  -2408694.4797   4698106.4793   3566698.3584   1   8   0.0071   0.0124   0.0105  -0.0071   0.0090  -0.0050   0.00  799.9   -0.00916    0.01422    0.02749   0.00000  0.00000  0.00000  0.00000  0.00000  0.00000
2046 357523.000  -2408694.4785   4698106.4776   3566698.3553   1   8   0.0072   0.0124   0.0106  -0.0070   0.0090  -0.0049   0.00  813.4   -0.00608    0.00551   -0.01232   0.00000  0.00000  0.00000  0.00000  0.00000  0.00000
2046 357524.000  -2408694.4790   4698106.4785   3566698.3565   1   8   0.0071   0.0124   0.0106  -0.0071   0.0090  -0.0050   0.00  825.5   -0.00234    0.01683    0.01997   0.00000  0.00000  0.00000  0.00000  0.00000  0.00000
2046 357525.000  -2408694.4795   4698106.4787   3566698.3564   1   8   0.0071   0.0124   0.0105  -0.0071   0.0089  -0.0050   0.00  835.8    0.00567   -0.00202   -0.00510   0.00000  0.00000  0.00000  0.00000  0.00000  0.00000
2046 357526.000  -2408694.4797   4698106.4802   3566698.3571   1   8   0.0070   0.0124   0.0105  -0.0071   0.0090  -0.0051   0.00  848.8   -0.02177    0.05250    0.02080   0.00000  0.00000  0.00000  0.00000  0.00000  0.00000
2046 357527.000  -2408694.4809   4698106.4819   3566698.3568   1   8   0.0071   0.0124   0.0105  -0.0070   0.0089  -0.0050   0.00  861.5   -0.00440    0.02497    0.01889   0.00000  0.00000  0.00000  0.00000  0.00000  0.00000
2046 357528.000  -2408694.4807   4698106.4817   3566698.3572   1   8   0.0070   0.0124   0.0106  -0.0070   0.0090  -0.0049   0.00  871.8   -0.01250    0.01119    0.01886   0.00000  0.00000  0.00000  0.00000  0.00000  0.00000
2046 357529.000  -2408694.4802   4698106.4839   3566698.3563   1   8   0.0071   0.0124   0.0105  -0.0071   0.0090  -0.0050   0.00  882.8   -0.00838    0.02836    0.02423   0.00000  0.00000  0.00000  0.00000  0.00000  0.00000
2046 357530.000  -2408694.4802   4698106.4830   3566698.3560   1   8   0.0071   0.0123   0.0105  -0.0070   0.0089  -0.0049   0.00  893.8   -0.00852    0.00795    0.00686   0.00000  0.00000  0.00000  0.00000  0.00000  0.00000
2046 357531.000  -2408694.4803   4698106.4840   3566698.3562   1   8   0.0071   0.0124   0.0105  -0.0071   0.0090  -0.0049   0.00  903.9   -0.00543   -0.00520    0.00844   0.00000  0.00000  0.00000  0.00000  0.00000  0.00000
2046 357532.000  -2408694.4808   4698106.4840   3566698.3581   1   8   0.0070   0.0124   0.0105  -0.0071   0.0090  -0.0050   0.00  921.0   -0.01024    0.01870    0.01596   0.00000  0.00000  0.00000  0.00000  0.00000  0.00000
2046 357533.000  -2408694.4789   4698106.4809   3566698.3538   1   8   0.0070   0.0123   0.0105  -0.0071   0.0090  -0.0050   0.00  936.6    0.01284   -0.00890   -0.01726   0.00000  0.00000  0.00000  0.00000  0.00000  0.00000
2046 357534.000  -2408694.4801   4698106.4807   3566698.3547   1   8   0.0070   0.0124   0.0105  -0.0071   0.0090  -0.0050   0.00  960.4    0.00993   -0.01227    0.01196   0.00000  0.00000  0.00000  0.00000  0.00000  0.00000
2046 357535.000  -2408694.4796   4698106.4808   3566698.3536   1   8   0.0070   0.0124   0.0105  -0.0071   0.0089  -0.0050   0.00  978.4    0.01450   -0.00455   -0.00574   0.00000  0.00000  0.00000  0.00000  0.00000  0.00000
2046 357536.000  -2408694.4800   4698106.4856   3566698.3553   1   8   0.0071   0.0123   0.0105  -0.0071   0.0090  -0.0050   0.00  988.4   -0.00622    0.01169    0.00351   0.00000  0.00000  0.00000  0.00000  0.00000  0.00000
2046 357537.000  -2408694.4794   4698106.4843   3566698.3545   1   8   0.0072   0.0123   0.0105  -0.0071   0.0090  -0.0050   0.00  997.9    0.00938    0.02055    0.00810   0.00000  0.00000  0.00000  0.00000  0.00000  0.00000
2046 357538.000  -2408694.4791   4698106.4853   3566698.3550   1   8   0.0071   0.0123   0.0105  -0.0071   0.0090  -0.0049   0.00  999.9    0.01812    0.00764    0.02774   0.00000  0.00000  0.00000  0.00000  0.00000  0.00000
2046 357539.000  -2408694.4798   4698106.4822   3566698.3546   1   8   0.0072   0.0124   0.0105  -0.0071   0.0090  -0.0049   0.00  999.9    0.00619   -0.01449    0.00477   0.00000  0.00000  0.00000  0.00000  0.00000  0.00000
2046 357540.000  -2408694.4819   4698106.4829   3566698.3561   1   8   0.0071   0.0124   0.0105  -0.0071   0.0089  -0.0050   0.00  999.9   -0.02238   -0.01228   -0.00597   0.00000  0.00000  0.00000  0.00000  0.00000  0.00000
2046 357541.000  -2408694.4811   4698106.4827   3566698.3537   1   8   0.0071   0.0124   0.0106  -0.0070   0.0090  -0.0049   0.00  999.9   -0.00940    0.01809    0.00261   0.00000  0.00000  0.00000  0.00000  0.00000  0.00000
2046 357542.000  -2408694.4815   4698106.4827   3566698.3532   1   8   0.0072   0.0124   0.0105  -0.0070   0.0089  -0.0049   0.00  999.9   -0.01021    0.01346    0.01259   0.00000  0.00000  0.00000  0.00000  0.00000  0.00000
2046 357543.000  -2408694.4811   4698106.4810   3566698.3546   1   8   0.0070   0.0124   0.0105  -0.0071   0.0089  -0.0050   0.00  999.9   -0.00946    0.00626   -0.01081   0.00000  0.00000  0.00000  0.00000  0.00000  0.00000
2046 357544.000  -2408694.4805   4698106.4812   3566698.3550   1   8   0.0071   0.0124   0.0105  -0.0071   0.0089  -0.0050   0.00  999.9   -0.00652    0.00844    0.01206   0.00000  0.00000  0.00000  0.00000  0.00000  0.00000
2046 357545.000  -2408694.4805   4698106.4833   3566698.3589   1   8   0.0071   0.0124   0.0105  -0.0071   0.0090  -0.0050   0.00  999.9   -0.00307    0.01763   -0.00686   0.00000  0.00000  0.00000  0.00000  0.00000  0.00000
2046 357546.000  -2408694.4804   4698106.4811   3566698.3584   1   8   0.0070   0.0123   0.0105  -0.0071   0.0090  -0.0049   0.00  999.9   -0.00250    0.00615   -0.00263   0.00000  0.00000  0.00000  0.00000  0.00000  0.00000
2046 357547.000  -2408694.4813   4698106.4816   3566698.3608   1   8   0.0070   0.0124   0.0105  -0.0071   0.0089  -0.0049   0.00  999.9   -0.00645    0.00114    0.02418   0.00000  0.00000  0.00000  0.00000  0.00000  0.00000
2046 357548.000  -2408694.4819   4698106.4837   3566698.3600   1   8   0.0071   0.0123   0.0105  -0.0071   0.0089  -0.0049   0.00  999.9    0.01097   -0.01153   -0.00104   0.00000  0.00000  0.00000  0.00000  0.00000  0.00000
2046 357549.000  -2408694.4809   4698106.4813   3566698.3597   1   8   0.0070   0.0124   0.0105  -0.0070   0.0089  -0.0050   0.00  999.9   -0.00548    0.00353   -0.00401   0.00000  0.00000  0.00000  0.00000  0.00000  0.00000
2046 357550.000  -2408694.4780   4698106.4773   3566698.3556   1   8   0.0071   0.0124   0.0105  -0.0071   0.0089  -0.0050   0.00  999.9    0.01142   -0.00200    0.00264   0.00000  0.00000  0.00000  0.00000  0.00000  0.00000
2046 357551.000  -2408694.4799   4698106.4813   3566698.3584   1   8   0.0070   0.0123   0.0105  -0.0071   0.0090  -0.0050   0.00  999.9    0.00396    0.01303   -0.00389   0.00000  0.00000  0.00000  0.00000  0.00000  0.00000
2046 357552.000  -2408694.4798   4698106.4789   3566698.3570   1   8   0.0071   0.0123   0.0104  -0.0071   0.0090  -0.0050   0.00  999.9   -0.00998    0.01704    0.00245   0.00000  0.00000  0.00000  0.00000  0.00000  0.00000
2046 357553.000  -2408694.4800   4698106.4801   3566698.3573   1   8   0.0072   0.0124   0.0105  -0.0071   0.0089  -0.0050   0.00  999.9   -0.01349   -0.00841   -0.00029   0.00000  0.00000  0.00000  0.00000  0.00000  0.00000
2046 357554.000  -2408694.4804   4698106.4799   3566698.3581   1   8   0.0072   0.0124   0.0105  -0.0070   0.0089  -0.0049   0.00  999.9   -0.01763    0.05033    0.00328   0.00000  0.00000  0.00000  0.00000  0.00000  0.00000
2046 357555.000  -2408694.4806   4698106.4797   3566698.3587   1   8   0.0071   0.0124   0.0105  -0.0071   0.0089  -0.0049   0.00  999.9    0.00313   -0.00479   -0.00682   0.00000  0.00000  0.00000  0.00000  0.00000  0.00000
2046 357556.000  -2408694.4802   4698106.4800   3566698.3569   1   8   0.0071   0.0123   0.0105  -0.0071   0.0090  -0.0049   0.00  999.9    0.01407   -0.01027   -0.01225   0.00000  0.00000  0.00000  0.00000  0.00000  0.00000
2046 357557.000  -2408694.4820   4698106.4811   3566698.3586   1   8   0.0071   0.0124   0.0105  -0.0070   0.0089  -0.0049   0.00  999.9   -0.01085    0.02448    0.01668   0.00000  0.00000  0.00000  0.00000  0.00000  0.00000
2046 357558.000  -2408694.4809   4698106.4782   3566698.3536   1   8   0.0070   0.0124   0.0105  -0.0071   0.0089  -0.0050   0.00  999.9   -0.02306    0.02444    0.02829   0.00000  0.00000  0.00000  0.00000  0.00000  0.00000
2046 357559.000  -2408694.4791   4698106.4776   3566698.3550   1   8   0.0071   0.0123   0.0105  -0.0071   0.0090  -0.0049   0.00  999.9    0.01152   -0.00497    0.00479   0.00000  0.00000  0.00000  0.00000  0.00000  0.00000
2046 357560.000  -2408694.4797   4698106.4783   3566698.3554   1   8   0.0071   0.0124   0.0105  -0.0070   0.0089  -0.0049   0.00  999.9   -0.01829    0.03455    0.01764   0.00000  0.00000  0.00000  0.00000  0.00000  0.00000
2046 357561.000  -2408694.4801   4698106.4802   3566698.3579   1   8   0.0071   0.0124   0.0105  -0.0071   0.0089  -0.0050   0.00  999.9   -0.00198    0.00127   -0.00876   0.00000  0.00000  0.00000  0.00000  0.00000  0.00000
2046 357562.000  -2408694.4790   4698106.4796   3566698.3585   1   8   0.0072   0.0124   0.0105  -0.0070   0.0089  -0.0049   0.00  999.9   -0.01864   -0.00167    0.00903   0.00000  0.00000  0.00000  0.00000  0.00000  0.00000
2046 357563.000  -2408694.4771   4698106.4761   3566698.3562   1   8   0.0071   0.0124   0.0105  -0.0070   0.0089  -0.0050   0.00  999.9    0.00690    0.00653   -0.00090   0.00000  0.00000  0.00000  0.00000  0.00000  0.00000
2046 357564.000  -2408694.4779   4698106.4755   3566698.3564   1   8   0.0071   0.0124   0.0105  -0.0071   0.0089  -0.0050   0.00  999.9   -0.00968   -0.01432    0.00101   0.00000  0.00000  0.00000  0.00000  0.00000  0.00000
2046 357565.000  -2408694.4768   4698106.4758   3566698.3540   1   8   0.0071   0.0124   0.0105  -0.0070   0.0089  -0.0050   0.00  999.9   -0.00886   -0.00189    0.00331   0.00000  0.00000  0.00000  0.00000  0.00000  0.00000
2046 357566.000  -2408694.4789   4698106.4755   3566698.3563   1   8   0.0071   0.0123   0.0105  -0.0071   0.0090  -0.0049   0.00  999.9   -0.01320    0.00436   -0.00092   0.00000  0.00000  0.00000  0.00000  0.00000  0.00000
2046 357567.000  -2408694.4776   4698106.4762   3566698.3562   1   8   0.0070   0.0123   0.0105  -0.0071   0.0089  -0.0049   0.00  999.9    0.00498   -0.01094    0.00665   0.00000  0.00000  0.00000  0.00000  0.00000  0.00000
2046 357568.000  -2408694.4780   4698106.4757   3566698.3554   1   8   0.0072   0.0124   0.0105  -0.0071   0.0090  -0.0049   0.00  999.9   -0.01684    0.03065    0.01888   0.00000  0.00000  0.00000  0.00000  0.00000  0.00000
2046 357569.000  -2408694.4770   4698106.4763   3566698.3579   1   8   0.0071   0.0124   0.0105  -0.0071   0.0089  -0.0050   0.00  999.9   -0.00443    0.01688    0.00150   0.00000  0.00000  0.00000  0.00000  0.00000  0.00000
2046 357570.000  -2408694.4781   4698106.4794   3566698.3580   1   8   0.0071   0.0124   0.0105  -0.0070   0.0089  -0.0050   0.00  999.9    0.01783    0.00442    0.02084   0.00000  0.00000  0.00000  0.00000  0.00000  0.00000
2046 357571.000  -2408694.4787   4698106.4786   3566698.3581   1   8   0.0071   0.0124   0.0105  -0.0071   0.0090  -0.0050   0.00  999.9    0.01159    0.00140   -0.01746   0.00000  0.00000  0.00000  0.00000  0.00000  0.00000
2046 357572.000  -2408694.4787   4698106.4761   3566698.3564   1   8   0.0070   0.0123   0.0104  -0.0071   0.0089  -0.0050   0.00  999.9    0.00212   -0.01641    0.00207   0.00000  0.00000  0.00000  0.00000  0.00000  0.00000
2046 357573.000  -2408694.4790   4698106.4768   3566698.3565   1   8   0.0071   0.0123   0.0104  -0.0072   0.0090  -0.0050   0.00  999.9   -0.01452    0.01487    0.00110   0.00000  0.00000  0.00000  0.00000  0.00000  0.00000
2046 357574.000  -2408694.4787   4698106.4793   3566698.3590   1   8   0.0071   0.0124   0.0105  -0.0071   0.0089  -0.0049   0.00  999.9   -0.00496    0.03142    0.01122   0.00000  0.00000  0.00000  0.00000  0.00000  0.00000
2046 357575.000  -2408694.4820   4698106.4787   3566698.3587   1   8   0.0071   0.0123   0.0105  -0.0071   0.0089  -0.0050   0.00  999.9    0.00154    0.00624    0.01388   0.00000  0.00000  0.00000  0.00000  0.00000  0.00000
2046 357576.000  -2408694.4813   4698106.4791   3566698.3582   1   8   0.0071   0.0123   0.0105  -0.0071   0.0089  -0.0049   0.00  999.9   -0.02484    0.04230   -0.00519   0.00000  0.00000  0.00000  0.00000  0.00000  0.00000
2046 357577.000  -2408694.4822   4698106.4810   3566698.3598   1   8   0.0071   0.0124   0.0105  -0.0071   0.0089  -0.0051   0.00  999.9    0.01504    0.00989    0.02307   0.00000  0.00000  0.00000  0.00000  0.00000  0.00000
2046 357578.000  -2408694.4811   4698106.4776   3566698.3592   1   8   0.0071   0.0123   0.0104  -0.0071   0.0090  -0.0049   0.00  999.9    0.00137    0.01402    0.01596   0.00000  0.00000  0.00000  0.00000  0.00000  0.00000
2046 357579.000  -2408694.4807   4698106.4777   3566698.3573   1   8   0.0070   0.0124   0.0105  -0.0070   0.0089  -0.0050   0.00  999.9   -0.01331    0.02462   -0.00539   0.00000  0.00000  0.00000  0.00000  0.00000  0.00000
2046 357580.000  -2408694.4802   4698106.4774   3566698.3586   1   8   0.0071   0.0124   0.0105  -0.0071   0.0089  -0.0050   0.00  999.9   -0.00941    0.02284    0.01843   0.00000  0.00000  0.00000  0.00000  0.00000  0.00000
2046 357581.000  -2408694.4827   4698106.4813   3566698.3604   1   8   0.0071   0.0124   0.0105  -0.0071   0.0089  -0.0050   0.00  999.9    0.00802    0.00996    0.00002   0.00000  0.00000  0.00000  0.00000  0.00000  0.00000
2046 357582.000  -2408694.4800   4698106.4783   3566698.3592   1   8   0.0071   0.0123   0.0105  -0.0071   0.0089  -0.0050   0.00  999.9   -0.02316    0.01349   -0.00170   0.00000  0.00000  0.00000  0.00000  0.00000  0.00000
2046 357583.000  -2408694.4805   4698106.4810   3566698.3610   1   8   0.0071   0.0124   0.0105  -0.0071   0.0089  -0.0049   0.00  999.9    0.00982    0.00822    0.02170   0.00000  0.00000  0.00000  0.00000  0.00000  0.00000
2046 357584.000  -2408694.4806   4698106.4819   3566698.3623   1   8   0.0071   0.0124   0.0104  -0.0071   0.0089  -0.0050   0.00  999.9   -0.00894    0.01404    0.00628   0.00000  0.00000  0.00000  0.00000  0.00000  0.00000
2046 357585.000  -2408694.4808   4698106.4800   3566698.3591   1   8   0.0071   0.0123   0.0105  -0.0071   0.0089  -0.0050   0.00  999.9   -0.01902    0.01927    0.00353   0.00000  0.00000  0.00000  0.00000  0.00000  0.00000
2046 357586.000  -2408694.4804   4698106.4822   3566698.3606   1   8   0.0071   0.0123   0.0104  -0.0071   0.0089  -0.0050   0.00  999.9   -0.01225    0.02812    0.00082   0.00000  0.00000  0.00000  0.00000  0.00000  0.00000
2046 357587.000  -2408694.4793   4698106.4830   3566698.3592   1   8   0.0071   0.0123   0.0105  -0.0071   0.0089  -0.0049   0.00  999.9   -0.00479    0.02217    0.02061   0.00000  0.00000  0.00000  0.00000  0.00000  0.00000
2046 357588.000  -2408694.4787   4698106.4812   3566698.3554   1   8   0.0071   0.0123   0.0105  -0.0071   0.0089  -0.0050   0.00  999.9   -0.01176    0.01999    0.00331   0.00000  0.00000  0.00000  0.00000  0.00000  0.00000
2046 357589.000  -2408694.4786   4698106.4844   3566698.3599   1   8   0.0071   0.0124   0.0105  -0.0071   0.0089  -0.0050   0.00  999.9   -0.00235    0.00963    0.02404   0.00000  0.00000  0.00000  0.00000  0.00000  0.00000
2046 357590.000  -2408694.4791   4698106.4842   3566698.3598   1   8   0.0071   0.0124   0.0105  -0.0070   0.0089  -0.0049   0.00  999.9   -0.00920   -0.01947   -0.02896   0.00000  0.00000  0.00000  0.00000  0.00000  0.00000
2046 357591.000  -2408694.4782   4698106.4838   3566698.3609   1   8   0.0070   0.0123   0.0105  -0.0071   0.0089  -0.0049   0.00  999.9   -0.01993    0.00883    0.01722   0.00000  0.00000  0.00000  0.00000  0.00000  0.00000
2046 357592.000  -2408694.4789   4698106.4846   3566698.3623   1   8   0.0071   0.0123   0.0104  -0.0071   0.0089  -0.0049   0.00  999.9   -0.01878    0.02548    0.03170   0.00000  0.00000  0.00000  0.00000  0.00000  0.00000
2046 357593.000  -2408694.4789   4698106.4819   3566698.3624   1   8   0.0070   0.0123   0.0104  -0.0071   0.0089  -0.0050   0.00  999.9    0.00613   -0.00603    0.00148   0.00000  0.00000  0.00000  0.00000  0.00000  0.00000
2046 357594.000  -2408694.4783   4698106.4819   3566698.3594   1   8   0.0070   0.0123   0.0105  -0.0071   0.0089  -0.0049   0.00  999.9   -0.00532    0.01209    0.00132   0.00000  0.00000  0.00000  0.00000  0.00000  0.00000
2046 357595.000  -2408694.4774   4698106.4813   3566698.3573   1   8   0.0071   0.0123   0.0105  -0.0071   0.0089  -0.0049   0.00  999.9    0.01023   -0.01175   -0.01231   0.00000  0.00000  0.00000  0.00000  0.00000  0.00000
2046 357596.000  -2408694.4792   4698106.4829   3566698.3555   1   8   0.0071   0.0124   0.0105  -0.0071   0.0089  -0.0051   0.00  999.9    0.00583    0.00142   -0.01418   0.00000  0.00000  0.00000  0.00000  0.00000  0.00000
2046 357597.000  -2408694.4784   4698106.4808   3566698.3522   1   8   0.0070   0.0123   0.0104  -0.0071   0.0089  -0.0050   0.00  999.9   -0.00689   -0.01513   -0.00989   0.00000  0.00000  0.00000  0.00000  0.00000  0.00000
2046 357598.000  -2408694.4800   4698106.4830   3566698.3536   1   8   0.0071   0.0124   0.0104  -0.0071   0.0089  -0.0049   0.00  999.9   -0.00534    0.00912    0.00723   0.00000  0.00000  0.00000  0.00000  0.00000  0.00000
2046 357599.000  -2408694.4787   4698106.4791   3566698.3558   1   8   0.0072   0.0123   0.0105  -0.0070   0.0089  -0.0049   0.00  999.9    0.00409   -0.01434   -0.02706   0.00000  0.00000  0.00000  0.00000  0.00000  0.00000
2046 357600.000  -2408694.4778   4698106.4796   3566698.3547   1   8   0.0071   0.0124   0.0105  -0.0070   0.0089  -0.0049   0.00  999.9   -0.00968    0.00869   -0.01242   0.00000  0.00000  0.00000  0.00000  0.00000  0.00000
2046 357601.000  -2408694.4780   4698106.4786   3566698.3550   1   8   0.0072   0.0124   0.0105  -0.0070   0.0089  -0.0049   0.00  999.9   -0.01998   -0.00297    0.03268   0.00000  0.00000  0.00000  0.00000  0.00000  0.00000
2046 357602.000  -2408694.4761   4698106.4783   3566698.3558   1   8   0.0071   0.0124   0.0105  -0.0071   0.0089  -0.0050   0.00  999.9   -0.01462    0.03639    0.00337   0.00000  0.00000  0.00000  0.00000  0.00000  0.00000
2046 357603.000  -2408694.4763   4698106.4779   3566698.3538   1   8   0.0071   0.0123   0.0104  -0.0071   0.0089  -0.0049   0.00  999.9    0.00948    0.00633    0.03839   0.00000  0.00000  0.00000  0.00000  0.00000  0.00000
2046 357604.000  -2408694.4766   4698106.4790   3566698.3549   1   8   0.0071   0.0123   0.0104  -0.0071   0.0089  -0.0049   0.00  999.9    0.01148    0.00120   -0.01595   0.00000  0.00000  0.00000  0.00000  0.00000  0.00000
2046 357605.000  -2408694.4768   4698106.4793   3566698.3551   1   8   0.0072   0.0123   0.0104  -0.0071   0.0089  -0.0048   0.00  999.9   -0.01499    0.04187    0.02894   0.00000  0.00000  0.00000  0.00000  0.00000  0.00000
2046 357606.000  -2408694.4760   4698106.4808   3566698.3558   1   8   0.0071   0.0123   0.0104  -0.0071   0.0089  -0.0049   0.00  999.9   -0.02634    0.03972    0.01479   0.00000  0.00000  0.00000  0.00000  0.00000  0.00000
2046 357607.000  -2408694.4768   4698106.4795   3566698.3552   1   9   0.0071   0.0123   0.0104  -0.0071   0.0089  -0.0049   0.00  999.9   -0.01585    0.03381    0.02724   0.00000  0.00000  0.00000  0.00000  0.00000  0.00000
2046 357608.000  -2408694.4785   4698106.4793   3566698.3557   1   9   0.0070   0.0120   0.0104  -0.0066   0.0088  -0.0047   0.00  999.9    0.00719    0.01101    0.01595   0.00000  0.00000  0.00000  0.00000  0.00000  0.00000
2046 357609.000  -2408694.4797   4698106.4847   3566698.3597   1   9   0.0067   0.0118   0.0104  -0.0065   0.0087  -0.0048   0.00  999.9    0.00120   -0.00450   -0.00288   0.00000  0.00000  0.00000  0.00000  0.00000  0.00000
2046 357610.000  -2408694.4791   4698106.4847   3566698.3611   1   9   0.0066   0.0118   0.0104  -0.0063   0.0087  -0.0046   0.00  999.9   -0.00013    0.00483    0.01332   0.00000  0.00000  0.00000  0.00000  0.00000  0.00000
2046 357611.000  -2408694.4798   4698106.4849   3566698.3608   1   9   0.0066   0.0117   0.0104  -0.0063   0.0086  -0.0047   0.00  999.9   -0.00288    0.02658    0.01499   0.00000  0.00000  0.00000  0.00000  0.00000  0.00000
2046 357612.000  -2408694.4819   4698106.4855   3566698.3607   1   9   0.0064   0.0116   0.0104  -0.0061   0.0086  -0.0047   0.00    6.1    0.01238   -0.00616   -0.01701   0.00000  0.00000  0.00000  0.00000  0.00000  0.00000
2046 357613.000  -2408694.4821   4698106.4848   3566698.3592   1   9   0.0065   0.0116   0.0104  -0.0061   0.0086  -0.0047   0.00   21.0   -0.00458   -0.00182    0.00605   0.00000  0.00000  0.00000  0.00000  0.00000  0.00000
2046 357614.000  -2408694.4812   4698106.4863   3566698.3604   1   9   0.0064   0.0116   0.0104  -0.0061   0.0086  -0.0047   0.00   35.7    0.01498    0.00929    0.01201   0.00000  0.00000  0.00000  0.00000  0.00000  0.00000
2046 357615.000  -2408694.4822   4698106.4860   3566698.3620   1   9   0.0064   0.0116   0.0104  -0.0061   0.0087  -0.0046   0.00   50.4   -0.00577    0.00109    0.00328   0.00000  0.00000  0.00000  0.00000  0.00000  0.00000
2046 357616.000  -2408694.4830   4698106.4884   3566698.3606   1   9   0.0066   0.0116   0.0104  -0.0061   0.0087  -0.0046   0.00   65.1    0.00767   -0.01055   -0.01993   0.00000  0.00000  0.00000  0.00000  0.00000  0.00000
2046 357617.000  -2408694.4819   4698106.4872   3566698.3619   1   9   0.0066   0.0116   0.0104  -0.0061   0.0086  -0.0047   0.00   79.6    0.00588    0.00017    0.03114   0.00000  0.00000  0.00000  0.00000  0.00000  0.00000
2046 357618.000  -2408694.4817   4698106.4857   3566698.3612   1   9   0.0065   0.0116   0.0104  -0.0062   0.0087  -0.0046   0.00   94.2   -0.01071    0.03517    0.02077   0.00000  0.00000  0.00000  0.00000  0.00000  0.00000
2046 357619.000  -2408694.4832   4698106.4880   3566698.3611   1   9   0.0064   0.0116   0.0104  -0.0062   0.0086  -0.0048   0.00  108.6    0.00178   -0.01620   -0.00697   0.00000  0.00000  0.00000  0.00000  0.00000  0.00000
2046 357620.000  -2408694.4828   4698106.4871   3566698.3596   1   9   0.0065   0.0116   0.0104  -0.0061   0.0086  -0.0047   0.00  122.8   -0.00559    0.00199    0.00198   0.00000  0.00000  0.00000  0.00000  0.00000  0.00000
2046 357621.000  -2408694.4807   4698106.4888   3566698.3632   1   9   0.0065   0.0116   0.0104  -0.0061   0.0086  -0.0046   0.00  136.9    0.01414   -0.02937   -0.03854   0.00000  0.00000  0.00000  0.00000  0.00000  0.00000
2046 357622.000  -2408694.4808   4698106.4881   3566698.3622   1   9   0.0064   0.0116   0.0104  -0.0061   0.0086  -0.0047   0.00  151.3   -0.00408   -0.01734   -0.00622   0.00000  0.00000  0.00000  0.00000  0.00000  0.00000
2046 357623.000  -2408694.4821   4698106.4842   3566698.3587   1   9   0.0066   0.0116   0.0104  -0.0063   0.0086  -0.0046   0.00  165.4    0.01982   -0.01698   -0.01349   0.00000  0.00000  0.00000  0.00000  0.00000  0.00000
2046 357624.000  -2408694.4812   4698106.4854   3566698.3615   1   9   0.0065   0.0116   0.0104  -0.0061   0.0086  -0.0046   0.00  179.4    0.00875    0.00099   -0.00795   0.00000  0.00000  0.00000  0.00000  0.00000  0.00000
2046 357625.000  -2408694.4824   4698106.4867   3566698.3597   1   9   0.0064   0.0116   0.0104  -0.0061   0.0086  -0.0047   0.00  193.8   -0.01839    0.01125    0.01984   0.00000  0.00000  0.00000  0.00000  0.00000  0.00000
2046 357626.000  -2408694.4823   4698106.4865   3566698.3585   1   9   0.0065   0.0115   0.0103  -0.0062   0.0086  -0.0047   0.00  207.9   -0.00203    0.00245   -0.00057   0.00000  0.00000  0.00000  0.00000  0.00000  0.00000
2046 357627.000  -2408694.4813   4698106.4883   3566698.3603   1   9   0.0065   0.0116   0.0104  -0.0061   0.0087  -0.0046   0.00  221.8   -0.00205   -0.00054    0.02770   0.00000  0.00000  0.00000  0.00000  0.00000  0.00000
2046 357628.000  -2408694.4834   4698106.4897   3566698.3588   1   9   0.0066   0.0116   0.0104  -0.0062   0.0086  -0.0046   0.00  234.5   -0.02243    0.06225    0.01845   0.00000  0.00000  0.00000  0.00000  0.00000  0.00000
2046 357629.000  -2408694.4808   4698106.4882   3566698.3633   1   8   0.0071   0.0123   0.0104  -0.0071   0.0089  -0.0050   0.00  999.9    0.00169   -0.02417    0.00416   0.00000  0.00000  0.00000  0.00000  0.00000  0.00000
2046 357630.000  -2408694.4817   4698106.4887   3566698.3609   1   8   0.0071   0.0124   0.0104  -0.0071   0.0089  -0.0049   0.00  999.9   -0.03520    0.01958    0.00348   0.00000  0.00000  0.00000  0.00000  0.00000  0.00000
2046 357631.000  -2408694.4809   4698106.4878   3566698.3633   1   9   0.0072   0.0123   0.0104  -0.0072   0.0089  -0.0049   0.00  999.9    0.02336   -0.03579    0.00364   0.00000  0.00000  0.00000  0.00000  0.00000  0.00000
2046 357632.000  -2408694.4807   4698106.4864   3566698.3619   1   9   0.0068   0.0120   0.0104  -0.0065   0.0087  -0.0048   0.00  999.9   -0.00235    0.00635    0.00387   0.00000  0.00000  0.00000  0.00000  0.00000  0.00000
2046 357633.000  -2408694.4801   4698106.4882   3566698.3638   1   8   0.0071   0.0123   0.0104  -0.0071   0.0089  -0.0050   0.00  999.9   -0.00955    0.03106    0.02764   0.00000  0.00000  0.00000  0.00000  0.00000  0.00000
2046 357634.000  -2408694.4802   4698106.4885   3566698.3634   1   8   0.0071   0.0123   0.0104  -0.0071   0.0088  -0.0050   0.00  999.9   -0.01406    0.02724    0.01308   0.00000  0.00000  0.00000  0.00000  0.00000  0.00000
2046 357635.000  -2408694.4799   4698106.4870   3566698.3639   1   8   0.0071   0.0123   0.0104  -0.0071   0.0089  -0.0049   0.00  999.9   -0.01492    0.00615   -0.00541   0.00000  0.00000  0.00000  0.00000  0.00000  0.00000
2046 357636.000  -2408694.4817   4698106.4883   3566698.3628   1   8   0.0073   0.0123   0.0104  -0.0071   0.0089  -0.0049   0.00  999.9   -0.00673    0.02164    0.00517   0.00000  0.00000  0.00000  0.00000  0.00000  0.00000
2046 357637.000  -2408694.4826   4698106.4893   3566698.3619   1   9   0.0071   0.0123   0.0104  -0.0071   0.0089  -0.0050   0.00  999.9   -0.00373    0.00468    0.00703   0.00000  0.00000  0.00000  0.00000  0.00000  0.00000
2046 357638.000  -2408694.4827   4698106.4903   3566698.3601   1   9   0.0068   0.0119   0.0104  -0.0066   0.0088  -0.0049   0.00  999.9    0.00413    0.00492   -0.00099   0.00000  0.00000  0.00000  0.00000  0.00000  0.00000
2046 357639.000  -2408694.4833   4698106.4894   3566698.3615   1   9   0.0067   0.0118   0.0104  -0.0064   0.0087  -0.0047   0.00  999.9    0.05637   -0.06497    0.00258   0.00000  0.00000  0.00000  0.00000  0.00000  0.00000
2046 357640.000  -2408694.4818   4698106.4861   3566698.3623   1   9   0.0067   0.0117   0.0104  -0.0063   0.0087  -0.0047   0.00  999.9    0.01802   -0.00895   -0.00124   0.00000  0.00000  0.00000  0.00000  0.00000  0.00000
2046 357641.000  -2408694.4826   4698106.4872   3566698.3615   1   9   0.0068   0.0117   0.0104  -0.0064   0.0087  -0.0047   0.00  999.9   -0.01276    0.04422    0.00534   0.00000  0.00000  0.00000  0.00000  0.00000  0.00000
2046 357642.000  -2408694.4829   4698106.4886   3566698.3638   1   9   0.0064   0.0116   0.0103  -0.0062   0.0086  -0.0048   0.00    6.6    0.01068   -0.01145    0.02208   0.00000  0.00000  0.00000  0.00000  0.00000  0.00000
2046 357643.000  -2408694.4827   4698106.4876   3566698.3632   1   9   0.0065   0.0116   0.0104  -0.0061   0.0086  -0.0047   0.00   20.7   -0.00954    0.01349    0.00725   0.00000  0.00000  0.00000  0.00000  0.00000  0.00000
2046 357644.000  -2408694.4821   4698106.4871   3566698.3610   1   9   0.0065   0.0115   0.0104  -0.0062   0.0086  -0.0048   0.00   34.8    0.01483   -0.00351    0.00278   0.00000  0.00000  0.00000  0.00000  0.00000  0.00000
2046 357645.000  -2408694.4826   4698106.4892   3566698.3624   1   9   0.0065   0.0116   0.0104  -0.0060   0.0086  -0.0046   0.00   48.8   -0.00148    0.00729    0.01421   0.00000  0.00000  0.00000  0.00000  0.00000  0.00000
2046 357646.000  -2408694.4836   4698106.4862   3566698.3609   1   9   0.0065   0.0116   0.0103  -0.0062   0.0086  -0.0047   0.00   62.5   -0.01251    0.00464    0.00473   0.00000  0.00000  0.00000  0.00000  0.00000  0.00000
2046 357647.000  -2408694.4838   4698106.4893   3566698.3625   1   9   0.0065   0.0115   0.0103  -0.0063   0.0086  -0.0047   0.00   76.0   -0.01742    0.00975   -0.00332   0.00000  0.00000  0.00000  0.00000  0.00000  0.00000
2046 357648.000  -2408694.4833   4698106.4892   3566698.3631   1   9   0.0066   0.0116   0.0104  -0.0061   0.0086  -0.0046   0.00   89.5    0.00147    0.00659    0.00716   0.00000  0.00000  0.00000  0.00000  0.00000  0.00000
2046 357649.000  -2408694.4820   4698106.4877   3566698.3630   1   9   0.0065   0.0115   0.0103  -0.0063   0.0086  -0.0047   0.00  102.9    0.01791   -0.02283   -0.01265   0.00000  0.00000  0.00000  0.00000  0.00000  0.00000
2046 357650.000  -2408694.4825   4698106.4889   3566698.3648   1   9   0.0065   0.0115   0.0104  -0.0061   0.0086  -0.0046   0.00  115.8    0.01418    0.00580    0.00827   0.00000  0.00000  0.00000  0.00000  0.00000  0.00000
2046 357651.000  -2408694.4830   4698106.4893   3566698.3649   1   9   0.0065   0.0116   0.0104  -0.0061   0.0086  -0.0046   0.00  128.7    0.01797    0.00025   -0.00025   0.00000  0.00000  0.00000  0.00000  0.00000  0.00000
2046 357652.000  -2408694.4830   4698106.4910   3566698.3633   1   9   0.0064   0.0115   0.0103  -0.0062   0.0087  -0.0047   0.00  141.6   -0.00011    0.01106    0.00605   0.00000  0.00000  0.00000  0.00000  0.00000  0.00000
2046 357653.000  -2408694.4835   4698106.4912   3566698.3633   1   9   0.0065   0.0115   0.0103  -0.0062   0.0086  -0.0047   0.00  154.1   -0.02123    0.02391    0.00055   0.00000  0.00000  0.00000  0.00000  0.00000  0.00000
2046 357654.000  -2408694.4838   4698106.4909   3566698.3638   1   9   0.0065   0.0116   0.0104  -0.0062   0.0086  -0.0046   0.00  166.3    0.02019   -0.00033    0.01029   0.00000  0.00000  0.00000  0.00000  0.00000  0.00000
2046 357655.000  -2408694.4836   4698106.4924   3566698.3625   1   9   0.0065   0.0116   0.0104  -0.0062   0.0086  -0.0047   0.00  178.5   -0.00498   -0.00890   -0.00955   0.00000  0.00000  0.00000  0.00000  0.00000  0.00000
2046 357656.000  -2408694.4834   4698106.4885   3566698.3609   1   9   0.0065   0.0116   0.0103  -0.0062   0.0086  -0.0046   0.00  190.9   -0.00013    0.01359    0.01512   0.00000  0.00000  0.00000  0.00000  0.00000  0.00000
2046 357657.000  -2408694.4840   4698106.4877   3566698.3609   1   9   0.0065   0.0116   0.0103  -0.0061   0.0086  -0.0048   0.00  203.1    0.00735   -0.00146    0.02532   0.00000  0.00000  0.00000  0.00000  0.00000  0.00000
2046 357658.000  -2408694.4821   4698106.4871   3566698.3602   1   9   0.0065   0.0115   0.0103  -0.0062   0.0086  -0.0047   0.00  215.0    0.00220    0.01985    0.02601   0.00000  0.00000  0.00000  0.00000  0.00000  0.00000
2046 357659.000  -2408694.4837   4698106.4858   3566698.3606   1   9   0.0065   0.0116   0.0103  -0.0061   0.0086  -0.0047   0.00  227.2   -0.00156   -0.01906   -0.01365   0.00000  0.00000  0.00000  0.00000  0.00000  0.00000
2046 357660.000  -2408694.4832   4698106.4889   3566698.3606   1   9   0.0065   0.0115   0.0103  -0.0061   0.0086  -0.0047   0.00  239.2    0.00486   -0.02918   -0.01147   0.00000  0.00000  0.00000  0.00000  0.00000  0.00000
2046 357661.000  -2408694.4838   4698106.4863   3566698.3589   1   9   0.0064   0.0115   0.0103  -0.0062   0.0086  -0.0047   0.00  250.9   -0.01462    0.03135   -0.00586   0.00000  0.00000  0.00000  0.00000  0.00000  0.00000
2046 357662.000  -2408694.4835   4698106.4885   3566698.3603   1   9   0.0065   0.0115   0.0103  -0.0061   0.0086  -0.0046   0.00  262.1   -0.00681    0.01493    0.00993   0.00000  0.00000  0.00000  0.00000  0.00000  0.00000
2046 357663.000  -2408694.4836   4698106.4882   3566698.3604   1   9   0.0065   0.0115   0.0104  -0.0062   0.0086  -0.0046   0.00  273.7    0.00320    0.00651   -0.00886   0.00000  0.00000  0.00000  0.00000  0.00000  0.00000
2046 357664.000  -2408694.4841   4698106.4864   3566698.3621   1   9   0.0065   0.0115   0.0103  -0.0062   0.0086  -0.0047   0.00  284.6   -0.00081    0.01477    0.02876   0.00000  0.00000  0.00000  0.00000  0.00000  0.00000
2046 357665.000  -2408694.4837   4698106.4855   3566698.3591   1   9   0.0064   0.0116   0.0103  -0.0062   0.0086  -0.0046   0.00  295.5    0.00019    0.00273    0.00476   0.00000  0.00000  0.00000  0.00000  0.00000  0.00000
2046 357666.000  -2408694.4836   4698106.4851   3566698.3607   1   9   0.0066   0.0116   0.0103  -0.0061   0.0086  -0.0047   0.00  306.1    0.00582   -0.00941    0.00420   0.00000  0.00000  0.00000  0.00000  0.00000  0.00000
2046 357667.000  -2408694.4841   4698106.4883   3566698.3611   1   9   0.0064   0.0115   0.0103  -0.0061   0.0086  -0.0047   0.00  316.9   -0.01399    0.00608    0.02346   0.00000  0.00000  0.00000  0.00000  0.00000  0.00000
2046 357668.000  -2408694.4838   4698106.4869   3566698.3608   1   9   0.0065   0.0115   0.0103  -0.0062   0.0086  -0.0046   0.00  326.3    0.00319    0.02591    0.01309   0.00000  0.00000  0.00000  0.00000  0.00000  0.00000
2046 357669.000  -2408694.4849   4698106.4909   3566698.3631   1   9   0.0064   0.0115   0.0103  -0.0061   0.0086  -0.0048   0.00  336.5   -0.00189    0.00218    0.01788   0.00000  0.00000  0.00000  0.00000  0.00000  0.00000
2046 357670.000  -2408694.4849   4698106.4898   3566698.3619   1   9   0.0064   0.0115   0.0103  -0.0061   0.0086  -0.0047   0.00  345.8    0.00807   -0.01833   -0.00252   0.00000  0.00000  0.00000  0.00000  0.00000  0.00000
2046 357671.000  -2408694.4840   4698106.4872   3566698.3614   1   9   0.0065   0.0115   0.0103  -0.0062   0.0086  -0.0045   0.00  356.0   -0.00775    0.00362    0.02319   0.00000  0.00000  0.00000  0.00000  0.00000  0.00000
2046 357672.000  -2408694.4825   4698106.4843   3566698.3603   1   9   0.0065   0.0116   0.0103  -0.0061   0.0085  -0.0047   0.00  365.3    0.00839    0.00680    0.03353   0.00000  0.00000  0.00000  0.00000  0.00000  0.00000
2046 357673.000  -2408694.4834   4698106.4870   3566698.3619   1   9   0.0065   0.0115   0.0103  -0.0062   0.0086  -0.0047   0.00  375.3    0.01143   -0.00719    0.01160   0.00000  0.00000  0.00000  0.00000  0.00000  0.00000
2046 357674.000  -2408694.4825   4698106.4884   3566698.3601   1   9   0.0065   0.0116   0.0103  -0.0061   0.0086  -0.0047   0.00  384.6    0.00958   -0.00477    0.02059   0.00000  0.00000  0.00000  0.00000  0.00000  0.00000
2046 357675.000  -2408694.4835   4698106.4897   3566698.3601   1   9   0.0066   0.0115   0.0104  -0.0061   0.0086  -0.0046   0.00  394.6    0.01019   -0.00139    0.00745   0.00000  0.00000  0.00000  0.00000  0.00000  0.00000
2046 357676.000  -2408694.4826   4698106.4887   3566698.3614   1   9   0.0065   0.0115   0.0103  -0.0062   0.0086  -0.0047   0.00  403.6   -0.01477    0.03771    0.03399   0.00000  0.00000  0.00000  0.00000  0.00000  0.00000
2046 357677.000  -2408694.4825   4698106.4858   3566698.3621   1   9   0.0066   0.0116   0.0103  -0.0062   0.0086  -0.0045   0.00  412.5   -0.00316    0.01070    0.00730   0.00000  0.00000  0.00000  0.00000  0.00000  0.00000
2046 357678.000  -2408694.4826   4698106.4854   3566698.3585   1   9   0.0065   0.0115   0.0103  -0.0062   0.0086  -0.0047   0.00  420.2    0.00760   -0.00813   -0.00321   0.00000  0.00000  0.00000  0.00000  0.00000  0.00000
2046 357679.000  -2408694.4840   4698106.4860   3566698.3601   1   9   0.0065   0.0116   0.0104  -0.0061   0.0086  -0.0046   0.00  429.2   -0.01054    0.04103    0.01959   0.00000  0.00000  0.00000  0.00000  0.00000  0.00000
2046 357680.000  -2408694.4826   4698106.4864   3566698.3608   1   9   0.0065   0.0115   0.0103  -0.0062   0.0086  -0.0047   0.00  437.8   -0.01471    0.02990   -0.00058   0.00000  0.00000  0.00000  0.00000  0.00000  0.00000
2046 357681.000  -2408694.4836   4698106.4871   3566698.3592   1   9   0.0065   0.0116   0.0103  -0.0061   0.0086  -0.0047   0.00  445.4   -0.00065    0.00771    0.00251   0.00000  0.00000  0.00000  0.00000  0.00000  0.00000
2046 357682.000  -2408694.4836   4698106.4871   3566698.3599   1   9   0.0065   0.0115   0.0103  -0.0061   0.0086  -0.0047   0.00  452.7   -0.00041    0.01885    0.01081   0.00000  0.00000  0.00000  0.00000  0.00000  0.00000
2046 357683.000  -2408694.4839   4698106.4890   3566698.3618   1   9   0.0065   0.0115   0.0103  -0.0061   0.0086  -0.0047   0.00  459.8   -0.00142   -0.02521    0.00987   0.00000  0.00000  0.00000  0.00000  0.00000  0.00000
2046 357684.000  -2408694.4833   4698106.4927   3566698.3657   1   9   0.0065   0.0115   0.0103  -0.0062   0.0086  -0.0047   0.00  469.7    0.02071    0.00341    0.00368   0.00000  0.00000  0.00000  0.00000  0.00000  0.00000
2046 357685.000  -2408694.4843   4698106.4906   3566698.3632   1   9   0.0066   0.0115   0.0103  -0.0061   0.0086  -0.0047   0.00  478.1    0.00713    0.00319   -0.01803   0.00000  0.00000  0.00000  0.00000  0.00000  0.00000
2046 357686.000  -2408694.4842   4698106.4890   3566698.3606   1   9   0.0066   0.0115   0.0102  -0.0063   0.0086  -0.0046   0.00  486.7    0.01768   -0.00859   -0.02572   0.00000  0.00000  0.00000  0.00000  0.00000  0.00000
2046 357687.000  -2408694.4853   4698106.4872   3566698.3594   1   9   0.0065   0.0115   0.0104  -0.0061   0.0086  -0.0046   0.00  496.6    0.01090   -0.01451   -0.00244   0.00000  0.00000  0.00000  0.00000  0.00000  0.00000
2046 357688.000  -2408694.4847   4698106.4887   3566698.3614   1   9   0.0064   0.0115   0.0103  -0.0062   0.0085  -0.0047   0.00  507.5   -0.00142   -0.01475   -0.00204   0.00000  0.00000  0.00000  0.00000  0.00000  0.00000
2046 357689.000  -2408694.4817   4698106.4863   3566698.3617   1   8   0.0072   0.0123   0.0103  -0.0071   0.0088  -0.0050   0.00  999.9   -0.00252    0.00067    0.01435   0.00000  0.00000  0.00000  0.00000  0.00000  0.00000
2046 357690.000  -2408694.4814   4698106.4864   3566698.3612   1   8   0.0072   0.0123   0.0103  -0.0071   0.0088  -0.0049   0.00  999.9    0.00767   -0.01639   -0.02540   0.00000  0.00000  0.00000  0.00000  0.00000  0.00000
2046 357691.000  -2408694.4828   4698106.4864   3566698.3618   1   8   0.0072   0.0123   0.0104  -0.0071   0.0088  -0.0049   0.00  999.9   -0.01112    0.03431    0.01924   0.00000  0.00000  0.00000  0.00000  0.00000  0.00000
2046 357692.000  -2408694.4830   4698106.4882   3566698.3619   1   8   0.0071   0.0123   0.0104  -0.0071   0.0088  -0.0049   0.00  999.9   -0.02984    0.02724    0.00624   0.00000  0.00000  0.00000  0.00000  0.00000  0.00000
2046 357693.000  -2408694.4818   4698106.4835   3566698.3590   1   8   0.0072   0.0123   0.0104  -0.0071   0.0088  -0.0048   0.00  999.9    0.01142    0.01015    0.01189   0.00000  0.00000  0.00000  0.00000  0.00000  0.00000
2046 357694.000  -2408694.4815   4698106.4847   3566698.3594   1   8   0.0072   0.0123   0.0103  -0.0071   0.0088  -0.0049   0.00  999.9   -0.01337    0.05206    0.04075   0.00000  0.00000  0.00000  0.00000  0.00000  0.00000
2046 357695.000  -2408694.4814   4698106.4839   3566698.3604   1   8   0.0072   0.0123   0.0103  -0.0071   0.0088  -0.0048   0.00  999.9    0.00737   -0.00240   -0.03809   0.00000  0.00000  0.00000  0.00000  0.00000  0.00000
2046 357696.000  -2408694.4816   4698106.4820   3566698.3594   1   8   0.0071   0.0123   0.0104  -0.0072   0.0088  -0.0050   0.00  999.9   -0.00577    0.01560    0.02455   0.00000  0.00000  0.00000  0.00000  0.00000  0.00000
2046 357697.000  -2408694.4828   4698106.4820   3566698.3599   1   8   0.0072   0.0123   0.0104  -0.0071   0.0088  -0.0050   0.00  999.9   -0.01383    0.01932    0.01650   0.00000  0.00000  0.00000  0.00000  0.00000  0.00000
2046 357698.000  -2408694.4818   4698106.4858   3566698.3627   1   8   0.0072   0.0123   0.0103  -0.0071   0.0088  -0.0050   0.00  999.9   -0.01034    0.03542    0.04226   0.00000  0.00000  0.00000  0.00000  0.00000  0.00000
2046 357699.000  -2408694.4843   4698106.4844   3566698.3594   1   8   0.0072   0.0123   0.0104  -0.0071   0.0088  -0.0050   0.00  999.9   -0.00460    0.04854    0.03694   0.00000  0.00000  0.00000  0.00000  0.00000  0.00000
2046 357700.000  -2408694.4823   4698106.4833   3566698.3603   1   8   0.0072   0.0123   0.0103  -0.0072   0.0088  -0.0050   0.00  999.9   -0.02148    0.02364    0.00476   0.00000  0.00000  0.00000  0.00000  0.00000  0.00000
2046 357701.000  -2408694.4817   4698106.4810   3566698.3599   1   8   0.0071   0.0124   0.0104  -0.0071   0.0088  -0.0050   0.00  999.9   -0.00330    0.04014    0.04057   0.00000  0.00000  0.00000  0.00000  0.00000  0.00000
2046 357702.000  -2408694.4804   4698106.4806   3566698.3601   1   8   0.0072   0.0123   0.0103  -0.0072   0.0088  -0.0049   0.00  999.9    0.00108   -0.02456   -0.02063   0.00000  0.00000  0.00000  0.00000  0.00000  0.00000
2046 357703.000  -2408694.4809   4698106.4790   3566698.3567   1   8   0.0072   0.0123   0.0103  -0.0071   0.0088  -0.0048   0.00  999.9    0.01008   -0.01743   -0.00720   0.00000  0.00000  0.00000  0.00000  0.00000  0.00000
2046 357704.000  -2408694.4817   4698106.4809   3566698.3582   1   8   0.0072   0.0123   0.0104  -0.0072   0.0088  -0.0049   0.00  999.9   -0.02877   -0.01058   -0.00382   0.00000  0.00000  0.00000  0.00000  0.00000  0.00000
2046 357705.000  -2408694.4810   4698106.4755   3566698.3536   1   8   0.0071   0.0123   0.0103  -0.0072   0.0088  -0.0050   0.00  999.9   -0.00886   -0.00382   -0.01021   0.00000  0.00000  0.00000  0.00000  0.00000  0.00000
2046 357706.000  -2408694.4821   4698106.4813   3566698.3576   1   8   0.0071   0.0123   0.0103  -0.0071   0.0088  -0.0050   0.00  999.9    0.00574   -0.00645   -0.01237   0.00000  0.00000  0.00000  0.00000  0.00000  0.00000
2046 357707.000  -2408694.4823   4698106.4814   3566698.3580   1   8   0.0071   0.0123   0.0103  -0.0072   0.0088  -0.0050   0.00  999.9   -0.01306    0.04232    0.01030   0.00000  0.00000  0.00000  0.00000  0.00000  0.00000
2046 357708.000  -2408694.4825   4698106.4857   3566698.3592   1   8   0.0072   0.0123   0.0103  -0.0071   0.0088  -0.0049   0.00  999.9    0.00419    0.00229    0.01707   0.00000  0.00000  0.00000  0.00000  0.00000  0.00000
2046 357709.000  -2408694.4821   4698106.4841   3566698.3614   1   8   0.0071   0.0123   0.0103  -0.0071   0.0088  -0.0050   0.00  999.9   -0.01847    0.00892    0.02710   0.00000  0.00000  0.00000  0.00000  0.00000  0.00000
2046 357710.000  -2408694.4816   4698106.4844   3566698.3618   1   8   0.0072   0.0123   0.0103  -0.0071   0.0088  -0.0049   0.00  999.9   -0.01284    0.02221    0.03578   0.00000  0.00000  0.00000  0.00000  0.00000  0.00000
2046 357711.000  -2408694.4801   4698106.4839   3566698.3601   1   8   0.0071   0.0123   0.0103  -0.0072   0.0088  -0.0050   0.00  999.9   -0.00710    0.02185    0.00546   0.00000  0.00000  0.00000  0.00000  0.00000  0.00000
2046 357712.000  -2408694.4813   4698106.4841   3566698.3593   1   8   0.0073   0.0123   0.0103  -0.0072   0.0088  -0.0049   0.00  999.9   -0.01009    0.00631    0.00321   0.00000  0.00000  0.00000  0.00000  0.00000  0.00000
2046 357713.000  -2408694.4799   4698106.4835   3566698.3598   1   8   0.0071   0.0123   0.0103  -0.0071   0.0088  -0.0050   0.00  999.9    0.01704    0.00501    0.01887   0.00000  0.00000  0.00000  0.00000  0.00000  0.00000
2046 357714.000  -2408694.4800   4698106.4841   3566698.3600   1   8   0.0071   0.0123   0.0103  -0.0072   0.0088  -0.0050   0.00  999.9   -0.01892    0.01001    0.01728   0.00000  0.00000  0.00000  0.00000  0.00000  0.00000
2046 357715.000  -2408694.4841   4698106.4867   3566698.3641   1   8   0.0072   0.0123   0.0103  -0.0071   0.0088  -0.0049   0.00  999.9   -0.01213    0.00232    0.03611   0.00000  0.00000  0.00000  0.00000  0.00000  0.00000
2046 357716.000  -2408694.4853   4698106.4872   3566698.3585   1   8   0.0072   0.0123   0.0103  -0.0071   0.0087  -0.0050   0.00  999.9   -0.02619    0.01163    0.00323   0.00000  0.00000  0.00000  0.00000  0.00000  0.00000
2046 357717.000  -2408694.4836   4698106.4845   3566698.3614   1   8   0.0072   0.0123   0.0103  -0.0072   0.0088  -0.0050   0.00  999.9   -0.01601    0.01237    0.02018   0.00000  0.00000  0.00000  0.00000  0.00000  0.00000
2046 357718.000  -2408694.4847   4698106.4862   3566698.3624   1   8   0.0071   0.0123   0.0103  -0.0071   0.0088  -0.0050   0.00  999.9   -0.00748    0.03225   -0.00592   0.00000  0.00000  0.00000  0.00000  0.00000  0.00000
2046 357719.000  -2408694.4851   4698106.4878   3566698.3652   1   8   0.0072   0.0123   0.0103  -0.0072   0.0088  -0.0050   0.00  999.9   -0.02062    0.02271    0.00252   0.00000  0.00000  0.00000  0.00000  0.00000  0.00000
2046 357720.000  -2408694.4836   4698106.4860   3566698.3650   1   8   0.0072   0.0123   0.0103  -0.0071   0.0088  -0.0050   0.00  999.9   -0.00766    0.00186    0.00126   0.00000  0.00000  0.00000  0.00000  0.00000  0.00000
2046 357721.000  -2408694.4818   4698106.4824   3566698.3629   1   8   0.0072   0.0123   0.0103  -0.0071   0.0088  -0.0049   0.00  999.9   -0.01269   -0.00403    0.02526   0.00000  0.00000  0.00000  0.00000  0.00000  0.00000
2046 357722.000  -2408694.4825   4698106.4843   3566698.3641   1   8   0.0071   0.0123   0.0103  -0.0072   0.0088  -0.0049   0.00  999.9    0.00520   -0.00111   -0.00341   0.00000  0.00000  0.00000  0.00000  0.00000  0.00000
2046 357723.000  -2408694.4824   4698106.4837   3566698.3634   1   8   0.0072   0.0123   0.0103  -0.0071   0.0087  -0.0049   0.00  999.9    0.00066    0.00663    0.01580   0.00000  0.00000  0.00000  0.00000  0.00000  0.00000
2046 357724.000  -2408694.4827   4698106.4842   3566698.3632   1   8   0.0071   0.0123   0.0103  -0.0072   0.0088  -0.0050   0.00  999.9    0.02476   -0.02105   -0.01674   0.00000  0.00000  0.00000  0.00000  0.00000  0.00000
2046 357725.000  -2408694.4830   4698106.4853   3566698.3643   1   8   0.0071   0.0123   0.0103  -0.0071   0.0088  -0.0049   0.00  999.9   -0.01003    0.00950    0.01953   0.00000  0.00000  0.00000  0.00000  0.00000  0.00000
2046 357726.000  -2408694.4832   4698106.4873   3566698.3649   1   8   0.0071   0.0123   0.0103  -0.0071   0.0088  -0.0050   0.00  999.9    0.00733   -0.01221   -0.01660   0.00000  0.00000  0.00000  0.00000  0.00000  0.00000
2046 357727.000  -2408694.4815   4698106.4856   3566698.3657   1   8   0.0072   0.0123   0.0103  -0.0071   0.0088  -0.0049   0.00  999.9    0.00142   -0.04105   -0.03427   0.00000  0.00000  0.00000  0.00000  0.00000  0.00000
2046 357728.000  -2408694.4820   4698106.4874   3566698.3681   1   8   0.0072   0.0123   0.0103  -0.0071   0.0087  -0.0049   0.00  999.9   -0.00959    0.01219    0.00031   0.00000  0.00000  0.00000  0.00000  0.00000  0.00000
2046 357729.000  -2408694.4807   4698106.4874   3566698.3662   1   8   0.0071   0.0123   0.0103  -0.0071   0.0087  -0.0050   0.00  999.9   -0.00700   -0.00282    0.00771   0.00000  0.00000  0.00000  0.00000  0.00000  0.00000
