% program   : GINav v0.1.0
% obs start : 2019/03/28 03:28:10.0
% obs end   : 2019/03/28 03:59:01.0
% mode      : PPK/INS TC
% system    : GPS 
% nfreqs    : 1
% elev mask : 10.0 deg
% ephemeris : broadcast
% ionos opt : broadcast model
% trops opt : Saastamoinen model
%
%  GPST              x-ecef(m)      y-ecef(m)      z-ecef(m)   Q  ns   sdx(m)   sdy(m)   sdz(m)  sdxy(m)  sdyz(m)  sdzx(m) age(s)  ratio    vx(m/s)    vy(m/s)    vz(m/s)      sdvx     sdvy     sdvz    sdvxy    sdvyz    sdvzx pitch(deg)  roll(deg)   yaw(deg)       sdp      sdr      sdy     sdpr     sdry     sdyp
2046 358097.000  -2408691.0763   4698108.5138   3566698.3480   3   0  25.9956  29.0088  29.8845 -10.7365   1.3054  -0.9347   0.00    0.0    1.46918    0.91718   -0.16143  10.00000 10.00000 10.00000  0.00000  0.00000  0.00000    0.00000    0.00000  262.88142   0.30000  0.30000  0.50000  0.00000  0.00000  0.00000
2046 358098.000  -2408689.3208   4698109.4442   3566698.0148   1   8   0.0074   0.0122   0.0099  -0.0073   0.0084  -0.0049   0.00    3.3    1.61537    0.97224   -0.27464   9.32036  9.44271  9.48472 -1.26341  0.15932 -0.11422   -0.19198    0.03523  259.45051   0.30002  0.30002  0.50001  0.00000 -0.00017 -0.00310
2046 358099.000  -2408687.6556   4698110.6293   3566697.5997   1   8   0.0074   0.0122   0.0099  -0.0073   0.0084  -0.0049   0.00    3.4    1.67596    1.12481   -0.38600   0.34181  0.53214  0.42810 -0.29673  0.36147 -0.20070   -0.69357   -2.07705  259.21316   0.30004  0.30004  0.50003  0.00002  0.00028 -0.00440
2046 358100.000  -2408685.7925   4698111.8309   3566697.2318   1   8   0.0074   0.0122   0.0099  -0.0073   0.0084  -0.0049   0.00    3.9    1.96597    1.27996   -0.38989   0.20136  0.30689  0.24885 -0.16867  0.20434 -0.11331    0.35658    1.72291  259.98278   0.29755  0.29687  0.50004  0.01459  0.01029 -0.00996
2046 358101.000  -2408683.7442   4698113.1974   3566696.8814   1   8   0.0074   0.0122   0.0099  -0.0073   0.0084  -0.0049   0.00    4.6    2.12041    1.26139   -0.20417   0.15347  0.22113  0.18343 -0.11605  0.13926 -0.07570    0.46984    1.12864  262.82866   0.28877  0.28606  0.50004  0.02854  0.01806 -0.02046
2046 358102.000  -2408681.5953   4698114.5226   3566696.6636   1   8   0.0074   0.0122   0.0099  -0.0073   0.0084  -0.0049   0.00    4.7    2.24030    1.18382   -0.03646   0.13223  0.17909  0.15298 -0.08872  0.10433 -0.05337    0.40796    0.71015  267.99871   0.27293  0.26790  0.50002  0.03740  0.03097 -0.02672
2046 358103.000  -2408679.2843   4698115.7798   3566696.6439   1   8   0.0074   0.0122   0.0099  -0.0073   0.0083  -0.0049   0.00  540.9    2.39688    1.21006    0.06662   0.02099  0.02754  0.02477 -0.01354  0.01444 -0.00632    0.29391    0.64538  272.71187   0.23548  0.22983  0.49991  0.03250  0.05119 -0.03188
2046 358104.000  -2408676.7782   4698116.9932   3566696.8079   1   8   0.0072   0.0119   0.0096  -0.0071   0.0080  -0.0047   0.00  985.7    2.60979    1.22133    0.25547   0.01618  0.02484  0.02102 -0.01409  0.01583 -0.00866   -0.09743    0.98499  276.80251   0.21095  0.20947  0.49983  0.00413  0.05969 -0.03640
2046 358105.000  -2408674.1017   4698118.1985   3566697.1127   1   9   0.0071   0.0118   0.0095  -0.0070   0.0080  -0.0047   0.00  999.9    2.74377    1.19629    0.37761   0.01136  0.01839  0.01516 -0.01066  0.01230 -0.00701   -0.28984    1.03528  279.67694   0.20411  0.20506  0.49966 -0.01319  0.05639 -0.04448
2046 358106.000  -2408671.2532   4698119.3463   3566697.5496   1   8   0.0070   0.0115   0.0093  -0.0068   0.0078  -0.0046   0.00  999.9    2.94318    1.14897    0.42427   0.00870  0.01380  0.01144 -0.00781  0.00911 -0.00510   -0.03182    1.22958  282.12510   0.19717  0.20058  0.49925 -0.02028  0.05527 -0.05588
2046 358107.000  -2408668.2829   4698120.5100   3566698.0840   1   8   0.0068   0.0111   0.0090  -0.0066   0.0075  -0.0044   0.00  999.9    2.99243    1.11902    0.56249   0.00722  0.01097  0.00918 -0.00592  0.00682 -0.00373   -0.04041    1.08607  283.63266   0.18404  0.19167  0.49766 -0.02849  0.05161 -0.07738
2046 358108.000  -2408665.2830   4698121.6508   3566698.6791   1   8   0.0066   0.0107   0.0087  -0.0063   0.0072  -0.0042   0.00  999.9    2.98811    1.14580    0.58784   0.00627  0.00915  0.00779 -0.00457  0.00521 -0.00270    0.14804    1.32333  283.88560   0.16594  0.17772  0.49350 -0.03260  0.01233 -0.10221
2046 358109.000  -2408662.2887   4698122.8170   3566699.2770   1   8   0.0064   0.0104   0.0085  -0.0061   0.0070  -0.0040   0.00  999.9    2.99629    1.16988    0.61206   0.00545  0.00775  0.00672 -0.00374  0.00419 -0.00204   -0.05735    1.16631  284.28686   0.14964  0.16247  0.48443 -0.02935 -0.06110 -0.12583
2046 358110.000  -2408659.2661   4698123.9256   3566699.9011   1   7   0.0065   0.0127   0.0083  -0.0069   0.0074  -0.0041   0.00  999.9    3.03686    1.07840    0.65393   0.00493  0.00790  0.00593 -0.00361  0.00357 -0.00139   -0.18386    1.24817  285.18507   0.13783  0.15040  0.47837 -0.01317 -0.08112 -0.13709
2046 358111.000  -2408656.2319   4698125.0417   3566700.5349   1   8   0.0064   0.0135   0.0082  -0.0072   0.0076  -0.0041   0.00  999.9    3.06200    1.14738    0.57125   0.00459  0.00724  0.00535 -0.00313  0.00313 -0.00115   -0.14936    1.09961  284.32611   0.12907  0.13934  0.47343  0.01603 -0.09576 -0.14433
2046 358112.000  -2408653.1464   4698126.2092   3566701.1376   1   8   0.0063   0.0129   0.0080  -0.0069   0.0074  -0.0040   0.00  999.9    3.10497    1.17135    0.62704   0.00418  0.00630  0.00485 -0.00279  0.00273 -0.00106   -0.27754    1.09593  283.68435   0.12499  0.13192  0.46920  0.02317 -0.10059 -0.14999
2046 358113.000  -2408650.0420   4698127.3918   3566701.7307   1   7   0.0062   0.0130   0.0079  -0.0069   0.0073  -0.0040   0.00  999.9    3.11562    1.21010    0.55533   0.00409  0.00587  0.00456 -0.00244  0.00232 -0.00097   -0.23636    1.15129  283.22956   0.12388  0.12860  0.46567  0.02630 -0.10227 -0.15234
2046 358114.000  -2408646.9444   4698128.6106   3566702.2813   1   6   0.0068   0.0132   0.0081  -0.0073   0.0075  -0.0046   0.00  999.9    3.09662    1.20559    0.57503   0.00420  0.00552  0.00453 -0.00230  0.00194 -0.00128   -0.15127    0.85252  282.80629   0.12361  0.12784  0.46122  0.02742 -0.10367 -0.15152
2046 358115.000  -2408643.8563   4698129.7940   3566702.8760   1   6   0.0070   0.0131   0.0081  -0.0074   0.0075  -0.0048   0.00  999.9    3.10533    1.13361    0.63620   0.00416  0.00529  0.00448 -0.00209  0.00153 -0.00075   -0.15196    1.03416  284.47502   0.12285  0.12776  0.45931  0.02739 -0.10425 -0.14942
2046 358116.000  -2408640.7360   4698130.9256   3566703.5450   1   6   0.0070   0.0129   0.0081  -0.0074   0.0075  -0.0048   0.00  999.9    3.16475    1.11069    0.71471   0.00416  0.00514  0.00430 -0.00175  0.00113 -0.00044   -0.16067    0.97744  285.70482   0.12237  0.12730  0.45782  0.02693 -0.10251 -0.14923
2046 358117.000  -2408637.5637   4698132.0771   3566704.2411   1   8   0.0070   0.0128   0.0080  -0.0073   0.0073  -0.0047   0.00  999.9    3.18685    1.13697    0.67515   0.00399  0.00499  0.00419 -0.00168  0.00061 -0.00026   -0.28726    1.47472  285.01328   0.12222  0.12685  0.45326  0.02603 -0.09952 -0.14874
2046 358118.000  -2408634.3763   4698133.2625   3566704.8933   1   6   0.0069   0.0127   0.0079  -0.0072   0.0072  -0.0046   0.00  999.9    3.18419    1.16966    0.68309   0.00392  0.00484  0.00414 -0.00157 -0.00032  0.00037   -0.30419    1.34376  284.48631   0.12210  0.12661  0.45087  0.02531 -0.09780 -0.14825
2046 358119.000  -2408631.1869   4698134.4297   3566705.5544   1   7   0.0069   0.0125   0.0079  -0.0071   0.0071  -0.0046   0.00  999.9    3.18526    1.15164    0.66800   0.00389  0.00472  0.00410 -0.00149 -0.00062  0.00043   -0.09023    1.36001  284.91990   0.12198  0.12642  0.44985  0.02475 -0.09679 -0.14808
2046 358120.000  -2408628.0130   4698135.5812   3566706.2535   1   7   0.0067   0.0124   0.0078  -0.0069   0.0069  -0.0044   0.00  999.9    3.17278    1.11963    0.73700   0.00386  0.00463  0.00405 -0.00135 -0.00079  0.00073   -0.16020    1.17090  285.54614   0.12180  0.12619  0.44887  0.02403 -0.09560 -0.14777
2046 358121.000  -2408624.8297   4698136.7296   3566706.9573   1   7   0.0067   0.0123   0.0077  -0.0069   0.0068  -0.0044   0.00  999.9    3.21101    1.13517    0.66319   0.00383  0.00455  0.00400 -0.00136 -0.00094  0.00058   -0.24945    1.20925  285.38928   0.12160  0.12600  0.44793  0.02326 -0.09444 -0.14730
2046 358122.000  -2408621.6333   4698137.8802   3566707.6645   1   7   0.0066   0.0122   0.0077  -0.0068   0.0067  -0.0043   0.00  999.9    3.19946    1.14420    0.75804   0.00379  0.00450  0.00397 -0.00123 -0.00102  0.00072   -0.29659    1.15260  285.48103   0.12144  0.12585  0.44744  0.02266 -0.09362 -0.14698
2046 358123.000  -2408618.3873   4698139.0647   3566708.3602   1   7   0.0065   0.0121   0.0076  -0.0067   0.0066  -0.0041   0.00  999.9    3.24540    1.20123    0.67801   0.00378  0.00443  0.00396 -0.00128 -0.00110  0.00087   -0.29429    1.14094  284.76995   0.12135  0.12575  0.44715  0.02240 -0.09329 -0.14697
2046 358124.000  -2408615.1267   4698140.2922   3566709.0097   1   7   0.0064   0.0120   0.0075  -0.0066   0.0065  -0.0040   0.00  999.9    3.25627    1.26410    0.64683   0.00390  0.00437  0.00400 -0.00119 -0.00121  0.00097   -0.32071    1.14126  283.20347   0.12088  0.12563  0.44569  0.02261 -0.09429 -0.14601
2046 358125.000  -2408611.8642   4698141.5687   3566709.5956   1   7   0.0063   0.0119   0.0075  -0.0065   0.0064  -0.0039   0.00  999.9    3.26222    1.26537    0.57896   0.00405  0.00438  0.00413 -0.00095 -0.00149  0.00102   -0.31529    0.95319  282.38712   0.11858  0.12491  0.44007  0.02290 -0.09687 -0.14059
2046 358126.000  -2408608.6510   4698142.8400   3566710.1483   1   7   0.0059   0.0115   0.0073  -0.0060   0.0060  -0.0033   0.00  314.8    3.20305    1.24474    0.53848   0.00399  0.00439  0.00431 -0.00036 -0.00182  0.00118   -0.10266    1.05434  282.28741   0.11386  0.12221  0.43376  0.02180 -0.09773 -0.13138
2046 358127.000  -2408605.4763   4698144.0817   3566710.7221   1   7   0.0059   0.0115   0.0073  -0.0059   0.0059  -0.0032   0.00  604.7    3.19563    1.21039    0.63921   0.00383  0.00436  0.00424 -0.00058 -0.00171  0.00151   -0.02884    0.83275  283.50565   0.10870  0.11751  0.43083  0.02003 -0.09471 -0.12475
2046 358128.000  -2408602.3018   4698145.2708   3566711.3613   1   7   0.0058   0.0114   0.0073  -0.0058   0.0059  -0.0031   0.00  843.8    3.18608    1.16975    0.65275   0.00369  0.00428  0.00401 -0.00071 -0.00144  0.00139   -0.04138    1.00641  284.73762   0.10589  0.11306  0.42954  0.01887 -0.08900 -0.12509
2046 358129.000  -2408599.0798   4698146.4482   3566712.0452   1   7   0.0058   0.0114   0.0072  -0.0058   0.0058  -0.0030   0.00  999.9    3.24877    1.17871    0.70441   0.00363  0.00426  0.00383 -0.00063 -0.00137  0.00109    0.04537    1.15333  284.88579   0.10528  0.11070  0.42574  0.01815 -0.08472 -0.12698
2046 358130.000  -2408595.8254   4698147.6515   3566712.7223   1   7   0.0058   0.0113   0.0071  -0.0058   0.0058  -0.0031   0.00  999.9    3.24631    1.21890    0.66867   0.00353  0.00421  0.00381 -0.00088 -0.00136  0.00112    0.16075    1.02934  284.41772   0.10526  0.10999  0.42201  0.01738 -0.08280 -0.12712
2046 358131.000  -2408592.5675   4698148.8590   3566713.4054   1   7   0.0057   0.0113   0.0071  -0.0058   0.0058  -0.0030   0.00  999.9    3.25523    1.18663    0.71816   0.00354  0.00420  0.00380 -0.00083 -0.00137  0.00111   -0.00088    1.14144  284.58527   0.10519  0.10986  0.41938  0.01650 -0.08154 -0.12643
2046 358132.000  -2408589.3050   4698150.0573   3566714.0950   1   7   0.0057   0.0113   0.0071  -0.0058   0.0058  -0.0030   0.00  999.9    3.24490    1.18359    0.68565   0.00350  0.00416  0.00379 -0.00089 -0.00135  0.00117    0.06275    1.17362  284.54540   0.10502  0.10981  0.41772  0.01578 -0.08042 -0.12569
2046 358133.000  -2408586.0411   4698151.2681   3566714.7750   1   7   0.0057   0.0112   0.0071  -0.0058   0.0057  -0.0030   0.00  999.9    3.27741    1.18379    0.64940   0.00349  0.00414  0.00378 -0.00089 -0.00134  0.00120    0.01084    1.28524  284.27543   0.10493  0.10974  0.41715  0.01554 -0.07969 -0.12547
2046 358134.000  -2408582.7761   4698152.4858   3566715.4475   1   7   0.0057   0.0112   0.0071  -0.0057   0.0057  -0.0030   0.00  999.9    3.25553    1.22676    0.68433   0.00349  0.00413  0.00376 -0.00087 -0.00135  0.00118   -0.06143    1.32246  283.78060   0.10493  0.10972  0.41702  0.01578 -0.07957 -0.12557
2046 358135.000  -2408579.4948   4698153.7386   3566716.0839   1   7   0.0057   0.0112   0.0070  -0.0057   0.0057  -0.0030   0.00  999.9    3.32766    1.29523    0.63175   0.00358  0.00415  0.00380 -0.00095 -0.00141  0.00131    0.01860    1.15546  283.13643   0.10480  0.10974  0.41619  0.01642 -0.08028 -0.12520
2046 358136.000  -2408576.1280   4698155.0386   3566716.7126   1   7   0.0057   0.0112   0.0070  -0.0057   0.0057  -0.0030   0.00  999.9    3.39862    1.30063    0.62816   0.00359  0.00419  0.00383 -0.00100 -0.00154  0.00134   -0.00170    1.13331  282.80576   0.10427  0.10965  0.41381  0.01763 -0.08213 -0.12398
2046 358137.000  -2408572.7155   4698156.3643   3566717.3344   1   7   0.0057   0.0112   0.0070  -0.0057   0.0057  -0.0030   0.00  999.9    3.42997    1.32204    0.62993   0.00360  0.00421  0.00383 -0.00097 -0.00160  0.00132   -0.09597    1.04114  282.59181   0.10321  0.10921  0.41090  0.01939 -0.08535 -0.12226
2046 358138.000  -2408569.3489   4698157.6907   3566717.9140   1   7   0.0057   0.0112   0.0070  -0.0057   0.0056  -0.0030   0.00  999.9    3.28714    1.32615    0.55283   0.00364  0.00421  0.00392 -0.00066 -0.00174  0.00117    0.05645    0.92632  281.68503   0.10155  0.10818  0.40929  0.02037 -0.08787 -0.11981
2046 358139.000  -2408566.1149   4698159.0252   3566718.4116   1   7   0.0058   0.0112   0.0071  -0.0057   0.0056  -0.0030   0.00  999.9    3.19510    1.33248    0.44932   0.00375  0.00430  0.00414  0.00038 -0.00204  0.00100    0.09317    0.86663  280.06023   0.09866  0.10603  0.40453  0.01829 -0.08515 -0.11327
2046 358140.000  -2408562.9465   4698160.3903   3566718.8265   1   7   0.0058   0.0112   0.0071  -0.0057   0.0055  -0.0030   0.00  999.9    3.13607    1.36550    0.40467   0.00382  0.00434  0.00425  0.00045 -0.00215  0.00127    0.22536    0.53941  279.18632   0.09424  0.10234  0.39430  0.01316 -0.07705 -0.10145
2046 358141.000  -2408559.7858   4698161.7688   3566719.2327   1   8   0.0058   0.0111   0.0071  -0.0057   0.0055  -0.0029   0.00  999.9    3.24164    1.37088    0.43007   0.00378  0.00431  0.00410 -0.00057 -0.00197  0.00159    0.19959    0.81847  279.30322   0.08944  0.09748  0.38758  0.00831 -0.06830 -0.09127
2046 358142.000  -2408556.5306   4698163.1196   3566719.7322   1   8   0.0057   0.0111   0.0071  -0.0056   0.0056  -0.0029   0.00  999.9    3.31872    1.29783    0.62677   0.00385  0.00436  0.00392  0.00093 -0.00177  0.00122   -0.00465    0.99817  282.40624   0.08625  0.09294  0.38748  0.00952 -0.06554 -0.09168
2046 358143.000  -2408553.2210   4698164.3291   3566720.4198   1   7   0.0057   0.0111   0.0070  -0.0056   0.0056  -0.0029   0.00  999.9    3.27267    1.12521    0.78133   0.00426  0.00422  0.00372  0.00122 -0.00131  0.00114   -0.04050    1.22966  286.47621   0.08587  0.09071  0.37448  0.01014 -0.06126 -0.09597
2046 358144.000  -2408550.0059   4698165.3831   3566721.2471   1   7   0.0058   0.0111   0.0070  -0.0056   0.0056  -0.0029   0.00  999.9    3.20531    0.98624    0.86938   0.00459  0.00425  0.00395  0.00091 -0.00171  0.00151    0.19713    1.25647  289.64498   0.08479  0.09042  0.34303 -0.00274 -0.05135 -0.08496
2046 358145.000  -2408546.7348   4698166.4300   3566722.1412   1   7   0.0059   0.0111   0.0070  -0.0057   0.0056  -0.0030   0.00  999.9    3.24687    1.09188    0.96893   0.00452  0.00447  0.00448  0.00067 -0.00249  0.00156   -0.01739    1.50700  288.67448   0.07954  0.08859  0.31794 -0.01064 -0.04371 -0.05869
2046 358146.000  -2408543.4453   4698167.4998   3566723.0040   1   7   0.0059   0.0111   0.0071  -0.0057   0.0055  -0.0029   0.00  999.9    3.26602    1.10021    0.82846   0.00416  0.00443  0.00453 -0.00042 -0.00246  0.00183   -0.07172    1.47034  287.35309   0.07238  0.08286  0.31132 -0.01042 -0.03793 -0.03643
2046 358147.000  -2408540.1568   4698168.6250   3566723.8106   1   9   0.0059   0.0111   0.0072  -0.0057   0.0054  -0.0028   0.00  999.9    3.27542    1.14516    0.79695   0.00386  0.00427  0.00422 -0.00055 -0.00204  0.00171   -0.00249    1.51898  286.10204   0.06691  0.07640  0.31117 -0.00721 -0.03106 -0.03581
2046 358148.000  -2408536.8726   4698169.7842   3566724.5651   1   8   0.0057   0.0110   0.0071  -0.0056   0.0055  -0.0029   0.00  999.9    3.28888    1.16929    0.75314   0.00363  0.00411  0.00390 -0.00057 -0.00157  0.00147    0.14037    1.56426  285.30596   0.06432  0.07207  0.30859 -0.00268 -0.02362 -0.04465
2046 358149.000  -2408533.6138   4698170.9711   3566725.2901   1   8   0.0056   0.0109   0.0070  -0.0054   0.0056  -0.0029   0.00  999.9    3.22512    1.23024    0.64088   0.00367  0.00405  0.00373  0.00035 -0.00129  0.00125   -0.12438    1.34883  284.73879   0.06371  0.07013  0.30378  0.00456 -0.02006 -0.04991
2046 358150.000  -2408530.4110   4698172.1401   3566725.9839   1   9   0.0055   0.0107   0.0070  -0.0052   0.0056  -0.0030   0.00  999.9    3.18034    1.17728    0.72469   0.00348  0.00400  0.00370 -0.00054 -0.00131  0.00105    0.05927    1.83207  284.19199   0.06370  0.06966  0.29948  0.00698 -0.02241 -0.05041
2046 358151.000  -2408527.1936   4698173.3344   3566726.6619   1   9   0.0054   0.0104   0.0070  -0.0051   0.0056  -0.0030   0.00  999.9    3.26540    1.20582    0.63521   0.00355  0.00396  0.00373 -0.00077 -0.00134  0.00112   -0.06286    1.88781  283.76459   0.06343  0.06963  0.29681  0.00866 -0.02567 -0.04835
2046 358152.000  -2408523.8937   4698174.5684   3566727.3348   1   9   0.0051   0.0093   0.0069  -0.0043   0.0054  -0.0027   0.00   35.6    3.32683    1.27048    0.68080   0.00350  0.00384  0.00378 -0.00050 -0.00141  0.00109   -0.02661    2.13071  283.24809   0.06266  0.06928  0.29538  0.01036 -0.02959 -0.04665
2046 358153.000  -2408520.6423   4698175.8149   3566727.9513   1   9   0.0050   0.0090   0.0069  -0.0042   0.0053  -0.0027   0.00  141.0    3.15770    1.22813    0.61576   0.00350  0.00379  0.00382 -0.00044 -0.00138  0.00101   -0.13668    1.86872  282.73492   0.06152  0.06851  0.29474  0.01112 -0.03320 -0.04473
2046 358154.000  -2408517.4542   4698177.0091   3566728.5656   1   9   0.0050   0.0088   0.0069  -0.0041   0.0052  -0.0027   0.00  265.5    3.19314    1.20048    0.62126   0.00346  0.00374  0.00378 -0.00046 -0.00129  0.00104   -0.25695    1.82942  283.23170   0.06027  0.06733  0.29491  0.01118 -0.03319 -0.04369
2046 358155.000  -2408514.2663   4698178.1991   3566729.1787   1   9   0.0050   0.0077   0.0069  -0.0038   0.0049  -0.0026   0.00   55.9    3.17262    1.19960    0.64878   0.00341  0.00355  0.00373 -0.00036 -0.00118  0.00106   -0.25482    1.72239  283.03732   0.05925  0.06616  0.29493  0.01079 -0.03157 -0.04378
2046 358156.000  -2408511.0770   4698179.4311   3566729.7563   1   9   0.0050   0.0076   0.0069  -0.0038   0.0048  -0.0026   0.00  169.9    3.18672    1.25796    0.55815   0.00336  0.00353  0.00370 -0.00037 -0.00111  0.00100   -0.25469    1.55555  281.84208   0.05847  0.06524  0.29503  0.01016 -0.03030 -0.04367
2046 358157.000  -2408507.8641   4698180.7125   3566730.2829   1   8   0.0050   0.0086   0.0069  -0.0039   0.0049  -0.0026   0.00  557.4    3.29008    1.34416    0.52925   0.00339  0.00381  0.00374  0.00010 -0.00139  0.00107   -0.41421    1.16380  280.88406   0.05779  0.06450  0.29525  0.00959 -0.03100 -0.04308
2046 358158.000  -2408504.4931   4698182.0989   3566730.7539   1   9   0.0050   0.0091   0.0069  -0.0040   0.0050  -0.0026   0.00  632.8    3.40750    1.45908    0.33877   0.00358  0.00386  0.00384 -0.00049 -0.00146  0.00139   -0.35348    1.22142  278.38123   0.05709  0.06375  0.29405  0.00943 -0.03586 -0.04275
2046 358159.000  -2408501.0280   4698183.6840   3566731.0382   1   9   0.0050   0.0092   0.0069  -0.0041   0.0051  -0.0026   0.00  720.1    3.52267    1.74086    0.19107   0.00399  0.00388  0.00405 -0.00064 -0.00166  0.00178   -0.36730    1.11371  274.20036   0.05584  0.06268  0.28758  0.00959 -0.04452 -0.03841
2046 358160.000  -2408497.3896   4698185.5599   3566731.0569   1   9   0.0052   0.0091   0.0070  -0.0042   0.0051  -0.0025   0.00  808.3    3.60178    2.02369   -0.22324   0.00464  0.00402  0.00426  0.00103 -0.00193  0.00189   -0.17023    0.46554  268.75104   0.05319  0.06073  0.27146  0.00892 -0.05589 -0.02192
2046 358161.000  -2408493.8364   4698187.8020   3566730.5917   1   8   0.0058   0.0094   0.0070  -0.0049   0.0051  -0.0026   0.00  999.9    3.39654    2.43069   -0.73946   0.00531  0.00455  0.00486  0.00164 -0.00290  0.00162    0.24011    0.41307  259.24834   0.04861  0.05669  0.24918 -0.00710 -0.06145  0.03802
2046 358162.000  -2408490.5882   4698190.3986   3566729.4788   1   8   0.0060   0.0096   0.0072  -0.0052   0.0051  -0.0027   0.00  999.9    3.08846    2.72082   -1.35825   0.00540  0.00483  0.00560  0.00112 -0.00364  0.00208    0.60417    0.04161  249.13715   0.04319  0.04837  0.22754 -0.01471 -0.05893  0.06005
2046 358163.000  -2408487.7297   4698193.1676   3566727.8987   1   8   0.0060   0.0083   0.0072  -0.0048   0.0046  -0.0025   0.00   92.7    2.70313    2.78932   -1.73998   0.00546  0.00441  0.00580 -0.00032 -0.00354  0.00287    0.34915    0.14747  242.05685   0.03777  0.03789  0.22014 -0.01515 -0.05114  0.06780
2046 358164.000  -2408485.2599   4698195.9171   3566726.0670   1   8   0.0060   0.0082   0.0073  -0.0047   0.0045  -0.0023   0.00  232.2    2.31486    2.75034   -1.93417   0.00558  0.00420  0.00547  0.00120 -0.00300  0.00306    0.43593    0.26042  236.52897   0.03144  0.02890  0.21458 -0.01104 -0.03808  0.06429
2046 358165.000  -2408483.0937   4698198.6622   3566724.0395   1   9   0.0059   0.0081   0.0072  -0.0046   0.0045  -0.0022   0.00  381.4    2.07413    2.74829   -2.09628   0.00524  0.00413  0.00492  0.00175 -0.00252  0.00255    0.94222   -0.02781  232.70697   0.02524  0.02293  0.20213 -0.00604 -0.02335  0.05435
2046 358166.000  -2408481.1201   4698201.4263   3566721.8796   1   9   0.0057   0.0080   0.0071  -0.0044   0.0046  -0.0023   0.00  483.5    1.84889    2.73156   -2.21797   0.00471  0.00403  0.00449  0.00172 -0.00218  0.00200    0.29299    0.89774  228.49077   0.02059  0.01944  0.18652 -0.00175 -0.00856  0.04307
2046 358167.000  -2408479.4404   4698204.0924   3566719.6053   1   9   0.0056   0.0079   0.0070  -0.0042   0.0047  -0.0024   0.00  573.8    1.54054    2.63174   -2.32041   0.00427  0.00386  0.00422  0.00145 -0.00186  0.00172    0.32513    1.02228  224.18232   0.01772  0.01744  0.17204  0.00266  0.01359  0.03323
2046 358168.000  -2408477.9994   4698206.7446   3566717.1966   1   7   0.0070   0.0081   0.0072  -0.0050   0.0050  -0.0037   0.00  710.2    1.32698    2.65901   -2.44472   0.00445  0.00377  0.00409  0.00128 -0.00177  0.00106    0.30305    0.80683  220.62147   0.01650  0.01632  0.16418  0.00187  0.01652  0.02747
2046 358169.000  -2408476.6568   4698209.3911   3566714.7263   1   7   0.0077   0.0082   0.0074  -0.0055   0.0053  -0.0044   0.00  818.1    1.25884    2.63305   -2.50902   0.00429  0.00373  0.00401  0.00093 -0.00169  0.00046    0.53846    0.61908  219.37595   0.01551  0.01557  0.15670  0.00149  0.01777  0.02109
2046 358170.000  -2408475.3552   4698212.0053   3566712.2772   1   7   0.0072   0.0079   0.0074  -0.0049   0.0052  -0.0044   0.00   56.3    1.29942    2.59064   -2.42923   0.00385  0.00372  0.00395  0.00118 -0.00170 -0.00054    0.43566    0.72233  219.29243   0.01482  0.01499  0.14930  0.00204  0.01860  0.01337
2046 358171.000  -2408474.0254   4698214.5969   3566709.8811   1   8   0.0083   0.0086   0.0075  -0.0062   0.0056  -0.0049   0.00  999.9    1.40829    2.60879   -2.36452   0.00404  0.00378  0.00393 -0.00038 -0.00175 -0.00035    0.47514    0.35714  221.00580   0.01465  0.01488  0.14313 -0.00010  0.01781  0.00273
2046 358172.000  -2408472.5483   4698217.2249   3566707.5293   1   9   0.0084   0.0090   0.0075  -0.0067   0.0058  -0.0050   0.00  999.9    1.53444    2.65122   -2.37320   0.00393  0.00374  0.00388 -0.00101 -0.00162  0.00040    0.40919    0.62747  222.68264   0.01466  0.01481  0.13658 -0.00160  0.01740 -0.01165
2046 358173.000  -2408471.0109   4698219.9257   3566705.1148   1   9   0.0081   0.0091   0.0075  -0.0067   0.0059  -0.0049   0.00  999.9    1.48917    2.72580   -2.44801   0.00385  0.00362  0.00376 -0.00109 -0.00125  0.00070    0.22767    0.73322  221.68745   0.01478  0.01483  0.13160 -0.00223  0.01730 -0.01548
2046 358174.000  -2408469.5303   4698222.6666   3566702.6297   1   9   0.0077   0.0090   0.0074  -0.0065   0.0059  -0.0048   0.00  999.9    1.44719    2.72979   -2.46390   0.00381  0.00355  0.00368 -0.00100 -0.00103  0.00074    0.25851    0.70741  220.40170   0.01493  0.01487  0.12899 -0.00266  0.01750 -0.01768
2046 358175.000  -2408468.1098   4698225.4360   3566700.0623   1   8   0.0076   0.0089   0.0075  -0.0063   0.0060  -0.0049   0.00  999.9    1.37616    2.79180   -2.58226   0.00383  0.00352  0.00367 -0.00092 -0.00092  0.00069    0.38686    0.53579  219.16935   0.01503  0.01490  0.12809 -0.00294  0.01757 -0.01904
2046 358176.000  -2408466.6983   4698228.2282   3566697.4674   1   6   0.0084   0.0091   0.0076  -0.0068   0.0061  -0.0051   0.00  999.9    1.40737    2.80189   -2.57333   0.00405  0.00354  0.00367 -0.00113 -0.00096  0.00073    0.45211    0.73992  219.25259   0.01513  0.01495  0.12794 -0.00295  0.01760 -0.01989
2046 358177.000  -2408465.2831   4698231.0034   3566694.8895   1   8   0.0089   0.0093   0.0076  -0.0072   0.0062  -0.0054   0.00  999.9    1.39406    2.76961   -2.58934   0.00409  0.00355  0.00366 -0.00122 -0.00093  0.00067    0.33455    0.78390  219.16908   0.01518  0.01494  0.12807 -0.00303  0.01757 -0.02047
2046 358178.000  -2408463.8929   4698233.7719   3566692.3094   1   8   0.0087   0.0093   0.0076  -0.0072   0.0062  -0.0053   0.00  999.9    1.37041    2.78707   -2.58959   0.00400  0.00357  0.00365 -0.00122 -0.00091  0.00070    0.34899    0.90821  218.78776   0.01519  0.01491  0.12838 -0.00315  0.01758 -0.02079
2046 358179.000  -2408462.4979   4698236.6191   3566689.6359   1   9   0.0083   0.0093   0.0076  -0.0071   0.0062  -0.0051   0.00  999.9    1.41738    2.99931   -2.80264   0.00396  0.00356  0.00367 -0.00115 -0.00088  0.00084    0.32682    0.98762  218.16694   0.01520  0.01488  0.12870 -0.00320  0.01736 -0.02106
2046 358180.000  -2408461.0196   4698239.6953   3566686.7256   1   9   0.0079   0.0092   0.0075  -0.0067   0.0061  -0.0049   0.00  999.9    1.52368    3.12355   -2.96902   0.00391  0.00355  0.00368 -0.00109 -0.00086  0.00092    0.27936    1.01489  217.97696   0.01523  0.01482  0.12855 -0.00316  0.01630 -0.02161
2046 358181.000  -2408459.4784   4698242.8962   3566683.6840   1   8   0.0076   0.0091   0.0074  -0.0066   0.0060  -0.0047   0.00  999.9    1.57162    3.29267   -3.15880   0.00390  0.00354  0.00369 -0.00109 -0.00088  0.00102    0.32849    1.09002  217.70649   0.01529  0.01476  0.12809 -0.00305  0.01486 -0.02227
2046 358182.000  -2408457.8570   4698246.3431   3566680.4036   1   7   0.0068   0.0085   0.0070  -0.0056   0.0052  -0.0033   0.00   68.4    1.67214    3.58932   -3.35520   0.00385  0.00350  0.00368 -0.00092 -0.00105  0.00137    0.27785    1.06247  217.69320   0.01536  0.01470  0.12716 -0.00282  0.01295 -0.02303
2046 358183.000  -2408456.1546   4698249.9279   3566676.9836   1   8   0.0082   0.0089   0.0073  -0.0066   0.0057  -0.0046   0.00  999.9    1.68815    3.58140   -3.37616   0.00407  0.00353  0.00368 -0.00116 -0.00096  0.00078    0.24847    0.87555  217.70461   0.01545  0.01474  0.12637 -0.00260  0.01108 -0.02383
2046 358184.000  -2408454.4765   4698253.4042   3566673.6789   1   7   0.0085   0.0091   0.0074  -0.0069   0.0059  -0.0050   0.00  999.9    1.68767    3.49013   -3.28668   0.00407  0.00356  0.00366 -0.00122 -0.00088  0.00071    0.30833    0.76814  218.18247   0.01551  0.01472  0.12656 -0.00252  0.01035 -0.02433
2046 358185.000  -2408452.7669   4698256.8764   3566670.3999   1   7   0.0085   0.0092   0.0075  -0.0070   0.0060  -0.0050   0.00  999.9    1.72657    3.44487   -3.24588   0.00406  0.00359  0.00366 -0.00120 -0.00084  0.00087    0.17460    0.88826  218.75836   0.01553  0.01471  0.12686 -0.00263  0.01103 -0.02445
2046 358186.000  -2408451.0530   4698260.2605   3566667.2280   1   7   0.0090   0.0093   0.0076  -0.0073   0.0062  -0.0054   0.00  999.9    1.73923    3.43835   -3.18914   0.00417  0.00359  0.00368 -0.00118 -0.00085  0.00083    0.33550    1.04322  218.97879   0.01549  0.01475  0.12667 -0.00283  0.01258 -0.02406
2046 358187.000  -2408449.3585   4698263.6556   3566664.0319   1   8   0.0089   0.0094   0.0076  -0.0073   0.0063  -0.0054   0.00  999.9    1.66594    3.36427   -3.19943   0.00411  0.00359  0.00369 -0.00122 -0.00087  0.00089    0.32221    0.88858  218.49486   0.01541  0.01476  0.12612 -0.00305  0.01425 -0.02325
2046 358188.000  -2408447.7236   4698267.0072   3566660.8606   1   8   0.0085   0.0093   0.0076  -0.0071   0.0062  -0.0053   0.00  999.9    1.61691    3.36853   -3.13482   0.00401  0.00359  0.00368 -0.00120 -0.00090  0.00093    0.28575    0.89544  218.21228   0.01531  0.01477  0.12553 -0.00319  0.01559 -0.02217
2046 358189.000  -2408446.1160   4698270.3283   3566657.7162   1   8   0.0081   0.0093   0.0076  -0.0069   0.0061  -0.0050   0.00  999.9    1.58668    3.31438   -3.12399   0.00393  0.00358  0.00367 -0.00117 -0.00092  0.00093    0.37433    0.49350  218.54653   0.01521  0.01478  0.12517 -0.00325  0.01656 -0.02108
2046 358190.000  -2408444.4927   4698273.5912   3566654.6667   1   8   0.0078   0.0092   0.0075  -0.0067   0.0060  -0.0048   0.00  999.9    1.65794    3.24692   -3.02808   0.00387  0.00357  0.00364 -0.00113 -0.00092  0.00090    0.21656    0.80227  219.30968   0.01512  0.01479  0.12498 -0.00329  0.01748 -0.02012
2046 358191.000  -2408442.8346   4698276.8402   3566651.6705   1   8   0.0061   0.0084   0.0071  -0.0051   0.0053  -0.0034   0.00   35.9    1.70022    3.23882   -3.00344   0.00359  0.00352  0.00362 -0.00070 -0.00104  0.00111    0.28625    0.91233  219.96656   0.01506  0.01478  0.12508 -0.00341  0.01834 -0.01946
2046 358192.000  -2408441.1374   4698280.0593   3566648.7142   1   6   0.0075   0.0086   0.0072  -0.0059   0.0055  -0.0042   0.00  999.9    1.69849    3.19730   -2.93928   0.00401  0.00354  0.00364 -0.00106 -0.00102  0.00085    0.38265    1.21500  220.11992   0.01505  0.01488  0.12545 -0.00328  0.01886 -0.01917
2046 358193.000  -2408439.4873   4698283.2643   3566645.7382   1   6   0.0084   0.0089   0.0074  -0.0066   0.0057  -0.0048   0.00  999.9    1.59036    3.18801   -2.96749   0.00411  0.00356  0.00365 -0.00125 -0.00097  0.00070    0.30515    1.07105  219.13394   0.01501  0.01488  0.12594 -0.00327  0.01918 -0.01890
2046 358194.000  -2408437.8666   4698286.4482   3566642.7719   1   6   0.0089   0.0091   0.0075  -0.0071   0.0060  -0.0052   0.00  999.9    1.64912    3.18115   -2.91798   0.00411  0.00358  0.00366 -0.00131 -0.00091  0.00063    0.27235    1.11130  219.65041   0.01498  0.01486  0.12648 -0.00327  0.01921 -0.01868
2046 358195.000  -2408436.2237   4698289.5845   3566639.8897   1   8   0.0091   0.0093   0.0076  -0.0074   0.0062  -0.0055   0.00  999.9    1.62604    3.01736   -2.82814   0.00409  0.00360  0.00365 -0.00130 -0.00088  0.00066    0.50216    1.35282  220.45169   0.01495  0.01485  0.12705 -0.00325  0.01927 -0.01857
2046 358196.000  -2408434.5418   4698292.6903   3566637.0648   1   8   0.0088   0.0094   0.0076  -0.0073   0.0062  -0.0054   0.00  999.9    1.70684    3.11233   -2.82516   0.00400  0.00359  0.00366 -0.00125 -0.00089  0.00074    0.19481    1.01584  221.30998   0.01493  0.01484  0.12762 -0.00329  0.01943 -0.01862
2046 358197.000  -2408432.8418   4698295.8302   3566634.2043   1   8   0.0084   0.0093   0.0076  -0.0071   0.0062  -0.0052   0.00  999.9    1.71551    3.13471   -2.88138   0.00394  0.00358  0.00365 -0.00117 -0.00089  0.00083    0.15760    0.96696  220.39013   0.01492  0.01481  0.12819 -0.00333  0.01942 -0.01882
2046 358198.000  -2408431.2286   4698298.9769   3566631.2953   1   8   0.0080   0.0093   0.0075  -0.0069   0.0061  -0.0049   0.00  999.9    1.56134    3.11173   -2.94994   0.00388  0.00358  0.00365 -0.00109 -0.00091  0.00086    0.47564    0.89917  218.99176   0.01491  0.01476  0.12871 -0.00331  0.01903 -0.01891
2046 358199.000  -2408429.6847   4698302.1054   3566628.3669   1   7   0.0081   0.0092   0.0074  -0.0069   0.0060  -0.0048   0.00  999.9    1.54373    3.10934   -2.91391   0.00394  0.00357  0.00364 -0.00116 -0.00092  0.00093    0.19214    1.01187  218.63203   0.01488  0.01472  0.12916 -0.00317  0.01843 -0.01876
2046 358200.000  -2408428.1583   4698305.1858   3566625.4867   1   7   0.0069   0.0086   0.0069  -0.0057   0.0052  -0.0034   0.00   44.9    1.53736    3.07001   -2.83720   0.00374  0.00353  0.00359 -0.00092 -0.00106  0.00123    0.31238    1.61023  218.71055   0.01486  0.01466  0.12968 -0.00313  0.01797 -0.01858
2046 358201.000  -2408426.6602   4698308.2186   3566622.6328   1   9   0.0068   0.0085   0.0069  -0.0056   0.0051  -0.0033   0.00  120.4    1.49642    3.07388   -2.87747   0.00373  0.00353  0.00360 -0.00096 -0.00104  0.00121    0.24455    1.83873  218.40680   0.01484  0.01464  0.13027 -0.00306  0.01774 -0.01838
2046 358202.000  -2408425.1642   4698311.2769   3566619.7522   1   8   0.0066   0.0085   0.0069  -0.0055   0.0051  -0.0032   0.00  191.6    1.51311    3.07577   -2.91885   0.00369  0.00353  0.00360 -0.00098 -0.00101  0.00119    0.34858    1.69994  218.50455   0.01482  0.01462  0.13090 -0.00303  0.01753 -0.01833
2046 358203.000  -2408423.6436   4698314.3699   3566616.8503   1   8   0.0064   0.0084   0.0069  -0.0054   0.0050  -0.0031   0.00  262.0    1.52472    3.09665   -2.88895   0.00364  0.00353  0.00360 -0.00098 -0.00101  0.00119    0.24401    1.64274  218.73163   0.01483  0.01459  0.13152 -0.00302  0.01729 -0.01852
2046 358204.000  -2408422.0791   4698317.4729   3566613.9436   1   8   0.0063   0.0083   0.0068  -0.0053   0.0050  -0.0031   0.00  333.1    1.62639    3.10161   -2.90740   0.00360  0.00353  0.00361 -0.00098 -0.00103  0.00120    0.08296    1.74675  219.30253   0.01485  0.01458  0.13211 -0.00306  0.01715 -0.01892
2046 358205.000  -2408420.4845   4698320.5937   3566611.0254   1   8   0.0062   0.0083   0.0068  -0.0052   0.0050  -0.0030   0.00  401.2    1.57494    3.11361   -2.93488   0.00357  0.00352  0.00360 -0.00094 -0.00101  0.00121    0.23783    1.68869  219.14694   0.01487  0.01457  0.13268 -0.00312  0.01710 -0.01940
2046 358206.000  -2408418.9342   4698323.7315   3566608.0909   1   8   0.0056   0.0080   0.0068  -0.0046   0.0048  -0.0026   0.00   41.0    1.49433    3.11503   -2.93274   0.00345  0.00350  0.00360 -0.00073 -0.00103  0.00123    0.36226    1.49761  218.22298   0.01488  0.01454  0.13332 -0.00320  0.01701 -0.01972
2046 358207.000  -2408417.4577   4698326.8588   3566605.1197   1   9   0.0062   0.0082   0.0068  -0.0050   0.0049  -0.0028   0.00  555.9    1.45462    3.13249   -2.99946   0.00365  0.00351  0.00360 -0.00092 -0.00104  0.00124    0.30755    1.46920  217.18671   0.01488  0.01455  0.13400 -0.00309  0.01680 -0.01971
2046 358208.000  -2408416.0185   4698330.0055   3566602.0723   1   8   0.0064   0.0082   0.0068  -0.0052   0.0049  -0.0030   0.00  625.2    1.41692    3.17459   -3.05339   0.00363  0.00351  0.00360 -0.00097 -0.00104  0.00121    0.32607    1.36437  216.84367   0.01487  0.01452  0.13461 -0.00303  0.01627 -0.01954
2046 358209.000  -2408414.5499   4698333.1953   3566598.9924   1   9   0.0064   0.0083   0.0068  -0.0053   0.0049  -0.0030   0.00  690.9    1.52703    3.28225   -3.13223   0.00359  0.00350  0.00360 -0.00096 -0.00103  0.00122    0.30801    1.27812  217.32397   0.01486  0.01449  0.13524 -0.00297  0.01571 -0.01949
2046 358210.000  -2408412.9728   4698336.5526   3566595.7859   1   9   0.0062   0.0082   0.0068  -0.0051   0.0050  -0.0030   0.00  752.1    1.59933    3.41502   -3.23642   0.00357  0.00349  0.00361 -0.00089 -0.00102  0.00123    0.44678    1.35010  217.74302   0.01488  0.01446  0.13563 -0.00291  0.01479 -0.01994
2046 358211.000  -2408411.3297   4698339.9885   3566592.5345   1   8   0.0061   0.0082   0.0068  -0.0051   0.0049  -0.0030   0.00  816.2    1.70538    3.42604   -3.28252   0.00354  0.00349  0.00362 -0.00092 -0.00106  0.00124    0.19236    1.36409  218.42243   0.01493  0.01444  0.13593 -0.00285  0.01396 -0.02065
2046 358212.000  -2408409.6366   4698343.4265   3566589.2807   1   8   0.0055   0.0080   0.0068  -0.0046   0.0048  -0.0026   0.00   59.5    1.69030    3.40779   -3.17703   0.00342  0.00348  0.00359 -0.00063 -0.00108  0.00122    0.09490    1.15273  218.81996   0.01497  0.01442  0.13637 -0.00293  0.01365 -0.02138
2046 358213.000  -2408407.9274   4698346.7969   3566586.1189   1   8   0.0055   0.0080   0.0068  -0.0045   0.0047  -0.0025   0.00  490.0    1.72295    3.36056   -3.13430   0.00345  0.00348  0.00358 -0.00065 -0.00107  0.00123    0.22793    1.19994  219.37740   0.01500  0.01443  0.13692 -0.00306  0.01435 -0.02175
2046 358214.000  -2408406.2708   4698350.1101   3566583.0271   1   8   0.0054   0.0079   0.0067  -0.0045   0.0047  -0.0025   0.00  889.5    1.63819    3.16926   -3.00577   0.00351  0.00349  0.00360 -0.00069 -0.00105  0.00135    0.23664    1.20421  218.88068   0.01498  0.01445  0.13725 -0.00323  0.01556 -0.02152
2046 358215.000  -2408404.7286   4698353.2512   3566580.0596   1   8   0.0055   0.0079   0.0067  -0.0045   0.0047  -0.0024   0.00  999.9    1.51838    3.07345   -2.92442   0.00349  0.00349  0.00362 -0.00079 -0.00109  0.00140    0.32402    0.93370  218.54049   0.01490  0.01448  0.13683 -0.00334  0.01697 -0.02038
2046 358216.000  -2408403.2476   4698356.2977   3566577.1658   1   8   0.0055   0.0079   0.0067  -0.0045   0.0047  -0.0024   0.00  999.9    1.44483    3.02489   -2.88893   0.00342  0.00350  0.00362 -0.00080 -0.00111  0.00133    0.20914    0.84867  218.06565   0.01481  0.01452  0.13609 -0.00334  0.01813 -0.01875
2046 358217.000  -2408401.7649   4698359.3217   3566574.3085   1   8   0.0059   0.0080   0.0069  -0.0047   0.0048  -0.0031   0.00  999.9    1.52653    3.04504   -2.83954   0.00351  0.00348  0.00361 -0.00074 -0.00107  0.00104    0.47606    0.69209  219.15094   0.01474  0.01458  0.13597 -0.00327  0.01884 -0.01732
2046 358218.000  -2408400.2530   4698362.3366   3566571.4801   1   7   0.0074   0.0083   0.0071  -0.0057   0.0052  -0.0040   0.00  999.9    1.50629    3.02422   -2.84019   0.00390  0.00349  0.00361 -0.00103 -0.00104  0.00088    0.24467    0.79962  219.00602   0.01472  0.01467  0.13650 -0.00305  0.01918 -0.01653
2046 358219.000  -2408398.7618   4698365.3415   3566568.6495   1   8   0.0084   0.0087   0.0073  -0.0066   0.0056  -0.0048   0.00  999.9    1.48543    3.05911   -2.85155   0.00403  0.00352  0.00363 -0.00119 -0.00099  0.00077    0.53102    0.69013  218.70110   0.01470  0.01468  0.13724 -0.00298  0.01931 -0.01609
2046 358220.000  -2408397.2096   4698368.4928   3566565.6912   1   8   0.0085   0.0090   0.0074  -0.0069   0.0059  -0.0050   0.00  999.9    1.62509    3.23855   -3.01460   0.00403  0.00353  0.00367 -0.00122 -0.00094  0.00097    0.43204    0.80255  219.02691   0.01470  0.01463  0.13778 -0.00298  0.01870 -0.01643
2046 358221.000  -2408395.5494   4698371.8261   3566562.5854   1   8   0.0082   0.0091   0.0074  -0.0069   0.0060  -0.0050   0.00  999.9    1.65070    3.35949   -3.22413   0.00401  0.00353  0.00368 -0.00109 -0.00087  0.00107    0.50891    0.90092  218.60609   0.01473  0.01456  0.13736 -0.00297  0.01727 -0.01748
2046 358222.000  -2408393.9020   4698375.2292   3566559.3792   1   8   0.0079   0.0091   0.0074  -0.0067   0.0060  -0.0048   0.00  999.9    1.67719    3.39699   -3.19295   0.00389  0.00353  0.00365 -0.00110 -0.00092  0.00098    0.28430    0.90643  218.50545   0.01477  0.01449  0.13654 -0.00289  0.01536 -0.01854
2046 358223.000  -2408392.2622   4698378.5791   3566556.2159   1   7   0.0081   0.0091   0.0074  -0.0068   0.0059  -0.0048   0.00  999.9    1.62571    3.32280   -3.14970   0.00391  0.00353  0.00362 -0.00114 -0.00094  0.00093    0.37922    0.70992  218.45689   0.01481  0.01447  0.13668 -0.00278  0.01414 -0.01926
2046 358224.000  -2408390.6603   4698381.8413   3566553.1500   1   7   0.0069   0.0086   0.0069  -0.0057   0.0052  -0.0034   0.00   33.4    1.57656    3.21443   -3.04271   0.00369  0.00350  0.00358 -0.00084 -0.00107  0.00129    0.33887    1.00169  218.83997   0.01481  0.01442  0.13744 -0.00283  0.01386 -0.01953
2046 358225.000  -2408389.0519   4698385.0151   3566550.1785   1   7   0.0082   0.0089   0.0073  -0.0066   0.0057  -0.0047   0.00  999.9    1.60375    3.13938   -2.93804   0.00405  0.00353  0.00362 -0.00109 -0.00097  0.00093    0.52051    0.88739  219.50382   0.01481  0.01450  0.13814 -0.00282  0.01445 -0.01935
2046 358226.000  -2408387.4379   4698388.1249   3566547.3097   1   6   0.0088   0.0091   0.0074  -0.0070   0.0060  -0.0051   0.00  999.9    1.62636    3.09504   -2.85278   0.00412  0.00355  0.00363 -0.00120 -0.00092  0.00080    0.48960    1.00957  220.07941   0.01478  0.01453  0.13845 -0.00289  0.01565 -0.01883
2046 358227.000  -2408385.8264   4698391.2096   3566544.4663   1   6   0.0091   0.0093   0.0075  -0.0073   0.0061  -0.0054   0.00  999.9    1.60376    3.07039   -2.85715   0.00410  0.00356  0.00364 -0.00128 -0.00089  0.00075    0.38196    1.27062  219.69016   0.01475  0.01456  0.13866 -0.00295  0.01683 -0.01815
2046 358228.000  -2408384.2385   4698394.2946   3566541.6051   1   6   0.0092   0.0094   0.0076  -0.0075   0.0063  -0.0056   0.00  999.9    1.62513    2.97871   -2.84882   0.00409  0.00357  0.00363 -0.00128 -0.00087  0.00073    0.37847    1.15318  219.58962   0.01472  0.01458  0.13915 -0.00296  0.01758 -0.01748
2046 358229.000  -2408382.6589   4698397.3668   3566538.7599   1   8   0.0092   0.0095   0.0077  -0.0075   0.0063  -0.0056   0.00  999.9    1.58022    3.08631   -2.85548   0.00410  0.00358  0.00364 -0.00126 -0.00088  0.00070    0.33664    1.73635  219.63044   0.01469  0.01459  0.13985 -0.00294  0.01799 -0.01695
2046 358230.000  -2408381.1389   4698400.3829   3566535.9355   1   8   0.0089   0.0095   0.0076  -0.0074   0.0063  -0.0055   0.00  999.9    1.51026    3.00144   -2.78903   0.00401  0.00358  0.00364 -0.00124 -0.00088  0.00076    0.15828    1.33776  218.61104   0.01467  0.01457  0.14060 -0.00293  0.01811 -0.01640
2046 358231.000  -2408379.7386   4698403.3805   3566533.0953   1   8   0.0084   0.0094   0.0076  -0.0071   0.0062  -0.0052   0.00  999.9    1.45789    3.02034   -2.79086   0.00393  0.00358  0.00363 -0.00120 -0.00087  0.00081    0.43499   -0.09491  217.76792   0.01463  0.01453  0.14127 -0.00286  0.01777 -0.01563
2046 358232.000  -2408378.2712   4698406.4091   3566530.2487   1   8   0.0080   0.0093   0.0075  -0.0069   0.0061  -0.0050   0.00  999.9    1.53204    3.01787   -2.86938   0.00387  0.00356  0.00363 -0.00118 -0.00087  0.00086    0.39239    0.19146  219.13544   0.01462  0.01450  0.14201 -0.00281  0.01721 -0.01528
2046 358233.000  -2408376.6993   4698409.4460   3566527.4343   1   8   0.0077   0.0091   0.0074  -0.0066   0.0060  -0.0047   0.00  999.9    1.64061    3.06553   -2.78276   0.00382  0.00356  0.00365 -0.00119 -0.00095  0.00090    0.32941    0.03720  220.37046   0.01463  0.01447  0.14277 -0.00284  0.01686 -0.01568
2046 358234.000  -2408375.1242   4698412.4648   3566524.6406   1   8   0.0057   0.0082   0.0069  -0.0048   0.0050  -0.0029   0.00   45.3    1.51493    2.99348   -2.77034   0.00354  0.00350  0.00358 -0.00070 -0.00104  0.00118    0.06957    0.26874  219.61482   0.01464  0.01444  0.14349 -0.00296  0.01676 -0.01627
2046 358235.000  -2408373.6991   4698415.3390   3566521.9437   1   8   0.0055   0.0081   0.0068  -0.0046   0.0048  -0.0026   0.00  109.8    1.32901    2.79331   -2.64456   0.00354  0.00352  0.00360 -0.00081 -0.00104  0.00124    0.45829   -0.08105  218.33187   0.01463  0.01444  0.14434 -0.00299  0.01706 -0.01614
2046 358236.000  -2408372.3356   4698418.1469   3566519.2627   1   8   0.0055   0.0080   0.0068  -0.0045   0.0048  -0.0025   0.00  163.1    1.43517    2.63466   -2.71819   0.00348  0.00351  0.00357 -0.00086 -0.00098  0.00117    0.33476    0.61760  218.16830   0.01461  0.01443  0.14510 -0.00299  0.01740 -0.01554
2046 358237.000  -2408370.9614   4698420.9720   3566516.5680   1   7   0.0059   0.0080   0.0069  -0.0048   0.0049  -0.0032   0.00  908.6    1.40405    2.88820   -2.65300   0.00357  0.00351  0.00362 -0.00085 -0.00099  0.00096    0.18010    0.77469  218.00443   0.01460  0.01445  0.14594 -0.00298  0.01749 -0.01504
2046 358238.000  -2408369.6185   4698423.8467   3566513.8118   1   7   0.0061   0.0081   0.0070  -0.0049   0.0050  -0.0034   0.00  999.9    1.35319    2.89630   -2.75816   0.00356  0.00351  0.00362 -0.00083 -0.00096  0.00095    0.32492    0.83835  217.13669   0.01459  0.01444  0.14678 -0.00294  0.01710 -0.01485
2046 358239.000  -2408368.2843   4698426.7705   3566510.9958   1   7   0.0076   0.0085   0.0072  -0.0059   0.0054  -0.0043   0.00  999.9    1.35128    2.90791   -2.83611   0.00393  0.00352  0.00363 -0.00108 -0.00093  0.00084    0.34065    0.87449  216.94347   0.01460  0.01449  0.14748 -0.00274  0.01639 -0.01492
2046 358240.000  -2408366.9250   4698429.7187   3566508.1485   1   7   0.0083   0.0088   0.0074  -0.0065   0.0057  -0.0049   0.00  999.9    1.40053    2.94148   -2.91862   0.00400  0.00352  0.00363 -0.00117 -0.00088  0.00070    0.42710    1.19691  217.25962   0.01461  0.01447  0.14802 -0.00271  0.01537 -0.01541
2046 358241.000  -2408365.5438   4698432.6764   3566505.3197   1   7   0.0089   0.0091   0.0075  -0.0071   0.0060  -0.0053   0.00  999.9    1.36447    2.87830   -2.75755   0.00403  0.00356  0.00363 -0.00123 -0.00091  0.00064    0.27736    1.00893  217.84829   0.01463  0.01446  0.14865 -0.00268  0.01463 -0.01609
2046 358242.000  -2408364.2127   4698435.4181   3566502.7134   1   8   0.0089   0.0093   0.0075  -0.0073   0.0061  -0.0054   0.00  999.9    1.30537    2.65785   -2.49752   0.00407  0.00358  0.00362 -0.00115 -0.00087  0.00087    0.02434    0.94434  218.75469   0.01465  0.01446  0.14941 -0.00273  0.01525 -0.01636
2046 358243.000  -2408362.9621   4698437.9432   3566500.3117   1   9   0.0086   0.0093   0.0075  -0.0072   0.0062  -0.0052   0.00  999.9    1.21356    2.41407   -2.33355   0.00407  0.00359  0.00363 -0.00112 -0.00086  0.00112    0.02869    1.05875  218.66030   0.01464  0.01450  0.14911 -0.00283  0.01704 -0.01565
2046 358244.000  -2408361.8023   4698440.2684   3566498.0951   1   8   0.0084   0.0093   0.0075  -0.0070   0.0061  -0.0051   0.00  999.9    1.09289    2.25587   -2.11933   0.00408  0.00358  0.00364 -0.00111 -0.00089  0.00121   -0.04656    0.92881  218.51218   0.01460  0.01457  0.14774 -0.00282  0.01896 -0.01390
2046 358245.000  -2408360.7866   4698442.3860   3566496.0625   1   7   0.0083   0.0092   0.0074  -0.0069   0.0060  -0.0049   0.00  999.9    0.95291    2.03690   -1.93241   0.00407  0.00358  0.00365 -0.00123 -0.00097  0.00129    0.25896    1.01741  217.29241   0.01458  0.01465  0.14581 -0.00268  0.02063 -0.01111
2046 358246.000  -2408359.9176   4698444.3074   3566494.2256   1   7   0.0070   0.0086   0.0069  -0.0058   0.0052  -0.0034   0.00   17.7    0.87707    1.87148   -1.80022   0.00378  0.00354  0.00358 -0.00096 -0.00110  0.00139    0.38337    0.65754  217.42433   0.01456  0.01470  0.14391 -0.00245  0.02190 -0.00677
2046 358247.000  -2408358.9601   4698446.3512   3566492.2629   1   7   0.0069   0.0085   0.0069  -0.0056   0.0051  -0.0033   0.00   61.6    1.04576    2.23022   -2.14993   0.00386  0.00351  0.00362 -0.00084 -0.00099  0.00142    0.36204    0.65262  217.75051   0.01455  0.01472  0.14439 -0.00226  0.02234 -0.00285
2046 358248.000  -2408357.8091   4698448.7573   3566489.9766   1   8   0.0068   0.0085   0.0068  -0.0056   0.0051  -0.0032   0.00  103.5    1.25317    2.52511   -2.34391   0.00413  0.00349  0.00380 -0.00099 -0.00100  0.00188    0.33383    0.71975  219.04044   0.01454  0.01462  0.14378 -0.00241  0.02075 -0.00649
2046 358249.000  -2408356.4618   4698451.3256   3566487.6151   1   7   0.0078   0.0087   0.0072  -0.0063   0.0055  -0.0042   0.00  999.9    1.42366    2.62902   -2.38563   0.00424  0.00351  0.00386 -0.00128 -0.00106  0.00160    0.34626    0.85144  221.08404   0.01456  0.01454  0.13987 -0.00265  0.01797 -0.01130
2046 358250.000  -2408354.9759   4698453.9929   3566485.2041   1   8   0.0081   0.0089   0.0074  -0.0065   0.0057  -0.0047   0.00  999.9    1.46803    2.70321   -2.42309   0.00408  0.00353  0.00376 -0.00127 -0.00096  0.00119    0.15449    0.86807  221.64526   0.01462  0.01445  0.13539 -0.00280  0.01495 -0.01495
2046 358251.000  -2408353.5218   4698456.6696   3566482.7630   1   6   0.0087   0.0091   0.0075  -0.0070   0.0060  -0.0051   0.00  999.9    1.39343    2.66845   -2.48361   0.00411  0.00355  0.00366 -0.00124 -0.00086  0.00078    0.21648    0.90977  220.38418   0.01469  0.01442  0.13340 -0.00277  0.01291 -0.01719
2046 358252.000  -2408352.1440   4698459.3541   3566480.2647   1   6   0.0091   0.0093   0.0076  -0.0073   0.0062  -0.0054   0.00  999.9    1.34178    2.67107   -2.57512   0.00409  0.00357  0.00365 -0.00124 -0.00087  0.00063    0.25969    1.03413  218.76742   0.01472  0.01439  0.13312 -0.00271  0.01105 -0.01835
2046 358253.000  -2408350.7865   4698462.0828   3566477.6933   1   6   0.0092   0.0094   0.0076  -0.0075   0.0063  -0.0056   0.00  999.9    1.38273    2.71088   -2.58120   0.00407  0.00357  0.00365 -0.00127 -0.00086  0.00064    0.23212    1.02817  219.02898   0.01473  0.01437  0.13356 -0.00262  0.00932 -0.01873
2046 358254.000  -2408349.4288   4698464.8127   3566475.1278   1   6   0.0093   0.0095   0.0077  -0.0076   0.0063  -0.0057   0.00  999.9    1.35861    2.72543   -2.55940   0.00408  0.00357  0.00365 -0.00125 -0.00087  0.00070    0.29279    0.96579  218.82993   0.01471  0.01436  0.13431 -0.00254  0.00828 -0.01858
2046 358255.000  -2408348.0991   4698467.5587   3566472.5495   1   6   0.0093   0.0095   0.0077  -0.0076   0.0064  -0.0057   0.00  999.9    1.37494    2.75580   -2.59450   0.00409  0.00356  0.00364 -0.00124 -0.00086  0.00069    0.09874    0.73036  218.38022   0.01468  0.01436  0.13503 -0.00250  0.00803 -0.01803
2046 358256.000  -2408346.7172   4698470.4347   3566469.8114   1   6   0.0093   0.0095   0.0077  -0.0076   0.0064  -0.0057   0.00  999.9    1.44297    2.96041   -2.74967   0.00410  0.00356  0.00364 -0.00125 -0.00085  0.00062    0.23450    1.00605  218.04068   0.01466  0.01436  0.13581 -0.00246  0.00757 -0.01759
2046 358257.000  -2408345.2984   4698473.3876   3566466.9938   1   6   0.0093   0.0095   0.0077  -0.0076   0.0064  -0.0057   0.00  999.9    1.44703    2.93950   -2.84946   0.00410  0.00356  0.00364 -0.00126 -0.00084  0.00060    0.29990    0.70638  218.37114   0.01465  0.01437  0.13663 -0.00242  0.00690 -0.01739
2046 358258.000  -2408343.8280   4698476.3862   3566464.1527   1   6   0.0093   0.0095   0.0077  -0.0076   0.0064  -0.0057   0.00  999.9    1.47343    3.02136   -2.84814   0.00412  0.00356  0.00364 -0.00127 -0.00085  0.00059    0.29370    0.61650  218.77718   0.01465  0.01437  0.13750 -0.00240  0.00654 -0.01741
2046 358259.000  -2408342.3278   4698479.4069   3566461.3180   1   6   0.0093   0.0095   0.0077  -0.0076   0.0064  -0.0057   0.00  999.9    1.52793    3.00720   -2.82789   0.00413  0.00357  0.00364 -0.00127 -0.00084  0.00058    0.23856    0.64521  219.21956   0.01466  0.01437  0.13834 -0.00242  0.00689 -0.01753
2046 358260.000  -2408340.8117   4698482.4002   3566458.5253   1   7   0.0093   0.0095   0.0077  -0.0076   0.0064  -0.0057   0.00  999.9    1.49936    2.98269   -2.73729   0.00415  0.00358  0.00364 -0.00126 -0.00083  0.00065    0.34716    0.67294  219.34034   0.01466  0.01438  0.13909 -0.00247  0.00813 -0.01753
2046 358261.000  -2408339.3481   4698485.3630   3566455.7679   1   7   0.0091   0.0095   0.0076  -0.0075   0.0064  -0.0056   0.00  999.9    1.49611    2.95758   -2.73519   0.00410  0.00359  0.00364 -0.00128 -0.00082  0.00074    0.22068    0.74814  219.42983   0.01466  0.01437  0.13966 -0.00254  0.00969 -0.01719
2046 358262.000  -2408337.8111   4698488.3035   3566453.0419   1   7   0.0092   0.0095   0.0077  -0.0076   0.0064  -0.0056   0.00  999.9    1.56535    2.88941   -2.72921   0.00414  0.00359  0.00363 -0.00128 -0.00082  0.00065    0.19705    0.77556  220.53024   0.01465  0.01440  0.14014 -0.00261  0.01121 -0.01676
2046 358263.000  -2408336.2315   4698491.2421   3566450.3541   1   6   0.0093   0.0095   0.0077  -0.0076   0.0064  -0.0057   0.00  999.9    1.55604    2.91988   -2.70098   0.00414  0.00359  0.00364 -0.00130 -0.00083  0.00063    0.51932    0.92452  220.68328   0.01464  0.01441  0.14060 -0.00268  0.01265 -0.01637
2046 358264.000  -2408334.7019   4698494.1752   3566447.6630   1   6   0.0093   0.0095   0.0077  -0.0076   0.0064  -0.0057   0.00  999.9    1.49708    2.90656   -2.70611   0.00413  0.00359  0.00365 -0.00132 -0.00084  0.00065    0.40844    0.57609  219.77620   0.01462  0.01441  0.14120 -0.00272  0.01362 -0.01579
2046 358265.000  -2408333.2439   4698497.0953   3566444.9292   1   6   0.0093   0.0095   0.0077  -0.0076   0.0064  -0.0057   0.00  999.9    1.46029    2.92638   -2.73000   0.00412  0.00359  0.00365 -0.00131 -0.00084  0.00061    0.32344    0.51882  219.25123   0.01459  0.01441  0.14190 -0.00270  0.01393 -0.01498
2046 358266.000  -2408331.7531   4698500.0974   3566442.1129   1   6   0.0093   0.0095   0.0077  -0.0076   0.0064  -0.0057   0.00  999.9    1.54166    3.05447   -2.86627   0.00413  0.00358  0.00365 -0.00128 -0.00079  0.00061    0.42715    0.76964  218.94418   0.01457  0.01440  0.14272 -0.00266  0.01358 -0.01446
2046 358267.000  -2408330.2805   4698503.1034   3566439.2754   1   7   0.0093   0.0095   0.0077  -0.0076   0.0064  -0.0057   0.00  999.9    1.42795    2.89220   -2.74721   0.00412  0.00359  0.00364 -0.00131 -0.00082  0.00062    0.12626    0.99288  218.39166   0.01456  0.01439  0.14351 -0.00262  0.01290 -0.01416
2046 358268.000  -2408328.9342   4698505.8993   3566436.6036   1   6   0.0093   0.0096   0.0077  -0.0076   0.0064  -0.0057   0.00  999.9    1.29022    2.70149   -2.54876   0.00417  0.00360  0.00366 -0.00131 -0.00083  0.00086    0.18700    1.11692  217.86335   0.01454  0.01440  0.14423 -0.00258  0.01298 -0.01323
2046 358269.000  -2408327.7414   4698508.4590   3566434.1343   1   6   0.0093   0.0096   0.0077  -0.0076   0.0064  -0.0057   0.00  999.9    1.13579    2.46327   -2.34536   0.00425  0.00362  0.00368 -0.00131 -0.00083  0.00109    0.25568    0.99782  217.17441   0.01451  0.01441  0.14415 -0.00254  0.01411 -0.01116
2046 358270.000  -2408326.6778   4698510.8395   3566431.8182   1   6   0.0093   0.0096   0.0077  -0.0076   0.0064  -0.0057   0.00  999.9    1.03883    2.45548   -2.39515   0.00414  0.00361  0.00365 -0.00133 -0.00085  0.00081    0.36833    0.83742  216.34465   0.01449  0.01445  0.14317 -0.00244  0.01574 -0.00784
2046 358271.000  -2408325.5576   4698513.3957   3566429.3279   1   6   0.0093   0.0096   0.0077  -0.0076   0.0064  -0.0057   0.00  999.9    1.16033    2.58912   -2.54490   0.00412  0.00359  0.00364 -0.00130 -0.00080  0.00065    0.19909    0.99537  216.40148   0.01449  0.01447  0.14363 -0.00236  0.01643 -0.00525
2046 358272.000  -2408324.4055   4698515.9737   3566426.8197   1   6   0.0093   0.0096   0.0077  -0.0076   0.0064  -0.0057   0.00  999.9    1.12430    2.50230   -2.40587   0.00412  0.00360  0.00364 -0.00131 -0.00082  0.00062    0.02486    1.04324  216.54043   0.01449  0.01446  0.14452 -0.00235  0.01634 -0.00492
2046 358273.000  -2408323.3712   4698518.3699   3566424.4414   1   6   0.0093   0.0096   0.0077  -0.0076   0.0064  -0.0057   0.00  999.9    0.99114    2.39670   -2.36282   0.00411  0.00360  0.00363 -0.00130 -0.00081  0.00062    0.07403    0.75984  215.68362   0.01449  0.01446  0.14542 -0.00235  0.01634 -0.00482
2046 358274.000  -2408322.3406   4698520.7641   3566422.0777   1   6   0.0093   0.0096   0.0077  -0.0076   0.0064  -0.0057   0.00  999.9    1.01123    2.32790   -2.29409   0.00411  0.00360  0.00363 -0.00131 -0.00082  0.00061    0.41044    0.88119  216.03461   0.01450  0.01446  0.14630 -0.00237  0.01622 -0.00550
2046 358275.000  -2408321.3712   4698522.9727   3566419.9234   1   6   0.0093   0.0096   0.0077  -0.0076   0.0064  -0.0057   0.00  999.9    0.91666    2.11402   -2.02474   0.00416  0.00362  0.00362 -0.00128 -0.00081  0.00069    0.36850    0.75147  216.79274   0.01451  0.01447  0.14714 -0.00237  0.01671 -0.00579
2046 358276.000  -2408320.3798   4698525.1301   3566417.8463   1   6   0.0093   0.0096   0.0077  -0.0076   0.0064  -0.0057   0.00  999.9    1.07623    2.23413   -2.11430   0.00412  0.00360  0.00365 -0.00133 -0.00088  0.00061    0.42462    1.08380  217.37933   0.01452  0.01449  0.14786 -0.00239  0.01744 -0.00633
2046 358277.000  -2408319.3184   4698527.3871   3566415.6913   1   7   0.0093   0.0096   0.0077  -0.0076   0.0064  -0.0057   0.00  999.9    1.12455    2.36178   -2.26290   0.00418  0.00359  0.00369 -0.00134 -0.00085  0.00086    0.44061    0.85886  218.27236   0.01453  0.01450  0.14858 -0.00246  0.01764 -0.00796
2046 358278.000  -2408318.0875   4698529.8622   3566413.3603   1   8   0.0091   0.0095   0.0077  -0.0076   0.0064  -0.0056   0.00  999.9    1.33824    2.63680   -2.46030   0.00431  0.00357  0.00380 -0.00138 -0.00088  0.00135    0.01521    1.40396  219.27089   0.01455  0.01446  0.14825 -0.00260  0.01667 -0.01098
2046 358279.000  -2408316.6991   4698532.5169   3566410.8811   1   8   0.0087   0.0095   0.0076  -0.0073   0.0063  -0.0053   0.00  999.9    1.45765    2.71735   -2.46848   0.00414  0.00358  0.00377 -0.00136 -0.00093  0.00122    0.03162    0.96762  220.87330   0.01459  0.01440  0.14604 -0.00274  0.01451 -0.01427
2046 358280.000  -2408315.1610   4698535.2556   3566408.3888   1   8   0.0083   0.0093   0.0075  -0.0070   0.0061  -0.0050   0.00  999.9    1.63144    2.81776   -2.48210   0.00400  0.00358  0.00374 -0.00132 -0.00098  0.00109   -0.02655    0.80606  222.75600   0.01465  0.01434  0.14383 -0.00281  0.01245 -0.01703
2046 358281.000  -2408313.5079   4698538.0532   3566405.8933   1   8   0.0079   0.0092   0.0074  -0.0068   0.0060  -0.0048   0.00  999.9    1.63123    2.82259   -2.52432   0.00389  0.00357  0.00366 -0.00121 -0.00089  0.00090    0.11122    0.70578  222.86500   0.01471  0.01430  0.14280 -0.00287  0.01120 -0.01907
2046 358282.000  -2408311.8892   4698540.9239   3566403.3208   1   8   0.0064   0.0085   0.0069  -0.0054   0.0051  -0.0033   0.00   22.5    1.55613    2.90200   -2.58437   0.00365  0.00353  0.00361 -0.00086 -0.00104  0.00116    0.46187    0.42788  221.47295   0.01474  0.01423  0.14300 -0.00289  0.01000 -0.02018
2046 358283.000  -2408310.3466   4698543.8488   3566400.6657   1   7   0.0066   0.0084   0.0068  -0.0055   0.0051  -0.0032   0.00   55.3    1.53163    2.98300   -2.73473   0.00375  0.00354  0.00362 -0.00094 -0.00106  0.00113    0.79757    0.54690  219.97170   0.01472  0.01421  0.14363 -0.00272  0.00831 -0.02030
2046 358284.000  -2408308.8127   4698546.9261   3566397.8550   1   7   0.0067   0.0084   0.0068  -0.0055   0.0050  -0.0032   0.00   88.2    1.55075    3.13886   -2.88314   0.00375  0.00353  0.00361 -0.00099 -0.00101  0.00109    0.73366    0.73826  219.37962   0.01467  0.01418  0.14392 -0.00254  0.00476 -0.01991
2046 358285.000  -2408307.2607   4698550.0921   3566394.9400   1   9   0.0068   0.0084   0.0068  -0.0055   0.0050  -0.0032   0.00  118.4    1.57261    3.17677   -2.94724   0.00370  0.00352  0.00360 -0.00105 -0.00098  0.00113    0.52929    0.90270  219.04295   0.01462  0.01417  0.14415 -0.00233 -0.00469 -0.01928
