% program   : GINav v0.1.0
% obs start : 2019/03/28 03:28:10.0
% obs end   : 2019/03/28 03:59:01.0
% mode      : SPP/INS LC
% system    : BDS 
% nfreqs    : 1
% elev mask : 15.0 deg
% ephemeris : broadcast
% ionos opt : broadcast model
% trops opt : Saastamoinen model
%
%  GPST              x-ecef(m)      y-ecef(m)      z-ecef(m)   Q  ns   sdx(m)   sdy(m)   sdz(m)  sdxy(m)  sdyz(m)  sdzx(m) age(s)  ratio    vx(m/s)    vy(m/s)    vz(m/s)      sdvx     sdvy     sdvz    sdvxy    sdvyz    sdvzx pitch(deg)  roll(deg)   yaw(deg)       sdp      sdr      sdy     sdpr     sdry     sdyp
2046 358097.000  -2408688.9339   4698106.1722   3566695.9182   3   0  25.9956  29.0087  29.8845 -10.7365   1.3056  -0.9348   0.00    0.0    1.47475    0.90870   -0.17606  10.00000 10.00000 10.00000 -0.00000 -0.00000  0.00000    0.00000    0.00000  262.67634   0.30000  0.30000  0.50000  0.00000  0.00000  0.00000
2046 358098.000  -2408687.3235   4698107.2880   3566695.6109   5  11   3.7238   5.6845   5.9952  -3.5819   1.7511  -1.2538   0.00    0.0    1.69351    1.09193   -0.35231   0.14998  0.14998  0.14998 -0.00033  0.00006 -0.00004   -0.19200    0.03524  259.24543   0.30002  0.30002  0.50001  0.00002  0.00001 -0.00311
2046 358099.000  -2408685.5459   4698108.3377   3566695.1808   5  10   2.9017   4.5046   4.5725  -2.8735   1.9842  -1.4207   0.00    0.0    1.67195    1.10966   -0.35804   0.11087  0.10989  0.11042  0.01229 -0.01528  0.01095   -0.70389   -2.14376  259.00910   0.29207  0.29207  0.50003  0.00016  0.01176 -0.00313
2046 358100.000  -2408683.6252   4698109.4987   3566694.8554   5  10   2.4659   3.8578   3.8544  -2.4742   1.8631  -1.3340   0.00    0.0    1.97021    1.30704   -0.32858   0.10382  0.10072  0.10244  0.01988 -0.02520  0.01745    0.29480    1.64019  259.77514   0.27468  0.27467  0.50001 -0.00126  0.01689 -0.02508
2046 358101.000  -2408681.5353   4698110.7929   3566694.4905   5  10   2.1841   3.4311   3.3984  -2.2068   1.7299  -1.2386   0.00    0.0    2.12613    1.28401   -0.19385   0.10356  0.09985  0.10181  0.02185 -0.02784  0.01937    0.41348    0.98899  262.61840   0.25518  0.25516  0.49998 -0.00256  0.02921 -0.03347
2046 358102.000  -2408679.3540   4698112.0644   3566694.2755   5  10   1.9828   3.1220   3.0754  -2.0112   1.6136  -1.1554   0.00    0.0    2.24391    1.20614   -0.03956   0.10242  0.09929  0.10091  0.02019 -0.02580  0.01807    0.37866    0.57708  267.78999   0.23965  0.23965  0.49995 -0.00333  0.03828 -0.03611
2046 358103.000  -2408677.0594   4698113.3219   3566694.2379   5  10   1.8300   2.8850   2.8312  -1.8600   1.5152  -1.0849   0.00    0.0    2.37632    1.16867    0.10143   0.09984  0.09752  0.09872  0.01722 -0.02222  0.01557    0.32512    0.59448  272.51030   0.22894  0.22896  0.49994 -0.00376  0.04398 -0.03684
2046 358104.000  -2408674.5367   4698114.4805   3566694.3657   5  10   1.7091   2.6958   2.6383  -1.7386   1.4316  -1.0250   0.00    0.0    2.58258    1.15280    0.26419   0.09660  0.09488  0.09582  0.01442 -0.01882  0.01308    0.00135    0.97439  276.61032   0.22170  0.22173  0.49995 -0.00409  0.04740 -0.03781
2046 358105.000  -2408671.8578   4698115.6512   3566694.6480   5  10   1.6107   2.5404   2.4810  -1.6383   1.3598  -0.9736   0.00    0.0    2.71094    1.11541    0.37150   0.09312  0.09189  0.09265  0.01234 -0.01600  0.01128   -0.17695    1.02572  279.47712   0.21665  0.21669  0.49998 -0.00419  0.04875 -0.03787
2046 358106.000  -2408669.0380   4698116.8482   3566695.1363   5  10   1.5287   2.4098   2.3497  -1.5536   1.2975  -0.9290   0.00    0.0    2.89322    1.12213    0.44764   0.08980  0.08883  0.08953  0.01091 -0.01407  0.00998    0.03403    1.24064  281.93256   0.21287  0.21291  0.50002 -0.00429  0.04892 -0.03886
2046 358107.000  -2408666.0781   4698118.0405   3566695.6965   5  10   1.4593   2.2983   2.2381  -1.4808   1.2428  -0.8899   0.00    0.0    2.94282    1.11105    0.59236   0.08675  0.08596  0.08658  0.01026 -0.01313  0.00957    0.01555    1.11640  283.44815   0.20971  0.20976  0.50007 -0.00431  0.04835 -0.03906
2046 358108.000  -2408663.0908   4698119.2260   3566696.2727   5  10   1.3995   2.2017   2.1417  -1.4175   1.1944  -0.8552   0.00    0.0    2.93740    1.15993    0.60477   0.08391  0.08325  0.08385  0.01016 -0.01256  0.00947    0.17969    1.34703  283.70684   0.20692  0.20697  0.50008 -0.00433  0.04623 -0.03982
2046 358109.000  -2408660.0611   4698120.3069   3566696.8383   5  10   1.3476   2.1170   2.0576  -1.3616   1.1512  -0.8243   0.00    0.0    2.96437    1.14950    0.61607   0.08125  0.08068  0.08126  0.01002 -0.01215  0.00936    0.02703    1.22195  284.08506   0.20444  0.20450  0.50006 -0.00440  0.04335 -0.04119
2046 358110.000  -2408656.9770   4698121.3690   3566697.4180   5  10   1.3020   2.0421   1.9833  -1.3120   1.1124  -0.7965   0.00    0.0    3.03147    1.05050    0.64560   0.07878  0.07829  0.07881  0.00974 -0.01196  0.00934   -0.12623    1.40359  285.06449   0.20219  0.20227  0.50005 -0.00449  0.04038 -0.04242
2046 358111.000  -2408653.8801   4698122.4069   3566698.0532   5  10   1.2617   1.9752   1.9172  -1.2674   1.0772  -0.7713   0.00    0.0    3.07659    1.10005    0.56715   0.07650  0.07607  0.07659  0.00992 -0.01170  0.00938   -0.07243    1.29103  284.20840   0.20010  0.20019  0.49997 -0.00466  0.03675 -0.04508
2046 358112.000  -2408650.8248   4698123.6601   3566698.3937   5  10   1.2332   1.9191   1.8597  -1.2261   1.0491  -0.7514   0.00    0.0    3.10261    1.16062    0.55311   0.08478  0.08215  0.07784  0.01973  0.02353 -0.01590   -0.20905    1.27623  283.58388   0.19969  0.19888  0.50002  0.01786  0.03566 -0.04473
2046 358113.000  -2408647.6602   4698124.7775   3566699.0054   5  10   1.2000   1.8642   1.8060  -1.1897   1.0193  -0.7300   0.00    0.0    3.12622    1.18429    0.50444   0.07954  0.07774  0.07482  0.01641  0.01868 -0.01225   -0.10135    1.38542  283.15907   0.19736  0.19705  0.49984  0.01230  0.03083 -0.04913
2046 358114.000  -2408644.5630   4698126.0264   3566699.5381   5  10   1.1703   1.8145   1.7573  -1.1563   0.9919  -0.7103   0.00    0.0    3.10391    1.18951    0.53331   0.07549  0.07424  0.07222  0.01376  0.01484 -0.00948    0.01349    1.10919  282.74085   0.19563  0.19559  0.49971  0.00809  0.02597 -0.05206
2046 358115.000  -2408641.4198   4698127.1835   3566700.1335   5  10   1.1435   1.7691   1.7130  -1.1257   0.9667  -0.6922   0.00    0.0    3.13068    1.11318    0.60906   0.07228  0.07139  0.07000  0.01167  0.01144 -0.00703   -0.00513    1.28666  284.44380   0.19424  0.19435  0.49965  0.00445  0.02123 -0.05384
2046 358116.000  -2408638.2429   4698128.2642   3566700.7524   5  10   1.1193   1.7275   1.6725  -1.0974   0.9433  -0.6755   0.00    0.0    3.20632    1.08037    0.69092   0.06976  0.06904  0.06815  0.01035  0.00793 -0.00405   -0.05886    1.22961  285.55063   0.19297  0.19316  0.49966 -0.00233  0.01701 -0.05511
2046 358117.000  -2408634.9935   4698129.4205   3566701.4005   5  10   1.0972   1.6893   1.6352  -1.0711   0.9216  -0.6599   0.00    0.0    3.24082    1.10398    0.65702   0.06761  0.06705  0.06652  0.00966  0.00381  0.00308   -0.20152    1.75662  284.97327   0.19178  0.19202  0.49965 -0.00435  0.01149 -0.05656
2046 358118.000  -2408631.8363   4698130.6519   3566702.0572   5   9   1.0891   1.6663   1.6081  -1.0517   0.9155  -0.6556   0.00    0.0    3.22909    1.13959    0.67704   0.06583  0.06532  0.06500  0.00950 -0.00418  0.00515   -0.21841    1.63904  284.55432   0.19070  0.19096  0.49965 -0.00508 -0.00489 -0.05792
2046 358119.000  -2408628.6615   4698131.8062   3566702.6827   5   9   1.0816   1.6446   1.5828  -1.0332   0.9092  -0.6510   0.00    0.0    3.22805    1.11623    0.66395   0.06423  0.06376  0.06359  0.00933 -0.00645  0.00625   -0.02176    1.66088  284.99474   0.18972  0.19000  0.49965 -0.00540 -0.01348 -0.05915
2046 358120.000  -2408625.4388   4698132.8872   3566703.3547   5   9   1.0746   1.6242   1.5592  -1.0157   0.9027  -0.6463   0.00    0.0    3.22646    1.06752    0.73934   0.06286  0.06236  0.06235  0.00921 -0.00813  0.00707   -0.10936    1.48712  285.61453   0.18880  0.18907  0.49967 -0.00546 -0.01842 -0.05995
2046 358121.000  -2408622.2461   4698134.0170   3566704.0807   5   9   1.0680   1.6049   1.5370  -0.9990   0.8960  -0.6416   0.00    0.0    3.26490    1.07351    0.68251   0.06162  0.06111  0.06122  0.00938 -0.00914  0.00774   -0.20268    1.54737  285.49483   0.18791  0.18818  0.49969 -0.00539 -0.02201 -0.06100
2046 358122.000  -2408619.1316   4698135.3148   3566704.7966   5   9   1.0618   1.5866   1.5162  -0.9832   0.8894  -0.6368   0.00    0.0    3.23895    1.10079    0.78734   0.06052  0.05995  0.06016  0.00935 -0.01014  0.00825   -0.26868    1.49784  285.62228   0.18706  0.18732  0.49973 -0.00524 -0.02498 -0.06164
2046 358123.000  -2408615.8348   4698136.4056   3566705.5154   5   9   1.0560   1.5692   1.4966  -0.9680   0.8826  -0.6320   0.00    0.0    3.29021    1.13323    0.72536   0.05947  0.05887  0.05918  0.00956 -0.01064  0.00863   -0.25653    1.50915  284.98228   0.18629  0.18654  0.49977 -0.00505 -0.02732 -0.06261
2046 358124.000  -2408612.5537   4698137.6306   3566706.1199   5   9   1.0505   1.5528   1.4782  -0.9536   0.8759  -0.6272   0.00    0.0    3.29916    1.19022    0.69546   0.05843  0.05781  0.05820  0.00955 -0.01090  0.00876   -0.28971    1.53348  283.38695   0.18564  0.18589  0.49980 -0.00482 -0.02939 -0.06364
2046 358125.000  -2408609.3012   4698138.8696   3566706.7385   5   9   1.0454   1.5371   1.4608  -0.9398   0.8693  -0.6224   0.00    0.0    3.30008    1.17912    0.64244   0.05740  0.05679  0.05721  0.00935 -0.01099  0.00868   -0.30594    1.37146  282.53786   0.18518  0.18543  0.49981 -0.00463 -0.03141 -0.06460
2046 358126.000  -2408606.1187   4698140.1240   3566707.3301   5   9   1.0405   1.5222   1.4443  -0.9266   0.8627  -0.6177   0.00    0.0    3.23626    1.14801    0.62067   0.05647  0.05586  0.05630  0.00917 -0.01120  0.00862   -0.17390    1.47849  282.42468   0.18488  0.18513  0.49979 -0.00454 -0.03361 -0.06529
2046 358127.000  -2408602.9987   4698141.4209   3566707.9057   5   9   1.0359   1.5080   1.4288  -0.9139   0.8561  -0.6130   0.00    0.0    3.22908    1.11598    0.73296   0.05571  0.05499  0.05552  0.00904 -0.01166  0.00878   -0.19722    1.16994  283.70180   0.18468  0.18493  0.49984 -0.00447 -0.03536 -0.06551
2046 358128.000  -2408599.7879   4698142.5845   3566708.5467   5   9   1.0316   1.4945   1.4141  -0.9018   0.8497  -0.6084   0.00    0.0    3.23170    1.06670    0.76028   0.05511  0.05426  0.05487  0.00931 -0.01227  0.00914   -0.31209    1.30323  284.84111   0.18451  0.18477  0.49989 -0.00442 -0.03694 -0.06555
2046 358129.000  -2408596.4340   4698143.7295   3566709.1045   5   9   1.0275   1.4816   1.4001  -0.8902   0.8433  -0.6038   0.00    0.0    3.31223    1.06729    0.80492   0.05463  0.05360  0.05432  0.00974 -0.01291  0.00957   -0.27574    1.46499  285.03954   0.18435  0.18462  0.49999 -0.00436 -0.03807 -0.06550
2046 358130.000  -2408593.1550   4698144.8874   3566709.7650   5   9   1.0236   1.4693   1.3868  -0.8791   0.8371  -0.5993   0.00    0.0    3.30794    1.09550    0.77687   0.05419  0.05301  0.05383  0.01029 -0.01350  0.00997   -0.16326    1.35301  284.73529   0.18421  0.18448  0.50008 -0.00435 -0.03921 -0.06552
2046 358131.000  -2408589.8863   4698146.0604   3566710.3996   5   9   1.0198   1.4575   1.3742  -0.8684   0.8309  -0.5949   0.00    0.0    3.31385    1.05353    0.82849   0.05380  0.05246  0.05337  0.01069 -0.01411  0.01038   -0.33039    1.46047  285.00718   0.18408  0.18436  0.50018 -0.00437 -0.04019 -0.06535
2046 358132.000  -2408586.6311   4698147.2901   3566711.1511   5   9   1.0163   1.4462   1.3623  -0.8581   0.8249  -0.5906   0.00    0.0    3.30052    1.04894    0.81183   0.05347  0.05197  0.05296  0.01121 -0.01469  0.01078   -0.27079    1.49393  285.03403   0.18397  0.18425  0.50028 -0.00444 -0.04121 -0.06518
2046 358133.000  -2408583.3174   4698148.4271   3566711.8137   5   9   1.0129   1.4354   1.3509  -0.8482   0.8190  -0.5863   0.00    0.0    3.33606    1.03471    0.78309   0.05316  0.05149  0.05259  0.01171 -0.01522  0.01114   -0.32180    1.60987  284.82006   0.18389  0.18418  0.50040 -0.00457 -0.04210 -0.06505
2046 358134.000  -2408580.0524   4698149.6554   3566712.4799   5   9   1.0097   1.4251   1.3401  -0.8387   0.8132  -0.5822   0.00    0.0    3.31154    1.07570    0.82304   0.05291  0.05106  0.05227  0.01220 -0.01576  0.01152   -0.40127    1.64959  284.33720   0.18382  0.18412  0.50051 -0.00475 -0.04292 -0.06484
2046 358135.000  -2408576.7740   4698150.8665   3566713.1042   5   9   1.0066   1.4152   1.3297  -0.8296   0.8075  -0.5781   0.00    0.0    3.37870    1.13448    0.77659   0.05267  0.05061  0.05195  0.01266 -0.01620  0.01178   -0.32444    1.49581  283.67187   0.18379  0.18410  0.50065 -0.00492 -0.04357 -0.06481
2046 358136.000  -2408573.4485   4698152.2787   3566713.7497   5   9   1.0037   1.4057   1.3199  -0.8208   0.8019  -0.5741   0.00    0.0    3.44149    1.14768    0.78009   0.05245  0.05018  0.05165  0.01303 -0.01667  0.01205   -0.35926    1.48621  283.34497   0.18380  0.18413  0.50080 -0.00509 -0.04402 -0.06479
2046 358137.000  -2408570.0188   4698153.5682   3566714.3529   5   9   1.0008   1.3966   1.3105  -0.8124   0.7964  -0.5702   0.00    0.0    3.47271    1.16125    0.78690   0.05229  0.04981  0.05140  0.01343 -0.01716  0.01235   -0.46785    1.39650  283.16048   0.18385  0.18418  0.50096 -0.00527 -0.04439 -0.06474
2046 358138.000  -2408566.6458   4698154.8860   3566714.9337   5   9   0.9981   1.3879   1.3015  -0.8042   0.7911  -0.5664   0.00    0.0    3.32922    1.16288    0.71668   0.05215  0.04951  0.05121  0.01393 -0.01764  0.01267   -0.33202    1.28707  282.27839   0.18390  0.18425  0.50108 -0.00559 -0.04506 -0.06446
2046 358139.000  -2408563.4361   4698156.2214   3566715.4209   5   9   0.9955   1.3795   1.2930  -0.7964   0.7858  -0.5626   0.00    0.0    3.22991    1.16525    0.61871   0.05205  0.04921  0.05107  0.01441 -0.01814  0.01291   -0.31197    1.26365  280.57068   0.18396  0.18432  0.50115 -0.00602 -0.04581 -0.06392
2046 358140.000  -2408560.2844   4698157.6533   3566715.8671   5   9   0.9931   1.3714   1.2848  -0.7889   0.7807  -0.5590   0.00    0.0    3.16922    1.20142    0.58371   0.05205  0.04893  0.05101  0.01493 -0.01872  0.01322   -0.19637    0.93384  279.68312   0.18398  0.18435  0.50120 -0.00645 -0.04639 -0.06310
2046 358141.000  -2408557.0545   4698158.9771   3566716.1949   5   9   0.9907   1.3637   1.2770  -0.7816   0.7757  -0.5554   0.00    0.0    3.28483    1.19927    0.60685   0.05212  0.04868  0.05093  0.01539 -0.01932  0.01366   -0.23661    1.16540  279.84369   0.18394  0.18430  0.50132 -0.00671 -0.04669 -0.06241
2046 358142.000  -2408554.0443   4698160.4679   3566716.9272   5  10   0.9767   1.3492   1.2676  -0.7763   0.7614  -0.5452   0.00    0.0    3.35593    1.13632    0.82579   0.05210  0.04885  0.05184  0.01495 -0.02145  0.01534   -0.48062    1.20389  282.90642   0.18391  0.18422  0.50149 -0.00470 -0.04646 -0.06228
2046 358143.000  -2408550.8175   4698161.7363   3566717.6841   5  10   0.9637   1.3349   1.2567  -0.7704   0.7498  -0.5369   0.00    0.0    3.31760    0.97679    0.98316   0.05188  0.04856  0.05149  0.01523 -0.02153  0.01562   -0.55863    1.35019  286.57713   0.18379  0.18409  0.50156 -0.00533 -0.04535 -0.06207
2046 358144.000  -2408547.7078   4698162.8844   3566718.6228   5  10   0.9517   1.3214   1.2464  -0.7645   0.7388  -0.5289   0.00    0.0    3.24546    0.85132    1.07658   0.05164  0.04826  0.05110  0.01538 -0.02155  0.01580   -0.33428    1.35006  289.64186   0.18373  0.18401  0.50154 -0.00568 -0.04401 -0.06155
2046 358145.000  -2408544.3962   4698163.8587   3566719.4398   5  10   0.9408   1.3088   1.2372  -0.7588   0.7275  -0.5209   0.00    0.0    3.27950    0.95079    1.16172   0.05157  0.04813  0.05107  0.01548 -0.02221  0.01615   -0.46344    1.48211  289.27339   0.18369  0.18393  0.50158 -0.00585 -0.04287 -0.06099
2046 358146.000  -2408541.1863   4698165.0049   3566720.3281   5  10   0.9307   1.2967   1.2279  -0.7530   0.7174  -0.5137   0.00    0.0    3.27838    0.96496    1.01399   0.05141  0.04784  0.05079  0.01579 -0.02235  0.01616   -0.45039    1.30455  288.26479   0.18360  0.18385  0.50170 -0.00605 -0.04235 -0.06031
2046 358147.000  -2408537.9678   4698166.2110   3566721.1412   5  10   0.9213   1.2852   1.2190  -0.7473   0.7077  -0.5067   0.00    0.0    3.27376    1.01646    0.97427   0.05135  0.04760  0.05056  0.01617 -0.02253  0.01626   -0.35010    1.26759  287.03355   0.18349  0.18374  0.50185 -0.00625 -0.04208 -0.05969
2046 358148.000  -2408534.7387   4698167.3690   3566721.9251   5  11   0.9038   1.2612   1.2023  -0.7336   0.6825  -0.4887   0.00    0.0    3.28369    1.03823    0.92830   0.05118  0.04730  0.05031  0.01643 -0.02271  0.01635   -0.19926    1.30185  286.22471   0.18338  0.18362  0.50204 -0.00646 -0.04196 -0.05920
2046 358149.000  -2408531.6448   4698168.5902   3566722.7096   5  11   0.8895   1.2434   1.1912  -0.7246   0.6619  -0.4739   0.00    0.0    3.20732    1.10057    0.81565   0.05126  0.04807  0.05144  0.01510 -0.02309  0.01663   -0.46257    1.09131  285.74477   0.18336  0.18354  0.50224 -0.00753 -0.04229 -0.05893
2046 358150.000  -2408528.4433   4698169.7543   3566723.3915   5  10   0.8831   1.2345   1.1840  -0.7195   0.6544  -0.4686   0.00    0.0    3.16808    1.05262    0.89507   0.05116  0.04774  0.05105  0.01559 -0.02311  0.01667   -0.28834    1.57227  285.28699   0.18322  0.18341  0.50243 -0.00761 -0.04242 -0.05834
2046 358151.000  -2408525.2536   4698170.9980   3566724.1342   5  10   0.8771   1.2261   1.1772  -0.7145   0.6472  -0.4634   0.00    0.0    3.25983    1.08711    0.81179   0.05102  0.04733  0.05067  0.01601 -0.02308  0.01659   -0.42309    1.62202  284.91435   0.18312  0.18332  0.50264 -0.00777 -0.04262 -0.05809
2046 358152.000  -2408521.9087   4698172.1201   3566724.8144   5  10   0.8716   1.2181   1.1707  -0.7096   0.6403  -0.4585   0.00    0.0    3.33197    1.14152    0.86103   0.05090  0.04699  0.05035  0.01637 -0.02313  0.01657   -0.38922    1.87195  284.41850   0.18303  0.18324  0.50286 -0.00795 -0.04265 -0.05807
2046 358153.000  -2408518.6984   4698173.4660   3566725.4347   5  10   0.8665   1.2106   1.1650  -0.7050   0.6331  -0.4533   0.00    0.0    3.16419    1.11433    0.79005   0.05075  0.04677  0.05027  0.01660 -0.02336  0.01678   -0.51628    1.60599  283.91865   0.18296  0.18316  0.50307 -0.00833 -0.04298 -0.05767
2046 358154.000  -2408515.4887   4698174.5539   3566726.0675   5  10   0.8617   1.2032   1.1590  -0.7003   0.6267  -0.4487   0.00    0.0    3.20349    1.07768    0.79986   0.05059  0.04644  0.04994  0.01684 -0.02335  0.01674   -0.64070    1.56573  284.41414   0.18288  0.18309  0.50329 -0.00867 -0.04317 -0.05735
2046 358155.000  -2408512.3279   4698175.7659   3566726.6586   5  11   0.8500   1.1857   1.1468  -0.6894   0.6072  -0.4348   0.00    0.0    3.18667    1.07924    0.82130   0.05037  0.04609  0.04963  0.01701 -0.02340  0.01677   -0.65415    1.45950  284.22314   0.18280  0.18300  0.50352 -0.00901 -0.04327 -0.05701
2046 358156.000  -2408509.1548   4698176.9467   3566727.2838   5  11   0.8393   1.1694   1.1353  -0.6791   0.5889  -0.4216   0.00    0.0    3.20142    1.12671    0.73563   0.05017  0.04572  0.04937  0.01717 -0.02344  0.01674   -0.66416    1.32163  283.04042   0.18270  0.18291  0.50374 -0.00935 -0.04367 -0.05674
2046 358157.000  -2408505.9260   4698178.1397   3566727.7520   5  10   0.8362   1.1638   1.1307  -0.6750   0.5840  -0.4181   0.00    0.0    3.30384    1.20509    0.70087   0.05012  0.04543  0.04917  0.01737 -0.02353  0.01674   -0.81083    0.94427  282.06841   0.18258  0.18279  0.50396 -0.00962 -0.04430 -0.05670
2046 358158.000  -2408502.4870   4698179.4355   3566728.2748   5  10   0.8334   1.1585   1.1262  -0.6711   0.5792  -0.4147   0.00    0.0    3.42817    1.30981    0.52037   0.05018  0.04514  0.04907  0.01757 -0.02365  0.01678   -0.74990    1.04631  279.51887   0.18240  0.18263  0.50408 -0.00984 -0.04573 -0.05662
2046 358159.000  -2408499.0179   4698181.0351   3566728.5615   5  10   0.8307   1.1534   1.1219  -0.6673   0.5747  -0.4115   0.00    0.0    3.53949    1.59106    0.37422   0.05065  0.04499  0.04928  0.01795 -0.02412  0.01707   -0.74509    1.02297  275.05882   0.18197  0.18224  0.50399 -0.00991 -0.04858 -0.05611
2046 358160.000  -2408495.3396   4698182.9168   3566728.6188   5  10   0.8282   1.1486   1.1178  -0.6636   0.5702  -0.4083   0.00    0.0    3.62128    1.86996   -0.03019   0.05195  0.04504  0.04997  0.01876 -0.02504  0.01762   -0.53836    0.47934  269.26034   0.18097  0.18135  0.50340 -0.00988 -0.05362 -0.05325
2046 358161.000  -2408491.7541   4698184.8957   3566728.1101   5  10   0.8263   1.1449   1.1145  -0.6609   0.5673  -0.4062   0.00    0.0    3.39758    2.23816   -0.52907   0.05503  0.04592  0.05201  0.02105 -0.02708  0.01830   -0.10086    0.62760  259.06253   0.17851  0.17910  0.50196 -0.01012 -0.06049 -0.04285
2046 358162.000  -2408488.5511   4698187.4709   3566727.1063   5  11   0.8181   1.1324   1.1079  -0.6530   0.5480  -0.3924   0.00    0.0    3.09720    2.51187   -1.11429   0.06029  0.04868  0.05802  0.02431 -0.03339  0.02158    0.29548    0.31869  248.85466   0.17345  0.17604  0.49955  0.01230 -0.06739  0.01601
2046 358163.000  -2408485.7278   4698190.1965   3566725.5322   5  11   0.8102   1.1198   1.0991  -0.6447   0.5331  -0.3817   0.00    0.0    2.74207    2.59737   -1.50539   0.06596  0.05168  0.06300  0.02906 -0.03823  0.02435    0.10765    0.28554  242.05644   0.16412  0.16615  0.49723 -0.00407 -0.07207  0.05513
2046 358164.000  -2408483.2802   4698193.0577   3566723.7613   5  11   0.8031   1.1085   1.0920  -0.6372   0.5174  -0.3705   0.00    0.0    2.38701    2.61086   -1.73543   0.07102  0.05539  0.06910  0.03273 -0.04378  0.02871    0.24612    0.22631  236.58033   0.15172  0.15455  0.49570  0.00943 -0.07342  0.07563
2046 358165.000  -2408481.0656   4698195.7156   3566721.7244   5  11   0.7964   1.0974   1.0841  -0.6297   0.5040  -0.3608   0.00    0.0    2.16501    2.63993   -1.93834   0.07463  0.05770  0.07164  0.03575 -0.04624  0.03126    0.80321   -0.15501  232.72159   0.13700  0.13839  0.49493 -0.00902 -0.07112  0.08853
2046 358166.000  -2408479.0379   4698198.5464   3566719.4801   5  10   0.7960   1.0948   1.0816  -0.6268   0.5018  -0.3592   0.00    0.0    1.94780    2.68315   -2.13567   0.07660  0.05905  0.07270  0.03755 -0.04741  0.03269    0.21383    0.67906  228.70744   0.12214  0.12252  0.49472 -0.01187 -0.06724  0.09555
2046 358167.000  -2408477.3721   4698201.2694   3566717.2215   5  10   0.7957   1.0922   1.0791  -0.6241   0.4996  -0.3576   0.00    0.0    1.61894    2.60957   -2.27854   0.07722  0.05953  0.07288  0.03849 -0.04764  0.03331    0.30301    0.80029  224.71430   0.10829  0.10796  0.49469 -0.01167 -0.06123  0.09886
2046 358168.000  -2408475.9346   4698203.9256   3566714.8321   5  10   0.7953   1.0898   1.0767  -0.6215   0.4975  -0.3560   0.00    0.0    1.38463    2.64591   -2.42625   0.07701  0.05945  0.07228  0.03863 -0.04735  0.03332    0.32101    0.59792  221.43432   0.09596  0.09518  0.49479 -0.01067 -0.05575  0.09983
2046 358169.000  -2408474.5847   4698206.6170   3566712.4019   5  10   0.7950   1.0874   1.0745  -0.6189   0.4955  -0.3546   0.00    0.0    1.30490    2.63219   -2.50453   0.07598  0.05899  0.07096  0.03816 -0.04658  0.03295    0.58066    0.41535  220.39333   0.08532  0.08433  0.49491 -0.00953 -0.05137  0.09870
2046 358170.000  -2408473.2978   4698209.2648   3566709.9414   5  10   0.7947   1.0852   1.0723  -0.6164   0.4936  -0.3532   0.00    0.0    1.32511    2.60018   -2.44537   0.07441  0.05832  0.06923  0.03737 -0.04550  0.03234    0.50083    0.51304  220.41162   0.07629  0.07530  0.49482 -0.00846 -0.04802  0.09566
2046 358171.000  -2408472.0273   4698211.9876   3566707.5611   5  11   0.7888   1.0756   1.0655  -0.6099   0.4815  -0.3446   0.00    0.0    1.42029    2.63495   -2.39878   0.07243  0.05734  0.06725  0.03623 -0.04425  0.03142    0.55760    0.14140  222.16798   0.06874  0.06787  0.49446 -0.00774 -0.04629  0.09160
2046 358172.000  -2408470.5949   4698214.6959   3566705.2384   5  11   0.7833   1.0665   1.0592  -0.6038   0.4701  -0.3364   0.00    0.0    1.53731    2.68201   -2.40866   0.07022  0.05612  0.06518  0.03486 -0.04283  0.03030    0.50501    0.41860  223.90693   0.06252  0.06184  0.49391 -0.00742 -0.04602  0.08736
2046 358173.000  -2408469.0535   4698217.3958   3566702.8514   5  11   0.7782   1.0580   1.0532  -0.5978   0.4592  -0.3285   0.00    0.0    1.49266    2.74809   -2.47289   0.06808  0.05475  0.06329  0.03349 -0.04135  0.02923    0.32683    0.53642  223.06998   0.05744  0.05690  0.49344 -0.00727 -0.04611  0.08374
2046 358174.000  -2408467.5575   4698220.1398   3566700.3442   5  10   0.7789   1.0568   1.0517  -0.5958   0.4583  -0.3279   0.00    0.0    1.44576    2.74850   -2.48923   0.06624  0.05359  0.06160  0.03238 -0.03998  0.02829    0.36626    0.51292  221.91954   0.05321  0.05280  0.49293 -0.00715 -0.04601  0.08038
2046 358175.000  -2408466.1483   4698223.1320   3566697.6101   5  10   0.7807   1.0591   1.0524  -0.5970   0.4637  -0.3318   0.00    0.0    1.37054    2.84846   -2.65139   0.06460  0.05271  0.06024  0.03104 -0.03848  0.02723    0.50327    0.30668  220.72896   0.04968  0.04937  0.49254 -0.00710 -0.04609  0.07762
2046 358176.000  -2408464.7466   4698225.8743   3566695.0099   5   9   0.7944   1.0694   1.0628  -0.5971   0.4636  -0.3318   0.00    0.0    1.39159    2.84256   -2.62915   0.06330  0.05188  0.05889  0.03033 -0.03743  0.02643    0.58009    0.52383  220.84962   0.04670  0.04648  0.49204 -0.00711 -0.04627  0.07486
2046 358177.000  -2408463.2631   4698228.5523   3566692.4048   5  10   0.7940   1.0678   1.0610  -0.5955   0.4628  -0.3312   0.00    0.0    1.38242    2.79419   -2.63225   0.06170  0.05086  0.05751  0.02933 -0.03631  0.02565    0.46496    0.58152  220.78614   0.04418  0.04405  0.49151 -0.00702 -0.04634  0.07228
2046 358178.000  -2408461.8895   4698231.2916   3566689.8660   5  10   0.7935   1.0662   1.0593  -0.5940   0.4621  -0.3307   0.00    0.0    1.35375    2.80035   -2.61834   0.06022  0.04992  0.05624  0.02839 -0.03529  0.02491    0.48326    0.71696  220.42291   0.04206  0.04199  0.49095 -0.00695 -0.04641  0.06988
2046 358179.000  -2408460.4563   4698234.1197   3566687.1933   5  10   0.7931   1.0647   1.0576  -0.5925   0.4613  -0.3301   0.00    0.0    1.41300    3.00878   -2.81861   0.05876  0.04895  0.05513  0.02725 -0.03444  0.02418    0.46323    0.80384  219.81044   0.04030  0.04027  0.49055 -0.00703 -0.04728  0.06804
2046 358180.000  -2408458.9688   4698237.2130   3566684.2748   5  10   0.7926   1.0633   1.0560  -0.5911   0.4606  -0.3296   0.00    0.0    1.52433    3.13266   -2.97910   0.05746  0.04812  0.05410  0.02630 -0.03366  0.02353    0.41741    0.83638  219.63139   0.03883  0.03884  0.49012 -0.00716 -0.04854  0.06644
2046 358181.000  -2408457.3868   4698240.4104   3566681.2418   5  10   0.7922   1.0619   1.0545  -0.5897   0.4599  -0.3291   0.00    0.0    1.58183    3.30127   -3.16051   0.05626  0.04728  0.05314  0.02538 -0.03288  0.02297    0.46567    0.91529  219.36402   0.03761  0.03765  0.48971 -0.00732 -0.05000  0.06517
2046 358182.000  -2408455.7552   4698243.8329   3566677.9388   5  10   0.7918   1.0605   1.0531  -0.5884   0.4592  -0.3286   0.00    0.0    1.69099    3.59592   -3.35270   0.05515  0.04652  0.05232  0.02445 -0.03223  0.02253    0.41298    0.89641  219.38311   0.03660  0.03667  0.48916 -0.00753 -0.05179  0.06416
2046 358183.000  -2408454.0589   4698247.4115   3566674.4783   5  10   0.7914   1.0592   1.0517  -0.5872   0.4585  -0.3281   0.00    0.0    1.70089    3.58994   -3.38006   0.05409  0.04585  0.05138  0.02388 -0.03147  0.02192    0.38247    0.70987  219.38350   0.03577  0.03587  0.48865 -0.00767 -0.05313  0.06315
2046 358184.000  -2408452.4346   4698250.8706   3566671.1983   5  10   0.7911   1.0580   1.0503  -0.5859   0.4578  -0.3277   0.00    0.0    1.68805    3.49506   -3.29004   0.05313  0.04524  0.05045  0.02349 -0.03072  0.02128    0.44195    0.60887  219.86974   0.03509  0.03521  0.48812 -0.00772 -0.05397  0.06201
2046 358185.000  -2408450.6962   4698254.3838   3566667.9404   5  10   0.7907   1.0568   1.0491  -0.5848   0.4571  -0.3272   0.00    0.0    1.73323    3.45589   -3.24810   0.05221  0.04466  0.04962  0.02305 -0.03005  0.02072    0.30292    0.73727  220.43031   0.03454  0.03468  0.48750 -0.00772 -0.05454  0.06082
2046 358186.000  -2408449.0194   4698257.8146   3566664.7532   5  10   0.7903   1.0556   1.0478  -0.5836   0.4565  -0.3267   0.00    0.0    1.74250    3.45407   -3.19468   0.05136  0.04408  0.04883  0.02263 -0.02940  0.02021    0.46419    0.89717  220.63497   0.03411  0.03427  0.48681 -0.00770 -0.05491  0.05964
2046 358187.000  -2408447.2967   4698260.9884   3566661.5599   5  10   0.7900   1.0545   1.0466  -0.5826   0.4558  -0.3263   0.00    0.0    1.66749    3.35930   -3.19366   0.05056  0.04346  0.04806  0.02217 -0.02868  0.01984    0.45554    0.75160  220.17674   0.03380  0.03395  0.48620 -0.00766 -0.05500  0.05862
2046 358188.000  -2408445.5967   4698264.3555   3566658.3317   5  10   0.7896   1.0534   1.0455  -0.5815   0.4552  -0.3258   0.00    0.0    1.62788    3.36814   -3.13262   0.04987  0.04294  0.04739  0.02181 -0.02811  0.01947    0.42014    0.76237  219.86096   0.03357  0.03371  0.48556 -0.00759 -0.05493  0.05767
2046 358189.000  -2408443.9640   4698267.6870   3566655.2031   5  10   0.7893   1.0523   1.0444  -0.5805   0.4546  -0.3254   0.00    0.0    1.60420    3.31495   -3.11986   0.04920  0.04245  0.04677  0.02145 -0.02756  0.01915    0.50842    0.36778  220.18552   0.03343  0.03355  0.48490 -0.00752 -0.05472  0.05682
2046 358190.000  -2408442.5906   4698271.0272   3566651.9724   5  11   0.7850   1.0491   1.0419  -0.5806   0.4528  -0.3241   0.00    0.0    1.64716    3.25094   -3.04737   0.04860  0.04230  0.04632  0.02092 -0.02685  0.01852    0.35956    0.68066  220.95558   0.03336  0.03345  0.48401 -0.00743 -0.05441  0.05593
2046 358191.000  -2408440.9932   4698274.5254   3566648.9974   5  10   0.7849   1.0483   1.0410  -0.5796   0.4522  -0.3237   0.00    0.0    1.69750    3.25942   -3.02697   0.04801  0.04189  0.04579  0.02065 -0.02646  0.01817    0.42842    0.79855  221.57641   0.03336  0.03343  0.48306 -0.00735 -0.05406  0.05511
2046 358192.000  -2408439.2587   4698277.6954   3566646.0510   5  10   0.7849   1.0475   1.0401  -0.5786   0.4517  -0.3233   0.00    0.0    1.70017    3.20964   -2.95290   0.04751  0.04147  0.04528  0.02044 -0.02605  0.01789    0.53041    1.10512  221.73957   0.03341  0.03345  0.48206 -0.00726 -0.05359  0.05438
2046 358193.000  -2408437.5062   4698280.7963   3566643.0710   5  10   0.7848   1.0467   1.0392  -0.5776   0.4512  -0.3229   0.00    0.0    1.60320    3.19039   -2.97113   0.04697  0.04098  0.04481  0.02004 -0.02559  0.01781    0.45836    0.96103  220.75392   0.03351  0.03351  0.48126 -0.00718 -0.05304  0.05389
2046 358194.000  -2408435.9339   4698283.9904   3566640.0956   5  10   0.7847   1.0459   1.0384  -0.5768   0.4507  -0.3226   0.00    0.0    1.65793    3.17928   -2.91727   0.04655  0.04069  0.04443  0.01990 -0.02536  0.01751    0.43025    1.00494  221.28232   0.03365  0.03361  0.48037 -0.00710 -0.05242  0.05344
2046 358195.000  -2408434.2544   4698287.1788   3566637.2605   5  10   0.7846   1.0452   1.0376  -0.5759   0.4502  -0.3222   0.00    0.0    1.64261    3.01655   -2.82173   0.04630  0.04037  0.04403  0.01988 -0.02502  0.01739    0.66083    1.25511  222.07488   0.03382  0.03374  0.47935 -0.00702 -0.05163  0.05308
2046 358196.000  -2408432.5674   4698290.3053   3566634.3790   5  10   0.7845   1.0444   1.0368  -0.5751   0.4497  -0.3219   0.00    0.0    1.73236    3.11355   -2.81834   0.04581  0.04010  0.04375  0.01964 -0.02491  0.01706    0.35109    0.92694  222.93070   0.03403  0.03389  0.47838 -0.00694 -0.05087  0.05279
2046 358197.000  -2408430.8544   4698293.4434   3566631.5127   5  11   0.7789   1.0371   1.0321  -0.5712   0.4401  -0.3149   0.00    0.0    1.74849    3.13330   -2.86881   0.04528  0.03972  0.04346  0.01926 -0.02475  0.01697    0.31536    0.88100  222.01973   0.03425  0.03407  0.47757 -0.00687 -0.05010  0.05262
2046 358198.000  -2408429.2501   4698296.6158   3566628.6404   5  10   0.7791   1.0367   1.0315  -0.5705   0.4398  -0.3148   0.00    0.0    1.60074    3.10916   -2.93248   0.04494  0.03934  0.04317  0.01896 -0.02443  0.01709    0.63657    0.81475  220.63054   0.03448  0.03426  0.47706 -0.00682 -0.04929  0.05267
2046 358199.000  -2408427.7530   4698299.7248   3566625.7252   5  10   0.7792   1.0363   1.0309  -0.5698   0.4396  -0.3146   0.00    0.0    1.57943    3.10265   -2.89284   0.04474  0.03914  0.04297  0.01891 -0.02432  0.01702    0.35275    0.92747  220.29214   0.03472  0.03444  0.47657 -0.00676 -0.04839  0.05278
2046 358200.000  -2408426.1738   4698302.6000   3566622.7859   5  10   0.7794   1.0358   1.0304  -0.5691   0.4394  -0.3144   0.00    0.0    1.57902    3.05185   -2.81663   0.04461  0.03898  0.04279  0.01894 -0.02424  0.01694    0.46474    1.53267  220.41098   0.03496  0.03463  0.47604 -0.00670 -0.04738  0.05293
2046 358201.000  -2408424.6474   4698305.6343   3566619.9344   5  10   0.7795   1.0354   1.0298  -0.5685   0.4392  -0.3143   0.00    0.0    1.54959    3.06155   -2.85803   0.04437  0.03876  0.04263  0.01878 -0.02416  0.01694    0.38737    1.76597  220.12237   0.03519  0.03482  0.47565 -0.00665 -0.04634  0.05314
2046 358202.000  -2408423.1592   4698308.7683   3566617.0595   5  10   0.7796   1.0350   1.0293  -0.5679   0.4390  -0.3141   0.00    0.0    1.57527    3.07209   -2.90212   0.04418  0.03860  0.04252  0.01870 -0.02414  0.01691    0.48338    1.63169  220.22853   0.03543  0.03501  0.47536 -0.00660 -0.04527  0.05337
2046 358203.000  -2408421.6041   4698311.8568   3566614.1226   5  10   0.7796   1.0346   1.0288  -0.5673   0.4388  -0.3140   0.00    0.0    1.59516    3.09560   -2.87494   0.04406  0.03848  0.04243  0.01870 -0.02416  0.01687    0.37385    1.57804  220.46122   0.03565  0.03520  0.47507 -0.00654 -0.04413  0.05360
2046 358204.000  -2408420.0359   4698315.0865   3566611.2115   5  10   0.7797   1.0342   1.0284  -0.5668   0.4386  -0.3138   0.00    0.0    1.70567    3.11013   -2.89355   0.04395  0.03839  0.04240  0.01870 -0.02425  0.01680    0.20971    1.68745  221.02767   0.03587  0.03538  0.47476 -0.00649 -0.04291  0.05376
2046 358205.000  -2408418.4419   4698318.2161   3566608.3367   5  10   0.7797   1.0338   1.0279  -0.5663   0.4384  -0.3136   0.00    0.0    1.65832    3.12006   -2.91391   0.04386  0.03824  0.04232  0.01866 -0.02421  0.01691    0.36969    1.63113  220.88940   0.03608  0.03556  0.47457 -0.00644 -0.04167  0.05397
2046 358206.000  -2408416.8788   4698321.3865   3566605.4235   5  10   0.7797   1.0335   1.0275  -0.5658   0.4382  -0.3135   0.00    0.0    1.58126    3.12082   -2.90788   0.04381  0.03812  0.04224  0.01866 -0.02418  0.01702    0.49915    1.43903  219.97234   0.03628  0.03572  0.47450 -0.00640 -0.04039  0.05423
2046 358207.000  -2408415.4207   4698324.4964   3566602.5253   5  10   0.7797   1.0331   1.0271  -0.5653   0.4381  -0.3134   0.00    0.0    1.53990    3.13200   -2.96207   0.04373  0.03800  0.04219  0.01863 -0.02418  0.01713    0.45358    1.40639  218.94512   0.03645  0.03586  0.47453 -0.00636 -0.03911  0.05448
2046 358208.000  -2408413.9177   4698327.5186   3566599.4577   5  10   0.7797   1.0327   1.0267  -0.5649   0.4379  -0.3132   0.00    0.0    1.50597    3.16526   -3.00970   0.04367  0.03789  0.04216  0.01863 -0.02420  0.01723    0.47739    1.30003  218.60363   0.03660  0.03599  0.47465 -0.00633 -0.03787  0.05470
2046 358209.000  -2408412.3960   4698330.5446   3566596.3419   5  10   0.7796   1.0324   1.0263  -0.5645   0.4377  -0.3130   0.00    0.0    1.62186    3.26273   -3.08020   0.04363  0.03783  0.04223  0.01862 -0.02434  0.01731    0.45911    1.21681  219.09695   0.03673  0.03611  0.47471 -0.00630 -0.03659  0.05473
2046 358210.000  -2408410.7997   4698333.9254   3566593.1519   5  11   0.7742   1.0257   1.0220  -0.5612   0.4286  -0.3065   0.00    0.0    1.70116    3.39807   -3.17891   0.04354  0.03770  0.04230  0.01853 -0.02448  0.01751    0.59545    1.29171  219.51468   0.03683  0.03621  0.47471 -0.00627 -0.03534  0.05457
2046 358211.000  -2408409.1163   4698337.3909   3566589.9586   5  11   0.7692   1.0194   1.0180  -0.5579   0.4199  -0.3003   0.00    0.0    1.81607    3.41036   -3.21703   0.04348  0.03761  0.04234  0.01853 -0.02463  0.01761    0.33789    1.31269  220.20254   0.03692  0.03630  0.47463 -0.00623 -0.03398  0.05428
2046 358212.000  -2408407.3769   4698340.7828   3566586.7185   5  11   0.7646   1.0134   1.0142  -0.5548   0.4115  -0.2943   0.00    0.0    1.80300    3.38723   -3.10773   0.04348  0.03756  0.04229  0.01866 -0.02475  0.01760    0.24061    1.10474  220.60272   0.03700  0.03637  0.47459 -0.00620 -0.03244  0.05406
2046 358213.000  -2408405.6539   4698344.1243   3566583.5905   5  10   0.7654   1.0137   1.0142  -0.5544   0.4120  -0.2946   0.00    0.0    1.83463    3.33642   -3.06023   0.04359  0.03757  0.04230  0.01885 -0.02485  0.01761    0.37310    1.15315  221.15683   0.03705  0.03643  0.47456 -0.00617 -0.03071  0.05386
2046 358214.000  -2408404.0016   4698347.4254   3566580.5003   5  10   0.7661   1.0140   1.0142  -0.5540   0.4125  -0.2950   0.00    0.0    1.74471    3.14147   -2.93345   0.04371  0.03758  0.04217  0.01911 -0.02485  0.01757    0.38282    1.15807  220.65277   0.03710  0.03647  0.47463 -0.00614 -0.02872  0.05392
2046 358215.000  -2408402.4393   4698350.5259   3566577.5397   5  10   0.7668   1.0142   1.0142  -0.5537   0.4130  -0.2953   0.00    0.0    1.62167    3.04101   -2.85204   0.04382  0.03756  0.04211  0.01927 -0.02485  0.01766    0.47278    0.88481  220.31947   0.03713  0.03649  0.47481 -0.00613 -0.02662  0.05416
2046 358216.000  -2408401.0364   4698353.6702   3566574.6957   5  10   0.7675   1.0145   1.0142  -0.5533   0.4134  -0.2956   0.00    0.0    1.53779    2.99715   -2.81771   0.04389  0.03753  0.04210  0.01936 -0.02489  0.01776    0.35542    0.79279  219.86513   0.03715  0.03649  0.47504 -0.00612 -0.02442  0.05447
2046 358217.000  -2408399.5717   4698356.7394   3566571.8271   5  10   0.7681   1.0147   1.0142  -0.5530   0.4139  -0.2959   0.00    0.0    1.61917    3.02211   -2.77057   0.04395  0.03754  0.04216  0.01946 -0.02504  0.01778    0.61360    0.63938  220.94768   0.03714  0.03647  0.47523 -0.00609 -0.02183  0.05467
2046 358218.000  -2408397.9751   4698359.6868   3566569.0267   5  10   0.7687   1.0150   1.0142  -0.5528   0.4143  -0.2962   0.00    0.0    1.60808    3.00118   -2.76704   0.04400  0.03751  0.04219  0.01952 -0.02511  0.01787    0.37759    0.74934  220.80546   0.03712  0.03644  0.47547 -0.00608 -0.01907  0.05486
2046 358219.000  -2408396.5208   4698362.6999   3566566.2410   5  10   0.7693   1.0152   1.0142  -0.5525   0.4147  -0.2965   0.00    0.0    1.58494    3.03558   -2.77525   0.04403  0.03747  0.04223  0.01957 -0.02518  0.01796    0.66224    0.63725  220.50180   0.03708  0.03640  0.47574 -0.00606 -0.01607  0.05497
2046 358220.000  -2408394.9795   4698365.8516   3566563.2364   5  10   0.7698   1.0154   1.0142  -0.5523   0.4151  -0.2968   0.00    0.0    1.72910    3.21755   -2.93792   0.04407  0.03740  0.04240  0.01954 -0.02530  0.01816    0.55792    0.74910  220.81763   0.03701  0.03634  0.47592 -0.00605 -0.01284  0.05466
2046 358221.000  -2408393.2955   4698369.2785   3566560.1277   5  10   0.7702   1.0156   1.0142  -0.5521   0.4155  -0.2971   0.00    0.0    1.76440    3.34837   -3.14792   0.04417  0.03732  0.04249  0.01958 -0.02530  0.01843    0.63134    0.84759  220.38462   0.03691  0.03626  0.47601 -0.00607 -0.00980  0.05408
2046 358222.000  -2408391.6171   4698372.6478   3566556.9067   5  10   0.7707   1.0158   1.0142  -0.5519   0.4159  -0.2973   0.00    0.0    1.79304    3.38456   -3.11641   0.04419  0.03729  0.04252  0.01962 -0.02539  0.01846    0.40222    0.85444  220.29872   0.03680  0.03618  0.47609 -0.00608 -0.00507  0.05344
2046 358223.000  -2408389.9636   4698376.0185   3566553.7494   5  10   0.7711   1.0160   1.0142  -0.5517   0.4162  -0.2976   0.00    0.0    1.73849    3.31341   -3.07666   0.04417  0.03726  0.04243  0.01970 -0.02541  0.01840    0.49379    0.65566  220.24037   0.03668  0.03608  0.47629 -0.00609  0.00646  0.05295
2046 358224.000  -2408388.3143   4698379.3398   3566550.7250   5  10   0.7715   1.0162   1.0142  -0.5516   0.4166  -0.2979   0.00    0.0    1.69249    3.20994   -2.97113   0.04413  0.03725  0.04235  0.01976 -0.02545  0.01831    0.44964    0.95134  220.61930   0.03656  0.03597  0.47660 -0.00610  0.01066  0.05266
2046 358225.000  -2408386.6950   4698382.5566   3566547.7337   5  10   0.7718   1.0163   1.0142  -0.5514   0.4169  -0.2981   0.00    0.0    1.71496    3.13971   -2.87229   0.04413  0.03723  0.04233  0.01979 -0.02553  0.01828    0.62513    0.83474  221.27541   0.03644  0.03585  0.47692 -0.00609  0.01399  0.05246
2046 358226.000  -2408385.0862   4698385.7611   3566544.8646   5  10   0.7721   1.0165   1.0142  -0.5513   0.4172  -0.2983   0.00    0.0    1.73558    3.10309   -2.79155   0.04414  0.03722  0.04232  0.01983 -0.02561  0.01829    0.58811    0.95715  221.83679   0.03631  0.03573  0.47725 -0.00607  0.01683  0.05230
2046 358227.000  -2408383.3893   4698388.8850   3566542.0445   5  10   0.7725   1.0166   1.0142  -0.5512   0.4175  -0.2986   0.00    0.0    1.72137    3.08175   -2.79199   0.04415  0.03718  0.04231  0.01986 -0.02564  0.01834    0.48274    1.22084  221.44027   0.03617  0.03560  0.47762 -0.00605  0.01904  0.05215
2046 358228.000  -2408381.8633   4698391.8856   3566539.2492   5  10   0.7727   1.0168   1.0142  -0.5511   0.4178  -0.2988   0.00    0.0    1.72921    2.97783   -2.77428   0.04412  0.03714  0.04226  0.01987 -0.02567  0.01835    0.48622    1.09632  221.34223   0.03603  0.03547  0.47800 -0.00603  0.02102  0.05204
2046 358229.000  -2408380.2111   4698394.8272   3566536.4447   5  10   0.7730   1.0169   1.0142  -0.5510   0.4181  -0.2990   0.00    0.0    1.68935    3.07725   -2.77053   0.04412  0.03710  0.04227  0.01989 -0.02570  0.01844    0.44816    1.67970  221.38112   0.03587  0.03532  0.47839 -0.00602  0.02253  0.05180
2046 358230.000  -2408378.7202   4698397.8490   3566533.5914   5  10   0.7733   1.0170   1.0142  -0.5509   0.4184  -0.2992   0.00    0.0    1.61230    2.99401   -2.70953   0.04407  0.03707  0.04219  0.01990 -0.02571  0.01843    0.26522    1.27823  220.35096   0.03571  0.03517  0.47882 -0.00600  0.02387  0.05173
2046 358231.000  -2408377.3355   4698400.8402   3566530.7558   5  10   0.7735   1.0171   1.0142  -0.5508   0.4187  -0.2994   0.00    0.0    1.55845    3.01334   -2.71240   0.04402  0.03699  0.04214  0.01989 -0.02570  0.01844    0.53788   -0.15625  219.50461   0.03555  0.03501  0.47927 -0.00598  0.02489  0.05166
2046 358232.000  -2408375.9118   4698403.9214   3566527.9533   5  11   0.7684   1.0112   1.0105  -0.5481   0.4104  -0.2934   0.00    0.0    1.63111    3.01741   -2.79353   0.04387  0.03682  0.04210  0.01977 -0.02570  0.01846    0.48567    0.12728  220.87753   0.03538  0.03486  0.47967 -0.00598  0.02573  0.05145
2046 358233.000  -2408374.4775   4698406.9967   3566525.1246   5  11   0.7638   1.0056   1.0070  -0.5455   0.4023  -0.2877   0.00    0.0    1.72478    3.06798   -2.71461   0.04378  0.03672  0.04211  0.01966 -0.02580  0.01849    0.41092   -0.03317  222.09374   0.03521  0.03470  0.48002 -0.00596  0.02677  0.05109
2046 358234.000  -2408372.9403   4698410.1237   3566522.3503   5  10   0.7645   1.0060   1.0072  -0.5453   0.4030  -0.2882   0.00    0.0    1.59634    3.00758   -2.70975   0.04377  0.03668  0.04203  0.01973 -0.02577  0.01846    0.14374    0.19687  221.33074   0.03505  0.03455  0.48044 -0.00594  0.02747  0.05091
2046 358235.000  -2408371.5511   4698413.1200   3566519.7429   5   9   0.7783   1.0167   1.0179  -0.5456   0.4027  -0.2880   0.00    0.0    1.40061    2.81423   -2.58672   0.04400  0.03682  0.04201  0.02001 -0.02582  0.01844    0.53322   -0.15783  220.05080   0.03489  0.03440  0.48094 -0.00589  0.02808  0.05114
2046 358236.000  -2408370.2838   4698416.1415   3566517.0835   5  10   0.7781   1.0167   1.0177  -0.5458   0.4036  -0.2886   0.00    0.0    1.50115    2.66627   -2.66470   0.04384  0.03669  0.04189  0.01988 -0.02576  0.01837    0.40631    0.54044  219.88012   0.03474  0.03424  0.48144 -0.00586  0.02874  0.05130
2046 358237.000  -2408368.8844   4698418.8576   3566514.3611   5  10   0.7779   1.0167   1.0175  -0.5460   0.4044  -0.2892   0.00    0.0    1.47151    2.91385   -2.59739   0.04381  0.03661  0.04189  0.01985 -0.02576  0.01840    0.25023    0.69470  219.71464   0.03457  0.03407  0.48190 -0.00584  0.02926  0.05121
2046 358238.000  -2408367.4995   4698421.6847   3566511.5879   5  10   0.7777   1.0168   1.0173  -0.5462   0.4052  -0.2898   0.00    0.0    1.42824    2.92119   -2.70258   0.04371  0.03651  0.04180  0.01984 -0.02568  0.01838    0.39392    0.76087  218.84576   0.03441  0.03391  0.48232 -0.00584  0.02947  0.05104
2046 358239.000  -2408366.1706   4698424.5352   3566508.8041   5   9   0.7914   1.0274   1.0280  -0.5463   0.4049  -0.2896   0.00    0.0    1.42435    2.92757   -2.77659   0.04394  0.03657  0.04182  0.02008 -0.02566  0.01841    0.41119    0.79361  218.64386   0.03424  0.03376  0.48268 -0.00583  0.02949  0.05079
2046 358240.000  -2408364.7806   4698427.4607   3566505.9747   5   9   0.8049   1.0379   1.0385  -0.5464   0.4047  -0.2894   0.00    0.0    1.47773    2.96044   -2.85606   0.04415  0.03660  0.04184  0.02027 -0.02564  0.01847    0.49758    1.11671  218.95817   0.03408  0.03362  0.48297 -0.00583  0.02940  0.05037
2046 358241.000  -2408363.3986   4698430.3041   3566503.1778   5  10   0.8028   1.0370   1.0375  -0.5474   0.4059  -0.2903   0.00    0.0    1.43565    2.88809   -2.69196   0.04384  0.03649  0.04169  0.02003 -0.02561  0.01836    0.34817    0.92768  219.54298   0.03393  0.03346  0.48337 -0.00583  0.02956  0.05013
2046 358242.000  -2408362.0233   4698433.0894   3566500.5253   5  10   0.8008   1.0361   1.0365  -0.5483   0.4070  -0.2911   0.00    0.0    1.37584    2.67231   -2.44224   0.04357  0.03641  0.04152  0.01980 -0.02561  0.01825    0.08860    0.86777  220.42972   0.03379  0.03332  0.48389 -0.00579  0.03012  0.05027
2046 358243.000  -2408360.7819   4698435.6725   3566498.1516   5  10   0.7990   1.0353   1.0355  -0.5491   0.4081  -0.2919   0.00    0.0    1.28092    2.42925   -2.28110   0.04340  0.03634  0.04139  0.01963 -0.02559  0.01826    0.09331    0.98438  220.30818   0.03367  0.03319  0.48441 -0.00573  0.03084  0.05073
2046 358244.000  -2408359.5561   4698437.8817   3566495.9360   5  10   0.7973   1.0345   1.0345  -0.5498   0.4092  -0.2927   0.00    0.0    1.15682    2.26204   -2.06446   0.04332  0.03629  0.04131  0.01951 -0.02559  0.01835    0.02325    0.85298  220.17025   0.03357  0.03306  0.48486 -0.00563  0.03170  0.05145
2046 358245.000  -2408358.5465   4698440.0386   3566493.8861   5  10   0.7957   1.0338   1.0336  -0.5504   0.4101  -0.2934   0.00    0.0    1.01072    2.04364   -1.88184   0.04326  0.03624  0.04124  0.01938 -0.02557  0.01851    0.33011    0.94027  218.94403   0.03347  0.03294  0.48516 -0.00550  0.03266  0.05244
2046 358246.000  -2408357.7643   4698442.0040   3566492.1542   5  10   0.7943   1.0331   1.0328  -0.5509   0.4111  -0.2941   0.00    0.0    0.92634    1.87257   -1.74611   0.04317  0.03617  0.04115  0.01928 -0.02553  0.01858    0.45709    0.57864  219.10114   0.03338  0.03282  0.48538 -0.00535  0.03368  0.05352
2046 358247.000  -2408356.7923   4698444.0631   3566490.2026   5  10   0.7929   1.0325   1.0319  -0.5514   0.4119  -0.2947   0.00    0.0    1.10982    2.23326   -2.08578   0.04286  0.03599  0.04103  0.01929 -0.02544  0.01814    0.43527    0.57250  219.43208   0.03327  0.03270  0.48592 -0.00526  0.03414  0.05386
2046 358248.000  -2408355.6153   4698446.5113   3566487.8716   5  10   0.7917   1.0318   1.0311  -0.5518   0.4127  -0.2953   0.00    0.0    1.33001    2.53370   -2.27945   0.04290  0.03584  0.04107  0.01927 -0.02539  0.01823    0.39931    0.64092  220.72381   0.03315  0.03258  0.48630 -0.00522  0.03435  0.05358
2046 358249.000  -2408354.2667   4698449.1293   3566485.5222   5  10   0.7905   1.0312   1.0304  -0.5522   0.4135  -0.2959   0.00    0.0    1.50702    2.64217   -2.32121   0.04295  0.03575  0.04114  0.01918 -0.02541  0.01840    0.40287    0.77500  222.78227   0.03301  0.03247  0.48652 -0.00520  0.03457  0.05299
2046 358250.000  -2408352.7532   4698451.7427   3566483.0792   5  10   0.7894   1.0307   1.0296  -0.5525   0.4142  -0.2964   0.00    0.0    1.55015    2.71495   -2.36028   0.04300  0.03570  0.04118  0.01919 -0.02543  0.01853    0.21086    0.78611  223.28662   0.03288  0.03237  0.48661 -0.00519  0.03466  0.05224
2046 358251.000  -2408351.3185   4698454.4477   3566480.6695   5  10   0.7884   1.0301   1.0289  -0.5528   0.4149  -0.2969   0.00    0.0    1.47393    2.68020   -2.41988   0.04299  0.03566  0.04109  0.01929 -0.02538  0.01849    0.27426    0.82536  222.03241   0.03275  0.03226  0.48673 -0.00519  0.03455  0.05155
2046 358252.000  -2408349.9718   4698457.1806   3566478.2025   5  10   0.7875   1.0296   1.0282  -0.5531   0.4156  -0.2974   0.00    0.0    1.42068    2.68225   -2.50891   0.04299  0.03561  0.04102  0.01937 -0.02532  0.01849    0.32069    0.94694  220.41267   0.03261  0.03215  0.48679 -0.00520  0.03423  0.05085
2046 358253.000  -2408348.5424   4698459.8987   3566475.5792   5   9   0.8009   1.0400   1.0388  -0.5533   0.4153  -0.2972   0.00    0.0    1.46710    2.72535   -2.51960   0.04328  0.03571  0.04110  0.01960 -0.02536  0.01858    0.28791    0.94263  220.67220   0.03248  0.03204  0.48681 -0.00519  0.03392  0.05006
2046 358254.000  -2408347.1930   4698462.6428   3566473.0117   5   9   0.8143   1.0504   1.0492  -0.5534   0.4151  -0.2970   0.00    0.0    1.44215    2.74375   -2.50313   0.04348  0.03580  0.04113  0.01983 -0.02539  0.01858    0.34082    0.87978  220.46432   0.03235  0.03194  0.48685 -0.00519  0.03357  0.04930
2046 358255.000  -2408346.0001   4698465.5977   3566470.4225   5   9   0.8275   1.0608   1.0596  -0.5535   0.4149  -0.2969   0.00    0.0    1.45076    2.78607   -2.54846   0.04369  0.03586  0.04116  0.02001 -0.02539  0.01863    0.13895    0.64180  219.97987   0.03222  0.03184  0.48684 -0.00520  0.03316  0.04848
2046 358256.000  -2408344.5677   4698468.5029   3566467.6050   5   9   0.8406   1.0711   1.0699  -0.5536   0.4147  -0.2968   0.00    0.0    1.52742    2.99532   -2.70698   0.04409  0.03588  0.04128  0.02023 -0.02534  0.01893    0.27219    0.91765  219.62021   0.03208  0.03173  0.48648 -0.00524  0.03245  0.04733
2046 358257.000  -2408343.1785   4698471.5501   3566464.7936   5  10   0.8357   1.0686   1.0675  -0.5555   0.4162  -0.2979   0.00    0.0    1.53105    2.97942   -2.81163   0.04380  0.03571  0.04113  0.02005 -0.02522  0.01884    0.33470    0.61530  219.93346   0.03195  0.03162  0.48610 -0.00531  0.03161  0.04618
2046 358258.000  -2408341.6533   4698474.5015   3566461.9354   5  10   0.8311   1.0664   1.0652  -0.5572   0.4176  -0.2989   0.00    0.0    1.56022    3.05849   -2.81035   0.04358  0.03556  0.04105  0.01983 -0.02517  0.01884    0.32856    0.52357  220.33089   0.03183  0.03151  0.48571 -0.00536  0.03076  0.04498
2046 358259.000  -2408340.2320   4698477.5218   3566459.1679   5  10   0.8270   1.0642   1.0630  -0.5586   0.4189  -0.2999   0.00    0.0    1.60611    3.03894   -2.78778   0.04329  0.03543  0.04095  0.01959 -0.02515  0.01875    0.27374    0.54807  220.74728   0.03172  0.03141  0.48542 -0.00539  0.03004  0.04381
2046 358260.000  -2408338.6990   4698480.4922   3566456.3411   5  10   0.8232   1.0622   1.0609  -0.5598   0.4202  -0.3007   0.00    0.0    1.57408    3.01152   -2.70146   0.04299  0.03535  0.04082  0.01943 -0.02514  0.01855    0.38238    0.57382  220.85460   0.03161  0.03133  0.48533 -0.00541  0.02944  0.04280
2046 358261.000  -2408337.2254   4698483.4330   3566453.5723   5  10   0.8198   1.0603   1.0589  -0.5608   0.4213  -0.3016   0.00    0.0    1.57365    2.98319   -2.70161   0.04279  0.03526  0.04071  0.01932 -0.02510  0.01845    0.25467    0.65197  220.91160   0.03151  0.03124  0.48533 -0.00541  0.02888  0.04186
2046 358262.000  -2408335.7107   4698486.5219   3566450.9027   5  10   0.8165   1.0585   1.0569  -0.5617   0.4223  -0.3023   0.00    0.0    1.63995    2.91940   -2.69474   0.04260  0.03517  0.04063  0.01918 -0.02509  0.01837    0.23428    0.67752  222.01280   0.03141  0.03116  0.48541 -0.00541  0.02845  0.04096
2046 358263.000  -2408334.1340   4698489.4636   3566448.2182   5  10   0.8136   1.0567   1.0551  -0.5624   0.4232  -0.3030   0.00    0.0    1.62711    2.94684   -2.66515   0.04250  0.03512  0.04058  0.01914 -0.02509  0.01832    0.56009    0.82439  222.15980   0.03132  0.03109  0.48555 -0.00540  0.02804  0.04009
2046 358264.000  -2408332.6054   4698492.4207   3566445.4655   5  10   0.8108   1.0551   1.0533  -0.5630   0.4241  -0.3036   0.00    0.0    1.56454    2.93341   -2.67490   0.04239  0.03508  0.04049  0.01916 -0.02506  0.01823    0.45073    0.47365  221.24110   0.03124  0.03101  0.48575 -0.00539  0.02757  0.03936
2046 358265.000  -2408331.1513   4698495.3327   3566442.7220   5  10   0.8083   1.0535   1.0516  -0.5635   0.4249  -0.3042   0.00    0.0    1.52626    2.94977   -2.69671   0.04232  0.03503  0.04041  0.01916 -0.02503  0.01818    0.36927    0.41665  220.69620   0.03115  0.03094  0.48596 -0.00538  0.02700  0.03868
2046 358266.000  -2408329.6997   4698498.3447   3566439.8929   5  10   0.8060   1.0520   1.0499  -0.5639   0.4256  -0.3047   0.00    0.0    1.60670    3.07549   -2.83021   0.04239  0.03494  0.04042  0.01917 -0.02498  0.01833    0.47372    0.66667  220.36697   0.03107  0.03087  0.48599 -0.00537  0.02624  0.03773
2046 358267.000  -2408328.2093   4698501.3375   3566437.0441   5  10   0.8038   1.0506   1.0483  -0.5642   0.4263  -0.3052   0.00    0.0    1.48991    2.91230   -2.71453   0.04211  0.03493  0.04026  0.01911 -0.02499  0.01805    0.17062    0.89112  219.81207   0.03099  0.03080  0.48631 -0.00535  0.02567  0.03720
2046 358268.000  -2408326.8811   4698504.1057   3566434.3560   5  10   0.8018   1.0492   1.0468  -0.5644   0.4269  -0.3056   0.00    0.0    1.34347    2.71952   -2.52073   0.04187  0.03493  0.04013  0.01902 -0.02501  0.01788    0.22899    1.01442  219.27779   0.03092  0.03073  0.48683 -0.00532  0.02543  0.03714
2046 358269.000  -2408325.6966   4698506.7185   3566431.8461   5  10   0.8000   1.0479   1.0454  -0.5645   0.4275  -0.3060   0.00    0.0    1.18150    2.48647   -2.32890   0.04174  0.03493  0.04004  0.01893 -0.02503  0.01788    0.29132    0.89278  218.60150   0.03086  0.03067  0.48740 -0.00527  0.02550  0.03760
2046 358270.000  -2408324.6338   4698509.0483   3566429.5775   5  10   0.7982   1.0466   1.0440  -0.5646   0.4280  -0.3064   0.00    0.0    1.08490    2.47492   -2.37450   0.04167  0.03491  0.03999  0.01895 -0.02502  0.01784    0.40472    0.73079  217.76868   0.03080  0.03061  0.48794 -0.00522  0.02538  0.03809
2046 358271.000  -2408323.5496   4698511.6827   3566427.1481   5  10   0.7966   1.0454   1.0426  -0.5646   0.4285  -0.3067   0.00    0.0    1.20983    2.61050   -2.51893   0.04166  0.03480  0.03991  0.01899 -0.02492  0.01779    0.23475    0.88788  217.82475   0.03074  0.03055  0.48847 -0.00519  0.02506  0.03819
2046 358272.000  -2408322.4173   4698514.2679   3566424.6807   5  10   0.7951   1.0443   1.0413  -0.5646   0.4289  -0.3070   0.00    0.0    1.16818    2.52307   -2.38309   0.04157  0.03477  0.03984  0.01891 -0.02492  0.01779    0.05654    0.93174  217.96239   0.03069  0.03049  0.48906 -0.00515  0.02500  0.03844
2046 358273.000  -2408321.3957   4698516.9138   3566422.2686   5   9   0.7965   1.0471   1.0426  -0.5668   0.4346  -0.3112   0.00    0.0    1.03672    2.43415   -2.35163   0.04155  0.03485  0.03984  0.01886 -0.02485  0.01774    0.10034    0.65064  217.11640   0.03064  0.03044  0.48962 -0.00510  0.02493  0.03892
2046 358274.000  -2408320.3406   4698519.5531   3566419.7791   5   9   0.8108   1.0604   1.0548  -0.5700   0.4401  -0.3151   0.00    0.0    1.05939    2.38473   -2.30074   0.04181  0.03504  0.03991  0.01898 -0.02477  0.01771    0.42782    0.77250  217.47706   0.03060  0.03040  0.49020 -0.00503  0.02508  0.03940
2046 358275.000  -2408319.3033   4698521.7041   3566417.6331   5   9   0.8239   1.0706   1.0651  -0.5702   0.4400  -0.3150   0.00    0.0    0.96223    2.16820   -2.03234   0.04209  0.03517  0.03997  0.01913 -0.02483  0.01791    0.38508    0.64363  218.22550   0.03057  0.03037  0.49071 -0.00495  0.02572  0.04019
2046 358276.000  -2408318.2747   4698523.8137   3566415.4402   5   9   0.8227   1.0702   1.0642  -0.5708   0.4417  -0.3162   0.00    0.0    1.12594    2.28763   -2.12330   0.04194  0.03505  0.03985  0.01908 -0.02476  0.01773    0.44098    0.97530  218.81224   0.03053  0.03032  0.49133 -0.00490  0.02622  0.04057
2046 358277.000  -2408317.2223   4698526.0870   3566413.3174   5   9   0.8217   1.0697   1.0633  -0.5713   0.4433  -0.3174   0.00    0.0    1.17949    2.41400   -2.26513   0.04185  0.03496  0.03982  0.01905 -0.02472  0.01768    0.46146    0.75168  219.70811   0.03050  0.03028  0.49195 -0.00487  0.02638  0.04068
2046 358278.000  -2408316.0425   4698528.5623   3566410.9552   5   9   0.8207   1.0694   1.0625  -0.5718   0.4448  -0.3185   0.00    0.0    1.39475    2.68504   -2.45569   0.04193  0.03485  0.03989  0.01900 -0.02470  0.01786    0.04100    1.29592  220.71204   0.03045  0.03024  0.49237 -0.00486  0.02620  0.04018
2046 358279.000  -2408314.6839   4698531.2807   3566408.4734   5   9   0.8197   1.0690   1.0617  -0.5722   0.4463  -0.3196   0.00    0.0    1.51464    2.76631   -2.46188   0.04192  0.03479  0.03993  0.01890 -0.02474  0.01796    0.05846    0.86122  222.32415   0.03041  0.03021  0.49270 -0.00485  0.02605  0.03947
2046 358280.000  -2408313.1423   4698533.9925   3566405.9766   5   9   0.8189   1.0686   1.0609  -0.5726   0.4477  -0.3206   0.00    0.0    1.69054    2.86296   -2.46972   0.04195  0.03476  0.04004  0.01879 -0.02483  0.01812    0.00160    0.70207  224.21387   0.03036  0.03018  0.49287 -0.00485  0.02595  0.03848
2046 358281.000  -2408311.4928   4698536.8684   3566403.5046   5   9   0.8181   1.0683   1.0602  -0.5730   0.4490  -0.3215   0.00    0.0    1.69056    2.86816   -2.50879   0.04195  0.03472  0.04001  0.01882 -0.02482  0.01812    0.14294    0.60108  224.33060   0.03032  0.03015  0.49306 -0.00484  0.02576  0.03750
2046 358282.000  -2408309.8805   4698539.7372   3566400.9442   5   8   0.8311   1.0784   1.0705  -0.5732   0.4489  -0.3214   0.00    0.0    1.61059    2.94136   -2.56209   0.04228  0.03484  0.04009  0.01916 -0.02484  0.01818    0.50153    0.31823  222.93633   0.03027  0.03013  0.49326 -0.00483  0.02535  0.03659
2046 358283.000  -2408308.3560   4698542.6625   3566398.3447   5   9   0.8440   1.0885   1.0806  -0.5733   0.4487  -0.3213   0.00    0.0    1.58284    3.01402   -2.70141   0.04261  0.03493  0.04016  0.01948 -0.02483  0.01828    0.84640    0.43269  221.40962   0.03023  0.03010  0.49335 -0.00482  0.02461  0.03563
2046 358284.000  -2408306.8388   4698545.8734   3566395.5470   5   9   0.8568   1.0985   1.0908  -0.5734   0.4486  -0.3212   0.00    0.0    1.60581    3.17515   -2.85028   0.04296  0.03499  0.04027  0.01974 -0.02481  0.01847    0.77801    0.62379  220.81425   0.03017  0.03006  0.49322 -0.00482  0.02355  0.03446
2046 358285.000  -2408305.2787   4698549.0581   3566392.5894   5   9   0.8695   1.1085   1.1008  -0.5735   0.4485  -0.3212   0.00    0.0    1.62638    3.21347   -2.91865   0.04311  0.03505  0.04030  0.01990 -0.02482  0.01847    0.56856    0.78543  220.47627   0.03012  0.03002  0.49308 -0.00483  0.02238  0.03324
