% program   : GINav v0.1.0
% obs start : 2019/03/28 03:28:10.0
% obs end   : 2019/03/28 03:59:01.0
% mode      : PPD/INS LC
% system    : GPS 
% nfreqs    : 1
% elev mask : 15.0 deg
% ephemeris : broadcast
% ionos opt : broadcast model
% trops opt : Saastamoinen model
%
%  GPST              x-ecef(m)      y-ecef(m)      z-ecef(m)   Q  ns   sdx(m)   sdy(m)   sdz(m)  sdxy(m)  sdyz(m)  sdzx(m) age(s)  ratio    vx(m/s)    vy(m/s)    vz(m/s)      sdvx     sdvy     sdvz    sdvxy    sdvyz    sdvzx pitch(deg)  roll(deg)   yaw(deg)       sdp      sdr      sdy     sdpr     sdry     sdyp
2046 358097.000  -2408691.0211   4698108.4418   3566698.3462   3   0  25.9956  29.0088  29.8845 -10.7365   1.3054  -0.9347   0.00    0.0    1.46918    0.91718   -0.16143  10.00000 10.00000 10.00000 -0.00000 -0.00000 -0.00000    0.00000    0.00000  262.88144   0.30000  0.30000  0.50000  0.00000  0.00000  0.00000
2046 358098.000  -2408689.3864   4698109.5573   3566698.0292   4   8   0.7679   1.1711   1.0239  -0.7374   0.8208  -0.5877   0.00    0.0    1.60247    0.99037   -0.27308   9.32080  9.44346  9.48527 -1.26508  0.17915 -0.12841   -0.19198    0.03523  259.45053   0.30002  0.30002  0.50001  0.00000 -0.00017 -0.00310
2046 358099.000  -2408687.7265   4698110.7449   3566697.6200   4   8   0.7630   1.1602   1.0160  -0.7289   0.8101  -0.5800   0.00    0.0    1.66370    1.13799   -0.37740   1.06978  1.61908  1.42271 -1.01338  1.12492 -0.80540   -0.69357   -2.07704  259.21318   0.30004  0.30004  0.50003 -0.00002  0.00028 -0.00440
2046 358100.000  -2408685.8616   4698111.9294   3566697.2635   4   8   0.6999   1.0664   0.9328  -0.6710   0.7466  -0.5346   0.00    0.0    1.95449    1.27897   -0.36899   0.54495  0.82507  0.72394 -0.51656  0.57484 -0.41157    0.36509    1.73158  259.98360   0.29995  0.29986  0.50005 -0.00010  0.00260 -0.00566
2046 358101.000  -2408683.8009   4698113.2611   3566696.9379   4   8   0.6430   0.9796   0.8568  -0.6162   0.6858  -0.4910   0.00    0.0    2.11521    1.23298   -0.16289   0.35770  0.53008  0.46752 -0.32628  0.36264 -0.25971    0.49496    1.16911  262.83204   0.29937  0.29884  0.50007 -0.00024  0.00533 -0.00782
2046 358102.000  -2408681.6417   4698114.5415   3566696.7615   4   8   0.5985   0.9090   0.7956  -0.5706   0.6349  -0.4546   0.00    0.0    2.23726    1.11918    0.04507   0.27702  0.38859  0.34788 -0.22742  0.25105 -0.17992    0.44860    0.81146  268.00519   0.29762  0.29590  0.50010 -0.00049  0.01092 -0.01052
2046 358103.000  -2408679.3373   4698115.7411   3566696.7866   4   8   0.5661   0.8533   0.7484  -0.5326   0.5920  -0.4239   0.00    0.0    2.38610    1.01301    0.24362   0.24382  0.31545  0.28991 -0.16718  0.18035 -0.12957    0.38140    0.87801  272.72658   0.29377  0.28970  0.50011 -0.00090  0.01915 -0.01357
2046 358104.000  -2408676.8470   4698116.9040   3566696.9903   4   8   0.5444   0.8105   0.7136  -0.5008   0.5551  -0.3976   0.00    0.0    2.57610    0.98365    0.44654   0.23117  0.27796  0.26359 -0.12896  0.13015 -0.09454    0.04378    1.24792  276.82541   0.28699  0.27962  0.50011 -0.00147  0.02856 -0.01705
2046 358105.000  -2408674.2447   4698118.1489   3566697.3128   4   9   0.5206   0.7562   0.6677  -0.4575   0.5095  -0.3651   0.00    0.0    2.68500    0.95509    0.55151   0.22192  0.25485  0.24745 -0.10398  0.09418 -0.07016   -0.14463    1.25697  279.68954   0.27645  0.26645  0.50010 -0.00125  0.03741 -0.02082
2046 358106.000  -2408671.3807   4698119.2558   3566697.7754   4   8   0.5167   0.7434   0.6621  -0.4458   0.4893  -0.3509   0.00    0.0    2.89216    0.93026    0.59141   0.21464  0.24707  0.24382 -0.10051  0.07788 -0.06063    0.04630    1.42575  282.14210   0.26521  0.25296  0.50009 -0.00290  0.04435 -0.02388
2046 358107.000  -2408668.3930   4698120.3884   3566698.3018   4   8   0.5127   0.7338   0.6579  -0.4376   0.4744  -0.3406   0.00    0.0    2.95673    0.91215    0.70009   0.20458  0.24124  0.23823 -0.10413  0.08028 -0.06284    0.01771    1.25339  283.65395   0.25300  0.24081  0.50011 -0.00295  0.04909 -0.02653
2046 358108.000  -2408665.3748   4698121.5162   3566698.8674   4   8   0.5083   0.7273   0.6543  -0.4333   0.4663  -0.3350   0.00    0.0    2.96478    0.96096    0.69165   0.19315  0.23568  0.23072 -0.10992  0.09248 -0.07087    0.18182    1.44838  283.90785   0.24182  0.23114  0.50014 -0.00253  0.05171 -0.02812
2046 358109.000  -2408662.3651   4698122.6764   3566699.4281   4   8   0.5035   0.7232   0.6509  -0.4321   0.4642  -0.3337   0.00    0.0    2.98587    1.00051    0.68482   0.18163  0.22991  0.22187 -0.11511  0.10532 -0.07906    0.01777    1.28380  284.28404   0.23264  0.22399  0.50019 -0.00214  0.05253 -0.02881
2046 358110.000  -2408659.3305   4698123.8054   3566700.0480   4   7   0.5366   0.7801   0.7019  -0.4711   0.5041  -0.3626   0.00    0.0    3.03714    0.93799    0.71304   0.17857  0.23476  0.22344 -0.12456  0.11961 -0.08867   -0.13716    1.43738  285.26065   0.22700  0.21968  0.50025 -0.00458  0.05229 -0.02905
2046 358111.000  -2408656.2927   4698124.9695   3566700.6494   4   8   0.5140   0.7528   0.6737  -0.4576   0.4945  -0.3554   0.00    0.0    3.06732    1.03578    0.61156   0.16284  0.22065  0.20640 -0.12202  0.12366 -0.09057   -0.09328    1.29375  284.40392   0.22059  0.21548  0.50031 -0.00211  0.05121 -0.02920
2046 358112.000  -2408653.2057   4698126.1726   3566701.2310   4   8   0.4989   0.7350   0.6554  -0.4490   0.4883  -0.3507   0.00    0.0    3.11351    1.07987    0.65635   0.15098  0.20956  0.19337 -0.11930  0.12454 -0.09054   -0.19529    1.30465  283.77354   0.21643  0.21283  0.50036 -0.00073  0.04969 -0.02976
2046 358113.000  -2408650.0909   4698127.3619   3566701.8282   4   7   0.5238   0.7826   0.6952  -0.4835   0.5271  -0.3785   0.00    0.0    3.13028    1.12843    0.58495   0.14776  0.21022  0.19204 -0.12284  0.13029 -0.09429   -0.10330    1.39343  283.35134   0.21414  0.21134  0.50040 -0.00374  0.04823 -0.03061
2046 358114.000  -2408647.0036   4698128.6066   3566702.3851   4   6   0.5492   0.8332   0.7325  -0.5211   0.5763  -0.4135   0.00    0.0    3.11136    1.13481    0.60637   0.14397  0.20935  0.18854 -0.12510  0.13565 -0.09780    0.01324    1.11115  282.93327   0.21211  0.21016  0.50042 -0.00209  0.04650 -0.03174
2046 358115.000  -2408643.9142   4698129.8201   3566702.9951   4   6   0.5641   0.8673   0.7560  -0.5479   0.6122  -0.4390   0.00    0.0    3.12937    1.07414    0.67330   0.13818  0.20446  0.18209 -0.12426  0.13660 -0.09827   -0.00927    1.27882  284.63743   0.21042  0.20920  0.50043  0.00134  0.04463 -0.03304
2046 358116.000  -2408640.7930   4698130.9907   3566703.6806   4   6   0.5709   0.8868   0.7680  -0.5644   0.6351  -0.4553   0.00    0.0    3.19708    1.06148    0.75968   0.13151  0.19704  0.17415 -0.12110  0.13432 -0.09651   -0.06302    1.21901  285.74468   0.20907  0.20845  0.50043  0.00254  0.04284 -0.03436
2046 358117.000  -2408637.7028   4698132.3135   3566704.4308   4   8   0.5404   0.8256   0.7141  -0.5192   0.5892  -0.4222   0.00    0.0    3.20397    1.11443    0.73647   0.11988  0.17768  0.15670 -0.10822  0.12125 -0.08704   -0.19553    1.73566  285.16335   0.20778  0.20779  0.50044  0.00610  0.04109 -0.03573
2046 358118.000  -2408634.5082   4698133.4801   3566705.1128   4   6   0.5464   0.8450   0.7284  -0.5362   0.6090  -0.4364   0.00    0.0    3.20296    1.13541    0.75609   0.11504  0.17275  0.15185 -0.10637  0.11942 -0.08565   -0.20469    1.62209  284.74351   0.20702  0.20737  0.50045  0.00489  0.03960 -0.03712
2046 358119.000  -2408631.3434   4698134.6851   3566705.8323   4   7   0.5369   0.8344   0.7214  -0.5315   0.5998  -0.4297   0.00    0.0    3.20334    1.11992    0.75455   0.10832  0.16365  0.14411 -0.10123  0.11314 -0.08109   -0.00315    1.64991  285.18354   0.20632  0.20701  0.50046  0.00340  0.03807 -0.03864
2046 358120.000  -2408628.1933   4698135.8664   3566706.5856   4   7   0.5278   0.8232   0.7130  -0.5256   0.5908  -0.4232   0.00    0.0    3.19115    1.08715    0.83672   0.10249  0.15527  0.13683 -0.09633  0.10735 -0.07697   -0.08947    1.47514  285.80230   0.20571  0.20670  0.50047  0.00293  0.03662 -0.04008
2046 358121.000  -2408625.0341   4698137.0277   3566707.3464   4   7   0.5194   0.8118   0.7040  -0.5191   0.5820  -0.4168   0.00    0.0    3.22709    1.09585    0.77845   0.09729  0.14759  0.13009 -0.09162  0.10209 -0.07315   -0.17920    1.53411  285.68161   0.20517  0.20644  0.50048  0.00301  0.03522 -0.04147
2046 358122.000  -2408621.8554   4698138.1932   3566708.1040   4   7   0.5114   0.8005   0.6946  -0.5124   0.5735  -0.4107   0.00    0.0    3.21456    1.09787    0.88583   0.09265  0.14056  0.12386 -0.08724  0.09718 -0.06960   -0.22669    1.49197  285.80395   0.20467  0.20619  0.50050  0.00314  0.03383 -0.04285
2046 358123.000  -2408618.6193   4698139.3659   3566708.8471   4   7   0.5039   0.7894   0.6853  -0.5056   0.5653  -0.4049   0.00    0.0    3.25867    1.14249    0.82015   0.08846  0.13406  0.11815 -0.08311  0.09269 -0.06632   -0.21643    1.49902  285.16399   0.20419  0.20597  0.50052  0.00307  0.03245 -0.04423
2046 358124.000  -2408615.3635   4698140.5773   3566709.5340   4   7   0.4968   0.7787   0.6762  -0.4989   0.5575  -0.3992   0.00    0.0    3.26667    1.19523    0.79751   0.08460  0.12804  0.11284 -0.07929  0.08852 -0.06330   -0.23910    1.52448  283.56523   0.20374  0.20576  0.50054  0.00263  0.03103 -0.04568
2046 358125.000  -2408612.1010   4698141.8286   3566710.1564   4   7   0.4901   0.7683   0.6673  -0.4923   0.5501  -0.3938   0.00    0.0    3.27188    1.18535    0.73844   0.08102  0.12245  0.10787 -0.07577  0.08465 -0.06050   -0.25502    1.36252  282.71675   0.20334  0.20557  0.50055  0.00149  0.02951 -0.04717
2046 358126.000  -2408608.8895   4698143.0779   3566710.7587   4   7   0.4837   0.7584   0.6586  -0.4859   0.5429  -0.3886   0.00    0.0    3.21461    1.15285    0.71237   0.07775  0.11728  0.10328 -0.07247  0.08099 -0.05788   -0.12114    1.47154  282.60220   0.20299  0.20542  0.50054 -0.00211  0.02782 -0.04863
2046 358127.000  -2408605.7077   4698144.3019   3566711.3850   4   7   0.4776   0.7487   0.6503  -0.4797   0.5359  -0.3836   0.00    0.0    3.21773    1.10910    0.82812   0.07485  0.11249  0.09910 -0.06940  0.07746 -0.05537   -0.13724    1.17024  283.87293   0.20272  0.20530  0.50054 -0.00358  0.02595 -0.04995
2046 358128.000  -2408602.5233   4698145.4645   3566712.0804   4   7   0.4719   0.7395   0.6423  -0.4737   0.5292  -0.3788   0.00    0.0    3.21811    1.05827    0.85800   0.07230  0.10810  0.09531 -0.06644  0.07408 -0.05294   -0.24796    1.30577  285.00655   0.20251  0.20522  0.50055 -0.00476  0.02393 -0.05106
2046 358129.000  -2408599.3021   4698146.6204   3566712.8228   4   7   0.4666   0.7307   0.6346  -0.4679   0.5226  -0.3740   0.00    0.0    3.28264    1.05655    0.92321   0.07007  0.10403  0.09188 -0.06361  0.07083 -0.05061   -0.19926    1.46973  285.19724   0.20234  0.20517  0.50058 -0.00582  0.02178 -0.05196
2046 358130.000  -2408596.0520   4698147.7955   3566713.5545   4   7   0.4616   0.7222   0.6273  -0.4622   0.5161  -0.3694   0.00    0.0    3.27731    1.08528    0.89915   0.06806  0.10025  0.08876 -0.06089  0.06772 -0.04839   -0.08365    1.35991  284.89032   0.20222  0.20513  0.50062 -0.00681  0.01946 -0.05272
2046 358131.000  -2408592.7984   4698148.9743   3566714.2950   4   7   0.4569   0.7140   0.6204  -0.4566   0.5098  -0.3649   0.00    0.0    3.28414    1.04170    0.95969   0.06626  0.09674  0.08587 -0.05834  0.06472 -0.04625   -0.24646    1.47311  285.15791   0.20212  0.20510  0.50068 -0.00774  0.01688 -0.05335
2046 358132.000  -2408589.5397   4698150.1424   3566715.0427   4   7   0.4525   0.7062   0.6138  -0.4512   0.5036  -0.3604   0.00    0.0    3.27320    1.02876    0.93795   0.06466  0.09348  0.08326 -0.05586  0.06183 -0.04418   -0.18326    1.50695  285.18244   0.20205  0.20507  0.50076 -0.00863  0.01390 -0.05386
2046 358133.000  -2408586.2751   4698151.3147   3566715.7816   4   7   0.4484   0.6986   0.6076  -0.4459   0.4975  -0.3561   0.00    0.0    3.30530    1.01704    0.91353   0.06323  0.09043  0.08087 -0.05350  0.05904 -0.04219   -0.23246    1.62419  284.96653   0.20200  0.20505  0.50085 -0.00947  0.01017 -0.05425
2046 358134.000  -2408583.0060   4698152.4951   3566716.5077   4   7   0.4446   0.6914   0.6016  -0.4407   0.4915  -0.3518   0.00    0.0    3.28377    1.05070    0.95722   0.06198  0.08760  0.07871 -0.05124  0.05632 -0.04024   -0.30855    1.66735  284.48050   0.20196  0.20503  0.50095 -0.01025  0.00386 -0.05455
2046 358135.000  -2408579.7246   4698153.7073   3566717.1965   4   7   0.4410   0.6844   0.5960  -0.4356   0.4856  -0.3475   0.00    0.0    3.35440    1.10853    0.91451   0.06084  0.08492  0.07672 -0.04908  0.05371 -0.03839   -0.23242    1.51613  283.81655   0.20194  0.20501  0.50106 -0.01096 -0.00853 -0.05477
2046 358136.000  -2408576.3591   4698154.9679   3566717.8811   4   7   0.4377   0.6777   0.5907  -0.4307   0.4798  -0.3434   0.00    0.0    3.42361    1.10339    0.92125   0.05982  0.08242  0.07489 -0.04704  0.05115 -0.03658   -0.26445    1.51045  283.49170   0.20194  0.20499  0.50118 -0.01158 -0.01248 -0.05494
2046 358137.000  -2408572.9464   4698156.2573   3566718.5594   4   7   0.4346   0.6712   0.5856  -0.4259   0.4740  -0.3393   0.00    0.0    3.45532    1.11619    0.93257   0.05893  0.08011  0.07323 -0.04506  0.04863 -0.03479   -0.37641    1.42291  283.31031   0.20196  0.20498  0.50131 -0.01207 -0.01525 -0.05505
2046 358138.000  -2408569.5786   4698157.5469   3566719.1924   4   7   0.4317   0.6649   0.5808  -0.4211   0.4683  -0.3352   0.00    0.0    3.31360    1.11450    0.86406   0.05815  0.07799  0.07176 -0.04312  0.04615 -0.03303   -0.24498    1.31400  282.42390   0.20201  0.20497  0.50145 -0.01241 -0.01750 -0.05510
2046 358139.000  -2408566.3417   4698158.8375   3566719.7407   4   7   0.4290   0.6589   0.5762  -0.4165   0.4627  -0.3312   0.00    0.0    3.22013    1.11225    0.76966   0.05750  0.07600  0.07047 -0.04124  0.04368 -0.03133   -0.23280    1.29085  280.70728   0.20207  0.20497  0.50159 -0.01256 -0.01960 -0.05504
2046 358140.000  -2408563.1670   4698160.1677   3566720.2049   4   7   0.4265   0.6531   0.5719  -0.4120   0.4571  -0.3272   0.00    0.0    3.16322    1.13832    0.73406   0.05706  0.07417  0.06938 -0.03938  0.04116 -0.02960   -0.12606    0.96215  279.80896   0.20215  0.20497  0.50172 -0.01246 -0.02162 -0.05484
2046 358141.000  -2408560.0306   4698161.5881   3566720.5784   4   8   0.4163   0.6278   0.5492  -0.3916   0.4379  -0.3135   0.00    0.0    3.27055    1.14512    0.75769   0.05628  0.07101  0.06684 -0.03612  0.03769 -0.02712   -0.18096    1.19391  279.96781   0.20215  0.20497  0.50184 -0.01191 -0.02350 -0.05435
2046 358142.000  -2408556.7686   4698162.9622   3566721.0721   4   8   0.4086   0.6083   0.5320  -0.3756   0.4225  -0.3025   0.00    0.0    3.36206    1.07733    0.95422   0.05566  0.06861  0.06497 -0.03338  0.03452 -0.02471   -0.43760    1.22365  283.03508   0.20214  0.20495  0.50198 -0.01118 -0.02493 -0.05379
2046 358143.000  -2408553.4078   4698164.1183   3566721.8419   4   7   0.4091   0.6092   0.5344  -0.3762   0.4208  -0.3013   0.00    0.0    3.33481    0.90800    1.11490   0.05526  0.06775  0.06470 -0.03245  0.03249 -0.02298   -0.52675    1.37296  286.70189   0.20212  0.20489  0.50214 -0.00990 -0.02574 -0.05335
2046 358144.000  -2408550.1527   4698165.1329   3566722.7351   4   7   0.4092   0.6093   0.5361  -0.3763   0.4185  -0.2995   0.00    0.0    3.27629    0.77232    1.20380   0.05460  0.06671  0.06416 -0.03169  0.03060 -0.02138   -0.30418    1.37356  289.75953   0.20203  0.20480  0.50231 -0.00827 -0.02580 -0.05298
2046 358145.000  -2408546.8670   4698166.1369   3566723.6687   4   7   0.4090   0.6088   0.5370  -0.3757   0.4157  -0.2975   0.00    0.0    3.30461    0.87319    1.29899   0.05402  0.06566  0.06355 -0.03090  0.02849 -0.01993   -0.42694    1.50634  289.39543   0.20190  0.20467  0.50246 -0.00636 -0.02518 -0.05270
2046 358146.000  -2408543.5801   4698167.1723   3566724.5543   4   7   0.4085   0.6076   0.5373  -0.3748   0.4127  -0.2953   0.00    0.0    3.30722    0.87778    1.15127   0.05338  0.06453  0.06297 -0.03007  0.02636 -0.01852   -0.40108    1.32922  288.38903   0.20178  0.20454  0.50259 -0.00408 -0.02407 -0.05244
2046 358147.000  -2408540.3348   4698168.3785   3566725.2058   4   9   0.3857   0.5670   0.5020  -0.3463   0.3823  -0.2735   0.00    0.0    3.30047    0.93298    1.09200   0.05116  0.06071  0.05965 -0.02711  0.02265 -0.01592   -0.28196    1.28057  287.16602   0.20151  0.20432  0.50269  0.00152 -0.02211 -0.05187
2046 358148.000  -2408537.0710   4698169.5377   3566725.9331   4   8   0.3834   0.5574   0.4933  -0.3372   0.3742  -0.2677   0.00    0.0    3.30876    0.96046    1.03810   0.05085  0.05936  0.05865 -0.02540  0.02027 -0.01428   -0.12198    1.30638  286.36252   0.20139  0.20422  0.50282  0.00354 -0.02081 -0.05138
2046 358149.000  -2408533.8194   4698170.7240   3566726.6357   4   8   0.3813   0.5493   0.4863  -0.3295   0.3669  -0.2625   0.00    0.0    3.24918    1.02841    0.91607   0.05045  0.05814  0.05782 -0.02387  0.01791 -0.01260   -0.38607    1.09035  285.88541   0.20128  0.20411  0.50295  0.00473 -0.01949 -0.05080
2046 358150.000  -2408530.6202   4698171.9565   3566727.2538   4   9   0.3662   0.5245   0.4655  -0.3129   0.3475  -0.2486   0.00    0.0    3.20644    0.99023    0.98338   0.04887  0.05578  0.05590 -0.02223  0.01465 -0.01018   -0.20806    1.55979  285.42994   0.20110  0.20390  0.50307  0.00571 -0.01775 -0.05000
2046 358151.000  -2408527.4005   4698173.1980   3566727.8819   4   9   0.3550   0.5056   0.4500  -0.3000   0.3321  -0.2376   0.00    0.0    3.29799    1.02887    0.88388   0.04760  0.05384  0.05447 -0.02081  0.01156 -0.00810   -0.34086    1.59769  285.06290   0.20094  0.20371  0.50322  0.00631 -0.01638 -0.04919
2046 358152.000  -2408524.0907   4698174.4589   3566728.5196   4   9   0.3465   0.4908   0.4382  -0.2897   0.3196  -0.2287   0.00    0.0    3.36465    1.10024    0.92112   0.04664  0.05230  0.05335 -0.01959  0.00804 -0.00571   -0.31120    1.83537  284.57370   0.20078  0.20353  0.50339  0.00674 -0.01523 -0.04846
2046 358153.000  -2408520.8278   4698175.7232   3566729.1084   4   9   0.3399   0.4791   0.4290  -0.2813   0.3092  -0.2212   0.00    0.0    3.19935    1.06733    0.84536   0.04575  0.05102  0.05239 -0.01852  0.00352 -0.00185   -0.44114    1.56619  284.07137   0.20062  0.20336  0.50358  0.00710 -0.01443 -0.04781
2046 358154.000  -2408517.6290   4698176.9311   3566729.7002   4   9   0.3347   0.4695   0.4216  -0.2744   0.3003  -0.2149   0.00    0.0    3.23672    1.04621    0.84384   0.04501  0.04986  0.05150 -0.01760 -0.00569  0.00431   -0.57379    1.51653  284.56909   0.20046  0.20320  0.50379  0.00744 -0.01395 -0.04719
2046 358155.000  -2408514.4330   4698178.1358   3566730.2949   4   9   0.3305   0.4616   0.4157  -0.2685   0.2927  -0.2095   0.00    0.0    3.21686    1.05222    0.86497   0.04435  0.04883  0.05071 -0.01673 -0.00843  0.00614   -0.59564    1.40778  284.37858   0.20030  0.20305  0.50400  0.00777 -0.01375 -0.04663
2046 358156.000  -2408511.2407   4698179.3671   3566730.8538   4   9   0.3271   0.4549   0.4108  -0.2634   0.2862  -0.2048   0.00    0.0    3.22866    1.11116    0.76878   0.04373  0.04783  0.04998 -0.01591 -0.01003  0.00713   -0.61498    1.26113  283.19801   0.20015  0.20291  0.50422  0.00811 -0.01385 -0.04613
2046 358157.000  -2408508.0239   4698180.6143   3566731.3988   4   8   0.3334   0.4603   0.4165  -0.2644   0.2871  -0.2055   0.00    0.0    3.33017    1.19438    0.73875   0.04406  0.04766  0.05006 -0.01512 -0.01146  0.00801   -0.77441    0.88352  282.23238   0.20007  0.20284  0.50446  0.00846 -0.01429 -0.04579
2046 358158.000  -2408504.6593   4698182.0170   3566731.8380   4   9   0.3289   0.4533   0.4110  -0.2599   0.2812  -0.2013   0.00    0.0    3.44422    1.31112    0.54262   0.04342  0.04650  0.04924 -0.01441 -0.01228  0.00857   -0.72200    0.97825  279.68384   0.19992  0.20271  0.50470  0.00883 -0.01502 -0.04560
2046 358159.000  -2408501.2084   4698183.6103   3566732.0955   4   9   0.3251   0.4471   0.4063  -0.2558   0.2759  -0.1976   0.00    0.0    3.55223    1.59190    0.39217   0.04355  0.04560  0.04890 -0.01336 -0.01381  0.00971   -0.73759    0.95720  275.23246   0.19980  0.20261  0.50493  0.00924 -0.01645 -0.04559
2046 358160.000  -2408497.5826   4698185.4861   3566732.1013   4   9   0.3222   0.4417   0.4024  -0.2522   0.2712  -0.1943   0.00    0.0    3.62645    1.86980   -0.01865   0.04536  0.04516  0.04944 -0.01109 -0.01643  0.01157   -0.55168    0.42555  269.42661   0.19963  0.20251  0.50509  0.00973 -0.01918 -0.04559
2046 358161.000  -2408494.0516   4698187.6972   3566731.6601   4   8   0.3226   0.4414   0.4045  -0.2521   0.2682  -0.1924   0.00    0.0    3.40439    2.25850   -0.51539   0.05087  0.04638  0.05279  0.00534 -0.02213  0.01446   -0.14639    0.58733  259.23300   0.19929  0.20229  0.50506  0.01074 -0.02388 -0.04452
2046 358162.000  -2408490.8009   4698190.2632   3566730.5848   4   8   0.3248   0.4411   0.4071  -0.2512   0.2646  -0.1903   0.00    0.0    3.11020    2.53313   -1.10055   0.06121  0.05023  0.06029  0.01937 -0.03162  0.01915    0.21616    0.30966  249.00813   0.19827  0.20164  0.50458  0.01237 -0.03116 -0.03972
2046 358163.000  -2408487.8905   4698193.0314   3566729.0327   4   8   0.3303   0.4415   0.4116  -0.2488   0.2592  -0.1875   0.00    0.0    2.77924    2.61835   -1.46942   0.07451  0.05727  0.07206  0.03091 -0.04370  0.02654   -0.03440    0.31864  242.20681   0.19562  0.19985  0.50343  0.01521 -0.04068 -0.02335
2046 358164.000  -2408485.3489   4698195.8098   3566727.1951   4   8   0.3401   0.4432   0.4194  -0.2444   0.2505  -0.1832   0.00    0.0    2.44402    2.61653   -1.67816   0.08854  0.06632  0.08606  0.04121 -0.05627  0.03584    0.07460    0.31116  236.69589   0.18999  0.19585  0.50170  0.01951 -0.05112  0.03673
2046 358165.000  -2408483.1178   4698198.6337   3566725.0877   4   9   0.3510   0.4420   0.4244  -0.2344   0.2376  -0.1760   0.00    0.0    2.23811    2.66508   -1.88579   0.10087  0.07495  0.09846  0.04914 -0.06705  0.04499    0.63268   -0.08350  232.82695   0.17991  0.18769  0.49971  0.02273 -0.06113  0.06379
2046 358166.000  -2408481.1009   4698201.4941   3566722.8118   4   9   0.3633   0.4429   0.4325  -0.2240   0.2214  -0.1658   0.00    0.0    2.01608    2.69660   -2.06908   0.10946  0.08159  0.10822  0.05375 -0.07526  0.05261    0.06935    0.78389  228.77978   0.16570  0.17557  0.49809  0.02623 -0.06859  0.08374
2046 358167.000  -2408479.4109   4698204.2559   3566720.3929   4   9   0.3739   0.4445   0.4414  -0.2149   0.2037  -0.1535   0.00    0.0    1.68690    2.63540   -2.23894   0.11355  0.08524  0.11447  0.05541 -0.08015  0.05791    0.18632    0.87538  224.77370   0.14864  0.16001  0.49718  0.02837 -0.07224  0.09759
2046 358168.000  -2408477.9544   4698207.0074   3566717.8148   4   7   0.4063   0.4567   0.4540  -0.1941   0.1964  -0.1487   0.00    0.0    1.44974    2.69669   -2.42975   0.11986  0.08851  0.11693  0.06052 -0.08231  0.06013    0.22560    0.62794  221.49346   0.13524  0.14350  0.49703  0.01857 -0.07117  0.10407
2046 358169.000  -2408476.6359   4698209.7461   3566715.1839   4   7   0.4294   0.4663   0.4624  -0.1758   0.1922  -0.1453   0.00    0.0    1.34698    2.69482   -2.54886   0.12019  0.08864  0.11513  0.06154 -0.08138  0.05990    0.51584    0.41311  220.45465   0.11994  0.12624  0.49710  0.01196 -0.06874  0.10820
2046 358170.000  -2408475.3740   4698212.4298   3566712.6006   4   7   0.4421   0.4727   0.4664  -0.1642   0.1918  -0.1439   0.00    0.0    1.35349    2.66503   -2.50624   0.11621  0.08647  0.11034  0.05976 -0.07822  0.05789    0.45061    0.50188  220.47211   0.10482  0.10985  0.49731  0.00847 -0.06539  0.10958
2046 358171.000  -2408474.1682   4698215.0705   3566710.0995   4   8   0.4150   0.4680   0.4710  -0.1945   0.1783  -0.1320   0.00    0.0    1.41870    2.68269   -2.46509   0.10300  0.08083  0.10544  0.04827 -0.07492  0.05616    0.53225    0.13513  222.23439   0.08759  0.09553  0.49748  0.02060 -0.06153  0.10816
2046 358172.000  -2408472.7697   4698217.7297   3566707.6872   4   9   0.3955   0.4583   0.4608  -0.2035   0.1780  -0.1296   0.00    0.0    1.52017    2.72067   -2.47863   0.09276  0.07478  0.09690  0.04175 -0.06886  0.05134    0.48990    0.41420  223.97467   0.07513  0.08225  0.49748  0.01866 -0.05786  0.10539
2046 358173.000  -2408471.2957   4698220.4494   3566705.2421   4   9   0.3822   0.4502   0.4515  -0.2068   0.1780  -0.1283   0.00    0.0    1.45801    2.78538   -2.54843   0.08484  0.06949  0.08942  0.03730 -0.06329  0.04687    0.32044    0.53069  223.13928   0.06587  0.07179  0.49724  0.01568 -0.05512  0.10197
2046 358174.000  -2408469.8586   4698223.1956   3566702.7412   4   9   0.3721   0.4433   0.4428  -0.2078   0.1784  -0.1280   0.00    0.0    1.40408    2.77615   -2.55445   0.07853  0.06510  0.08287  0.03420 -0.05838  0.04297    0.36072    0.51556  221.99410   0.05862  0.06342  0.49677  0.01267 -0.05306  0.09829
2046 358175.000  -2408468.4701   4698225.9672   3566700.1592   4   8   0.3705   0.4406   0.4369  -0.2051   0.1820  -0.1302   0.00    0.0    1.32549    2.82745   -2.66282   0.07423  0.06165  0.07739  0.03266 -0.05418  0.03958    0.49885    0.34694  220.83722   0.05323  0.05680  0.49617  0.00900 -0.05172  0.09488
2046 358176.000  -2408467.0913   4698228.7628   3566697.5477   4   6   0.3966   0.4562   0.4477  -0.1952   0.1880  -0.1345   0.00    0.0    1.34886    2.82869   -2.64506   0.07487  0.06120  0.07468  0.03508 -0.05212  0.03757    0.57107    0.55635  220.94228   0.05043  0.05246  0.49581 -0.00122 -0.05150  0.09288
2046 358177.000  -2408465.6940   4698231.5449   3566694.9785   4   8   0.3786   0.4498   0.4431  -0.2075   0.1871  -0.1341   0.00    0.0    1.33367    2.79006   -2.65099   0.06790  0.05728  0.07019  0.03001 -0.04866  0.03489    0.45506    0.60701  220.86664   0.04524  0.04766  0.49432  0.00399 -0.04967  0.08800
2046 358178.000  -2408464.3207   4698234.3161   3566692.4098   4   8   0.3661   0.4444   0.4379  -0.2136   0.1874  -0.1344   0.00    0.0    1.30942    2.80202   -2.64135   0.06275  0.05405  0.06605  0.02664 -0.04547  0.03237    0.46898    0.73697  220.48689   0.04142  0.04376  0.49291  0.00294 -0.04860  0.08395
2046 358179.000  -2408462.9338   4698237.1557   3566689.7593   4   9   0.3540   0.4347   0.4252  -0.2130   0.1918  -0.1377   0.00    0.0    1.36573    3.00838   -2.83756   0.05796  0.05065  0.06135  0.02394 -0.04190  0.02930    0.44841    0.82378  219.86934   0.03840  0.04026  0.49149 -0.00353 -0.04816  0.08031
2046 358180.000  -2408461.4593   4698240.2317   3566686.8716   4   9   0.3446   0.4267   0.4149  -0.2117   0.1938  -0.1395   0.00    0.0    1.47927    3.12827   -2.99079   0.05420  0.04799  0.05759  0.02197 -0.03908  0.02680    0.39992    0.85752  219.68621   0.03608  0.03757  0.49015 -0.00522 -0.04814  0.07719
2046 358181.000  -2408459.9221   4698243.4362   3566683.8519   4   8   0.3393   0.4241   0.4127  -0.2136   0.1923  -0.1388   0.00    0.0    1.53371    3.29560   -3.17024   0.05123  0.04609  0.05527  0.01984 -0.03731  0.02531    0.44777    0.93533  219.41165   0.03435  0.03568  0.48893 -0.00577 -0.04830  0.07458
2046 358182.000  -2408458.3005   4698246.8853   3566680.5865   4   7   0.3433   0.4269   0.4144  -0.2127   0.1931  -0.1399   0.00    0.0    1.64706    3.59076   -3.35701   0.04970  0.04498  0.05364  0.01901 -0.03609  0.02415    0.39185    0.91597  219.42751   0.03323  0.03424  0.48801 -0.00659 -0.04896  0.07273
2046 358183.000  -2408456.5974   4698250.4713   3566677.1947   4   8   0.3403   0.4219   0.4059  -0.2087   0.1973  -0.1433   0.00    0.0    1.66258    3.58245   -3.37462   0.04767  0.04314  0.05065  0.01880 -0.03370  0.02213    0.35788    0.73069  219.42915   0.03213  0.03279  0.48684 -0.00736 -0.05001  0.07068
2046 358184.000  -2408454.9287   4698253.9581   3566673.9033   4   7   0.3421   0.4239   0.4072  -0.2090   0.1982  -0.1445   0.00    0.0    1.65869    3.49229   -3.28589   0.04645  0.04220  0.04899  0.01877 -0.03240  0.02083    0.41284    0.62644  219.89974   0.03137  0.03188  0.48578 -0.00761 -0.05075  0.06902
2046 358185.000  -2408453.2193   4698257.4400   3566670.6388   4   7   0.3427   0.4251   0.4073  -0.2095   0.1998  -0.1462   0.00    0.0    1.70015    3.44896   -3.24337   0.04512  0.04123  0.04737  0.01853 -0.03113  0.01954    0.27422    0.75387  220.46120   0.03074  0.03112  0.48458 -0.00779 -0.05148  0.06738
2046 358186.000  -2408451.6413   4698260.8745   3566667.4941   4   7   0.3394   0.4239   0.4040  -0.2109   0.2044  -0.1497   0.00    0.0    1.70090    3.44288   -3.18565   0.04346  0.03996  0.04544  0.01799 -0.02953  0.01808    0.43731    0.91409  220.67942   0.03020  0.03047  0.48307 -0.00789 -0.05213  0.06560
2046 358187.000  -2408450.0153   4698264.3063   3566664.3195   4   8   0.3306   0.4188   0.3992  -0.2131   0.2042  -0.1497   0.00    0.0    1.62319    3.36969   -3.19439   0.04141  0.03841  0.04359  0.01670 -0.02795  0.01712    0.42719    0.76164  220.19181   0.02974  0.02998  0.48131 -0.00781 -0.05251  0.06373
2046 358188.000  -2408448.4148   4698267.6844   3566661.1717   4   8   0.3236   0.4142   0.3946  -0.2140   0.2039  -0.1496   0.00    0.0    1.57531    3.37314   -3.12534   0.03987  0.03720  0.04204  0.01598 -0.02669  0.01619    0.39338    0.77378  219.88951   0.02947  0.02965  0.47956 -0.00776 -0.05277  0.06213
2046 358189.000  -2408446.8215   4698271.0255   3566658.0455   4   8   0.3179   0.4101   0.3903  -0.2140   0.2036  -0.1495   0.00    0.0    1.54968    3.31965   -3.11291   0.03865  0.03614  0.04067  0.01549 -0.02557  0.01543    0.48116    0.37781  220.20936   0.02935  0.02943  0.47780 -0.00771 -0.05288  0.06073
2046 358190.000  -2408445.1986   4698274.3014   3566655.0143   4   8   0.3133   0.4064   0.3863  -0.2135   0.2032  -0.1494   0.00    0.0    1.62699    3.25065   -3.01237   0.03784  0.03544  0.03953  0.01561 -0.02479  0.01448    0.32310    0.69589  220.94871   0.02934  0.02932  0.47593 -0.00765 -0.05284  0.05947
2046 358191.000  -2408443.5232   4698277.5499   3566652.0303   4   8   0.3093   0.4030   0.3826  -0.2126   0.2027  -0.1492   0.00    0.0    1.68124    3.23968   -2.98434   0.03702  0.03473  0.03856  0.01551 -0.02410  0.01374    0.39184    0.81603  221.58399   0.02941  0.02928  0.47393 -0.00758 -0.05263  0.05831
2046 358192.000  -2408441.8056   4698280.7524   3566649.1061   4   6   0.3225   0.4118   0.3869  -0.2098   0.2108  -0.1559   0.00    0.0    1.68321    3.19313   -2.91211   0.03808  0.03490  0.03809  0.01712 -0.02359  0.01312    0.49311    1.12045  221.73417   0.02964  0.02939  0.47288 -0.00770 -0.05268  0.05792
2046 358193.000  -2408440.1347   4698283.9405   3566646.1614   4   6   0.3346   0.4200   0.3906  -0.2071   0.2189  -0.1623   0.00    0.0    1.57948    3.17960   -2.93335   0.03874  0.03478  0.03760  0.01792 -0.02288  0.01304    0.42166    0.97436  220.74136   0.02988  0.02951  0.47151 -0.00776 -0.05249  0.05744
2046 358194.000  -2408438.4836   4698287.1109   3566643.2221   4   6   0.3454   0.4275   0.3939  -0.2046   0.2268  -0.1682   0.00    0.0    1.64391    3.16859   -2.87625   0.03937  0.03490  0.03730  0.01889 -0.02258  0.01249    0.39122    1.01798  221.24698   0.03013  0.02967  0.46988 -0.00776 -0.05206  0.05692
2046 358195.000  -2408436.8009   4698290.2395   3566640.3679   4   8   0.3319   0.4194   0.3881  -0.2090   0.2241  -0.1656   0.00    0.0    1.62713    3.00282   -2.78291   0.03789  0.03384  0.03648  0.01766 -0.02196  0.01254    0.62163    1.26646  222.03555   0.03033  0.02973  0.46612 -0.00744 -0.05045  0.05565
2046 358196.000  -2408435.0793   4698293.3370   3566637.5662   4   8   0.3220   0.4127   0.3830  -0.2107   0.2213  -0.1632   0.00    0.0    1.72134    3.09726   -2.77316   0.03651  0.03312  0.03606  0.01663 -0.02188  0.01222    0.31116    0.93818  222.88322   0.03059  0.02986  0.46294 -0.00724 -0.04894  0.05479
2046 358197.000  -2408433.3437   4698296.4639   3566634.7314   4   8   0.3144   0.4069   0.3786  -0.2110   0.2184  -0.1610   0.00    0.0    1.74095    3.11736   -2.82254   0.03555  0.03245  0.03570  0.01582 -0.02171  0.01235    0.27478    0.89248  221.95879   0.03087  0.03002  0.46015 -0.00710 -0.04742  0.05423
2046 358198.000  -2408431.6937   4698299.5926   3566631.8493   4   8   0.3085   0.4019   0.3747  -0.2105   0.2156  -0.1588   0.00    0.0    1.59692    3.09250   -2.88777   0.03491  0.03175  0.03533  0.01511 -0.02136  0.01294    0.59537    0.82662  220.55760   0.03117  0.03019  0.45769 -0.00699 -0.04581  0.05389
2046 358199.000  -2408430.1229   4698302.7160   3566628.9440   4   7   0.3100   0.4019   0.3748  -0.2088   0.2151  -0.1585   0.00    0.0    1.58408    3.09011   -2.84930   0.03519  0.03172  0.03538  0.01547 -0.02149  0.01319    0.30986    0.93956  220.19713   0.03147  0.03039  0.45598 -0.00694 -0.04441  0.05383
2046 358200.000  -2408428.5530   4698305.7918   3566626.0759   4   7   0.3114   0.4019   0.3747  -0.2073   0.2145  -0.1580   0.00    0.0    1.58767    3.05441   -2.77532   0.03552  0.03172  0.03543  0.01587 -0.02166  0.01342    0.41946    1.54380  220.28915   0.03177  0.03059  0.45430 -0.00689 -0.04276  0.05385
2046 358201.000  -2408427.0409   4698308.8551   3566623.2118   4   9   0.3042   0.3937   0.3669  -0.2042   0.2118  -0.1555   0.00    0.0    1.55644    3.06701   -2.82097   0.03490  0.03109  0.03499  0.01543 -0.02140  0.01362    0.34122    1.77564  219.99601   0.03202  0.03071  0.45214 -0.00686 -0.04041  0.05386
2046 358202.000  -2408425.4864   4698311.9048   3566620.3347   4   8   0.3002   0.3900   0.3647  -0.2036   0.2086  -0.1530   0.00    0.0    1.58622    3.07338   -2.86438   0.03461  0.03085  0.03507  0.01512 -0.02161  0.01396    0.43720    1.64122  220.10132   0.03228  0.03084  0.45044 -0.00684 -0.03804  0.05405
2046 358203.000  -2408423.9100   4698314.9892   3566617.4360   4   8   0.2971   0.3867   0.3627  -0.2026   0.2055  -0.1506   0.00    0.0    1.60753    3.09694   -2.83601   0.03452  0.03073  0.03519  0.01502 -0.02186  0.01428    0.32752    1.58682  220.33423   0.03251  0.03095  0.44902 -0.00684 -0.03553  0.05431
2046 358204.000  -2408422.2946   4698318.0875   3566614.5363   4   8   0.2946   0.3837   0.3611  -0.2014   0.2023  -0.1482   0.00    0.0    1.71875    3.10312   -2.85201   0.03448  0.03066  0.03540  0.01496 -0.02220  0.01455    0.16442    1.69495  220.91348   0.03272  0.03106  0.44783 -0.00686 -0.03286  0.05460
2046 358205.000  -2408420.6562   4698321.1978   3566611.6289   4   8   0.2927   0.3811   0.3597  -0.2001   0.1993  -0.1458   0.00    0.0    1.67340    3.11473   -2.87717   0.03450  0.03053  0.03551  0.01487 -0.02236  0.01501    0.32296    1.63773  220.77048   0.03290  0.03114  0.44684 -0.00689 -0.02999  0.05488
2046 358206.000  -2408419.0609   4698324.3209   3566608.7019   4   8   0.2911   0.3788   0.3585  -0.1987   0.1963  -0.1435   0.00    0.0    1.59661    3.11404   -2.87334   0.03456  0.03043  0.03560  0.01486 -0.02250  0.01542    0.45195    1.44502  219.85500   0.03303  0.03119  0.44605 -0.00692 -0.02684  0.05515
2046 358207.000  -2408417.5926   4698327.4810   3566605.7240   4   9   0.2885   0.3737   0.3536  -0.1950   0.1939  -0.1413   0.00    0.0    1.55449    3.13229   -2.93859   0.03449  0.03012  0.03539  0.01488 -0.02237  0.01565    0.40282    1.41118  218.81796   0.03309  0.03120  0.44541 -0.00692 -0.02326  0.05532
2046 358208.000  -2408416.1202   4698330.6151   3566602.6884   4   8   0.2878   0.3720   0.3533  -0.1938   0.1908  -0.1387   0.00    0.0    1.51827    3.17298   -2.98947   0.03455  0.03006  0.03557  0.01483 -0.02256  0.01603    0.42488    1.30360  218.47369   0.03316  0.03119  0.44505 -0.00698 -0.01943  0.05553
2046 358209.000  -2408414.6450   4698333.8273   3566599.6038   4   9   0.2858   0.3677   0.3493  -0.1905   0.1883  -0.1365   0.00    0.0    1.63183    3.28285   -3.06586   0.03456  0.02983  0.03554  0.01481 -0.02257  0.01627    0.40352    1.21839  218.96048   0.03314  0.03115  0.44480 -0.00699 -0.01480  0.05560
2046 358210.000  -2408413.0558   4698337.2012   3566596.3959   4   9   0.2842   0.3640   0.3461  -0.1874   0.1857  -0.1342   0.00    0.0    1.70792    3.41825   -3.16799   0.03465  0.02963  0.03559  0.01479 -0.02259  0.01665    0.53908    1.29042  219.38382   0.03309  0.03108  0.44469 -0.00701 -0.00873  0.05556
2046 358211.000  -2408411.3666   4698340.6232   3566593.1603   4   8   0.2843   0.3633   0.3471  -0.1867   0.1823  -0.1314   0.00    0.0    1.82002    3.42895   -3.21044   0.03478  0.02965  0.03593  0.01467 -0.02291  0.01706    0.28096    1.30836  220.07436   0.03307  0.03101  0.44470 -0.00711  0.00674  0.05546
2046 358212.000  -2408409.6337   4698344.0450   3566589.9225   4   8   0.2845   0.3626   0.3479  -0.1859   0.1792  -0.1287   0.00    0.0    1.80467    3.40856   -3.10353   0.03479  0.02970  0.03607  0.01464 -0.02317  0.01719    0.18301    1.09815  220.47228   0.03300  0.03092  0.44473 -0.00721  0.01242  0.05519
2046 358213.000  -2408407.8961   4698347.4021   3566586.7723   4   8   0.2847   0.3620   0.3486  -0.1851   0.1762  -0.1262   0.00    0.0    1.83594    3.36011   -3.06011   0.03478  0.02970  0.03617  0.01457 -0.02336  0.01731    0.31451    1.14464  221.01959   0.03289  0.03081  0.44474 -0.00728  0.01593  0.05479
2046 358214.000  -2408406.2147   4698350.6955   3566583.6894   4   8   0.2848   0.3613   0.3491  -0.1844   0.1735  -0.1240   0.00    0.0    1.74701    3.16512   -2.93318   0.03462  0.02969  0.03602  0.01459 -0.02343  0.01716    0.32448    1.14897  220.50702   0.03276  0.03067  0.44476 -0.00734  0.01860  0.05429
2046 358215.000  -2408404.6608   4698353.8157   3566580.7265   4   8   0.2848   0.3606   0.3493  -0.1836   0.1711  -0.1220   0.00    0.0    1.62124    3.06590   -2.85389   0.03451  0.02963  0.03590  0.01457 -0.02343  0.01712    0.41385    0.87387  220.16122   0.03259  0.03052  0.44481 -0.00738  0.02081  0.05377
2046 358216.000  -2408403.1789   4698356.8481   3566577.8326   4   8   0.2847   0.3599   0.3494  -0.1828   0.1689  -0.1203   0.00    0.0    1.54036    3.01680   -2.82064   0.03438  0.02954  0.03581  0.01449 -0.02343  0.01714    0.29736    0.78147  219.69513   0.03240  0.03035  0.44492 -0.00740  0.02272  0.05326
2046 358217.000  -2408401.7148   4698359.8959   3566574.9513   4   8   0.2860   0.3584   0.3466  -0.1794   0.1698  -0.1208   0.00    0.0    1.61875    3.04036   -2.77537   0.03445  0.02937  0.03551  0.01471 -0.02322  0.01700    0.55596    0.62449  220.76689   0.03216  0.03020  0.44504 -0.00721  0.02447  0.05270
2046 358218.000  -2408400.2150   4698362.9445   3566572.1098   4   7   0.2933   0.3604   0.3457  -0.1741   0.1734  -0.1233   0.00    0.0    1.59665    3.02548   -2.78112   0.03507  0.02943  0.03526  0.01554 -0.02298  0.01690    0.31654    0.73017  220.61061   0.03195  0.03015  0.44521 -0.00684  0.02601  0.05222
2046 358219.000  -2408398.7543   4698365.9337   3566569.2925   4   8   0.2911   0.3594   0.3463  -0.1753   0.1706  -0.1211   0.00    0.0    1.57152    3.05888   -2.79221   0.03466  0.02925  0.03530  0.01505 -0.02306  0.01700    0.60143    0.61688  220.29747   0.03175  0.02991  0.44545 -0.00702  0.02721  0.05183
2046 358220.000  -2408397.2131   4698369.0739   3566566.3388   4   8   0.2893   0.3584   0.3466  -0.1762   0.1680  -0.1191   0.00    0.0    1.71424    3.23787   -2.95105   0.03448  0.02903  0.03546  0.01462 -0.02310  0.01731    0.50021    0.72765  220.61875   0.03153  0.02968  0.44568 -0.00711  0.02822  0.05140
2046 358221.000  -2408395.5498   4698372.3954   3566563.2417   4   8   0.2878   0.3574   0.3469  -0.1768   0.1657  -0.1171   0.00    0.0    1.74297    3.35913   -3.15773   0.03444  0.02883  0.03550  0.01444 -0.02302  0.01759    0.57702    0.82335  220.19334   0.03131  0.02947  0.44587 -0.00714  0.02901  0.05085
2046 358222.000  -2408393.8916   4698375.7887   3566560.0396   4   8   0.2865   0.3564   0.3470  -0.1772   0.1636  -0.1153   0.00    0.0    1.76948    3.39609   -3.12616   0.03420  0.02868  0.03544  0.01416 -0.02302  0.01760    0.34877    0.82951  220.10862   0.03108  0.02927  0.44600 -0.00714  0.02956  0.05018
2046 358223.000  -2408392.2369   4698379.1415   3566556.8822   4   7   0.2911   0.3589   0.3498  -0.1758   0.1628  -0.1144   0.00    0.0    1.71394    3.32352   -3.08593   0.03441  0.02882  0.03543  0.01450 -0.02309  0.01752    0.44150    0.63016  220.04948   0.03091  0.02917  0.44613 -0.00699  0.03007  0.04956
2046 358224.000  -2408390.6157   4698382.4030   3566553.8146   4   7   0.2948   0.3610   0.3520  -0.1747   0.1623  -0.1138   0.00    0.0    1.66217    3.21632   -2.98294   0.03444  0.02891  0.03535  0.01468 -0.02314  0.01735    0.39804    0.92272  220.42109   0.03072  0.02905  0.44624 -0.00686  0.03044  0.04889
2046 358225.000  -2408389.0279   4698385.5856   3566550.8348   4   7   0.2957   0.3616   0.3519  -0.1746   0.1640  -0.1150   0.00    0.0    1.68045    3.14269   -2.88255   0.03423  0.02880  0.03510  0.01460 -0.02300  0.01713    0.57591    0.80370  221.06978   0.03047  0.02887  0.44632 -0.00674  0.03066  0.04813
2046 358226.000  -2408387.3850   4698388.7124   3566547.9674   4   6   0.3078   0.3688   0.3565  -0.1706   0.1686  -0.1182   0.00    0.0    1.70239    3.10122   -2.79890   0.03517  0.02918  0.03519  0.01558 -0.02306  0.01713    0.54189    0.92597  221.63073   0.03033  0.02890  0.44654 -0.00634  0.03123  0.04764
2046 358227.000  -2408385.7525   4698391.8084   3566545.1286   4   6   0.3191   0.3757   0.3607  -0.1667   0.1736  -0.1217   0.00    0.0    1.67948    3.07675   -2.80138   0.03597  0.02949  0.03523  0.01644 -0.02303  0.01712    0.43680    1.18671  221.22854   0.03018  0.02889  0.44676 -0.00598  0.03169  0.04713
2046 358228.000  -2408384.1567   4698394.9035   3566542.2728   4   6   0.3292   0.3821   0.3644  -0.1632   0.1787  -0.1253   0.00    0.0    1.69631    2.98361   -2.79101   0.03655  0.02972  0.03518  0.01706 -0.02297  0.01704    0.43695    1.06682  221.11874   0.03002  0.02885  0.44699 -0.00568  0.03205  0.04663
2046 358229.000  -2408382.6721   4698397.9616   3566539.4229   4   8   0.3167   0.3766   0.3612  -0.1713   0.1768  -0.1244   0.00    0.0    1.64127    3.08915   -2.79753   0.03508  0.02908  0.03484  0.01567 -0.02275  0.01687    0.39574    1.64553  221.13698   0.02972  0.02843  0.44709 -0.00609  0.03165  0.04581
2046 358230.000  -2408381.2075   4698400.9716   3566536.5966   4   8   0.3075   0.3722   0.3583  -0.1759   0.1750  -0.1234   0.00    0.0    1.56337    3.00352   -2.73271   0.03398  0.02864  0.03447  0.01470 -0.02258  0.01663    0.21522    1.24514  220.09983   0.02947  0.02813  0.44728 -0.00624  0.03146  0.04518
2046 358231.000  -2408379.8381   4698403.9661   3566533.7492   4   8   0.3006   0.3685   0.3558  -0.1786   0.1732  -0.1223   0.00    0.0    1.50919    3.02298   -2.73595   0.03328  0.02828  0.03420  0.01411 -0.02242  0.01648    0.48853   -0.18806  219.24787   0.02926  0.02791  0.44753 -0.00627  0.03134  0.04472
2046 358232.000  -2408378.4002   4698407.0074   3566530.8891   4   8   0.2953   0.3653   0.3535  -0.1802   0.1714  -0.1212   0.00    0.0    1.58046    3.02676   -2.82000   0.03284  0.02797  0.03398  0.01372 -0.02226  0.01639    0.43747    0.09418  220.61727   0.02907  0.02774  0.44780 -0.00622  0.03123  0.04437
2046 358233.000  -2408376.8471   4698410.0586   3566528.0622   4   8   0.2912   0.3626   0.3516  -0.1809   0.1696  -0.1200   0.00    0.0    1.68700    3.07914   -2.73747   0.03254  0.02776  0.03385  0.01339 -0.02221  0.01636    0.36590   -0.06147  221.84085   0.02891  0.02761  0.44810 -0.00613  0.03115  0.04405
2046 358234.000  -2408375.2858   4698413.0909   3566525.2629   4   8   0.2880   0.3601   0.3498  -0.1812   0.1678  -0.1188   0.00    0.0    1.55966    3.01286   -2.73002   0.03232  0.02765  0.03366  0.01335 -0.02213  0.01623    0.10120    0.16966  221.07809   0.02876  0.02750  0.44842 -0.00602  0.03108  0.04378
2046 358235.000  -2408373.8763   4698415.9752   3566522.5601   4   8   0.2854   0.3580   0.3482  -0.1810   0.1661  -0.1176   0.00    0.0    1.36460    2.81438   -2.60929   0.03210  0.02759  0.03349  0.01330 -0.02211  0.01610    0.49100   -0.18422  219.79266   0.02863  0.02740  0.44877 -0.00590  0.03105  0.04360
2046 358236.000  -2408372.5181   4698418.7894   3566519.8754   4   8   0.2833   0.3561   0.3467  -0.1806   0.1644  -0.1165   0.00    0.0    1.47051    2.65523   -2.68116   0.03197  0.02745  0.03331  0.01324 -0.02201  0.01602    0.36902    0.51561  219.61964   0.02850  0.02731  0.44916 -0.00577  0.03103  0.04349
2046 358237.000  -2408371.1420   4698421.6286   3566517.1748   4   7   0.2852   0.3566   0.3464  -0.1793   0.1655  -0.1173   0.00    0.0    1.44184    2.91091   -2.61643   0.03231  0.02750  0.03327  0.01368 -0.02196  0.01600    0.21142    0.67173  219.45425   0.02839  0.02727  0.44957 -0.00554  0.03110  0.04347
2046 358238.000  -2408369.7891   4698424.5131   3566514.4156   4   7   0.2869   0.3571   0.3461  -0.1781   0.1663  -0.1180   0.00    0.0    1.39705    2.92091   -2.72204   0.03253  0.02752  0.03318  0.01405 -0.02188  0.01593    0.35477    0.73875  218.58603   0.02829  0.02723  0.44999 -0.00535  0.03112  0.04346
2046 358239.000  -2408368.4376   4698427.4515   3566511.5945   4   7   0.2923   0.3578   0.3436  -0.1728   0.1704  -0.1210   0.00    0.0    1.39821    2.93453   -2.80049   0.03309  0.02755  0.03285  0.01490 -0.02157  0.01572    0.37017    0.77456  218.39107   0.02816  0.02723  0.45042 -0.00498  0.03121  0.04350
2046 358240.000  -2408367.0630   4698430.4141   3566508.7450   4   7   0.2972   0.3585   0.3416  -0.1680   0.1737  -0.1233   0.00    0.0    1.45136    2.96939   -2.88193   0.03357  0.02756  0.03261  0.01552 -0.02132  0.01561    0.45666    1.09792  218.70868   0.02804  0.02722  0.45082 -0.00468  0.03119  0.04351
2046 358241.000  -2408365.7055   4698433.3881   3566505.9245   4   7   0.2988   0.3598   0.3439  -0.1680   0.1718  -0.1220   0.00    0.0    1.41041    2.90690   -2.72365   0.03350  0.02766  0.03279  0.01536 -0.02156  0.01571    0.30477    0.90974  219.29368   0.02800  0.02715  0.45119 -0.00470  0.03096  0.04349
2046 358242.000  -2408364.4611   4698436.1517   3566503.3128   4   8   0.2936   0.3573   0.3430  -0.1706   0.1690  -0.1201   0.00    0.0    1.33974    2.68657   -2.47073   0.03281  0.02749  0.03273  0.01463 -0.02164  0.01571    0.04843    0.84522  220.16925   0.02792  0.02699  0.45154 -0.00480  0.03054  0.04346
2046 358243.000  -2408363.2589   4698438.6740   3566500.9148   4   9   0.2881   0.3527   0.3385  -0.1702   0.1675  -0.1192   0.00    0.0    1.24133    2.44024   -2.30936   0.03232  0.02722  0.03239  0.01421 -0.02145  0.01564    0.05454    0.96075  220.03869   0.02780  0.02686  0.45197 -0.00475  0.03032  0.04354
2046 358244.000  -2408362.1025   4698440.9981   3566498.7000   4   8   0.2876   0.3505   0.3357  -0.1677   0.1670  -0.1189   0.00    0.0    1.11477    2.28017   -2.09621   0.03243  0.02717  0.03223  0.01432 -0.02135  0.01576   -0.01762    0.82925  219.89820   0.02772  0.02682  0.45247 -0.00459  0.03041  0.04379
2046 358245.000  -2408361.0956   4698443.1223   3566496.6718   4   7   0.2903   0.3526   0.3384  -0.1673   0.1650  -0.1174   0.00    0.0    0.97015    2.05924   -1.90932   0.03286  0.02740  0.03257  0.01441 -0.02161  0.01626    0.29092    0.91790  218.66196   0.02773  0.02682  0.45300 -0.00448  0.03071  0.04419
2046 358246.000  -2408360.2259   4698445.0381   3566494.8265   4   7   0.2927   0.3543   0.3408  -0.1671   0.1633  -0.1160   0.00    0.0    0.89355    1.89086   -1.77931   0.03317  0.02755  0.03279  0.01449 -0.02177  0.01661    0.41635    0.55892  218.81047   0.02772  0.02680  0.45352 -0.00435  0.03118  0.04474
2046 358247.000  -2408359.2710   4698447.0876   3566492.8651   4   7   0.2946   0.3559   0.3428  -0.1669   0.1619  -0.1149   0.00    0.0    1.07373    2.25094   -2.12101   0.03283  0.02755  0.03274  0.01463 -0.02185  0.01593    0.39526    0.55263  219.14264   0.02771  0.02679  0.45401 -0.00420  0.03173  0.04539
2046 358248.000  -2408358.2377   4698449.5313   3566490.5697   4   8   0.2901   0.3536   0.3417  -0.1691   0.1599  -0.1136   0.00    0.0    1.28045    2.54735   -2.31419   0.03238  0.02727  0.03266  0.01422 -0.02177  0.01577    0.36268    0.61684  220.44662   0.02767  0.02669  0.45452 -0.00414  0.03225  0.04602
2046 358249.000  -2408356.9860   4698452.1439   3566488.2166   4   7   0.2903   0.3539   0.3417  -0.1692   0.1607  -0.1143   0.00    0.0    1.44940    2.65415   -2.35723   0.03248  0.02722  0.03270  0.01419 -0.02175  0.01587    0.36878    0.74808  222.51730   0.02763  0.02667  0.45506 -0.00397  0.03267  0.04653
2046 358250.000  -2408355.5518   4698454.8404   3566485.8104   4   8   0.2867   0.3519   0.3408  -0.1706   0.1588  -0.1130   0.00    0.0    1.48896    2.72981   -2.39585   0.03228  0.02707  0.03273  0.01386 -0.02175  0.01601    0.17770    0.75914  223.03314   0.02760  0.02661  0.45562 -0.00390  0.03300  0.04688
2046 358251.000  -2408354.0601   4698457.5256   3566483.3954   4   6   0.2981   0.3586   0.3452  -0.1668   0.1625  -0.1156   0.00    0.0    1.41991    2.69491   -2.45288   0.03336  0.02749  0.03293  0.01495 -0.02182  0.01613    0.24153    0.80261  221.79354   0.02762  0.02675  0.45618 -0.00356  0.03336  0.04712
2046 358252.000  -2408352.6426   4698460.2157   3566480.9236   4   6   0.3089   0.3650   0.3493  -0.1629   0.1664  -0.1184   0.00    0.0    1.37444    2.69555   -2.53854   0.03433  0.02785  0.03308  0.01589 -0.02185  0.01624    0.28893    0.92856  220.19059   0.02762  0.02685  0.45672 -0.00325  0.03367  0.04725
2046 358253.000  -2408351.2414   4698462.9569   3566478.3707   4   6   0.3190   0.3710   0.3530  -0.1591   0.1707  -0.1213   0.00    0.0    1.42228    2.73673   -2.54252   0.03513  0.02814  0.03325  0.01655 -0.02189  0.01640    0.25911    0.92544  220.46151   0.02760  0.02692  0.45723 -0.00298  0.03388  0.04728
2046 358254.000  -2408349.8360   4698465.7014   3566475.8188   4   6   0.3281   0.3766   0.3564  -0.1557   0.1750  -0.1243   0.00    0.0    1.40566    2.75524   -2.52210   0.03573  0.02838  0.03333  0.01710 -0.02189  0.01644    0.31345    0.86626  220.27228   0.02758  0.02696  0.45769 -0.00277  0.03399  0.04721
2046 358255.000  -2408348.4603   4698468.4600   3566473.2532   4   6   0.3361   0.3819   0.3595  -0.1529   0.1795  -0.1273   0.00    0.0    1.43004    2.78736   -2.55564   0.03624  0.02855  0.03341  0.01751 -0.02186  0.01654    0.11707    0.63413  219.82091   0.02755  0.02698  0.45810 -0.00262  0.03398  0.04706
2046 358256.000  -2408347.0367   4698471.3452   3566470.5286   4   6   0.3432   0.3867   0.3624  -0.1508   0.1840  -0.1303   0.00    0.0    1.50778    2.99217   -2.70589   0.03694  0.02864  0.03362  0.01786 -0.02180  0.01699    0.25373    0.91102  219.47556   0.02751  0.02699  0.45842 -0.00253  0.03383  0.04679
2046 358257.000  -2408345.5746   4698474.3047   3566467.7194   4   6   0.3493   0.3911   0.3650  -0.1494   0.1884  -0.1331   0.00    0.0    1.51664    2.97282   -2.80731   0.03725  0.02872  0.03362  0.01812 -0.02170  0.01702    0.31776    0.61037  219.80348   0.02747  0.02698  0.45864 -0.00252  0.03353  0.04641
2046 358258.000  -2408344.0675   4698477.3087   3566464.8857   4   6   0.3545   0.3951   0.3674  -0.1489   0.1928  -0.1360   0.00    0.0    1.54537    3.05455   -2.80638   0.03746  0.02877  0.03369  0.01820 -0.02168  0.01712    0.31119    0.51860  220.20324   0.02743  0.02696  0.45876 -0.00255  0.03310  0.04592
2046 358259.000  -2408342.5328   4698480.3314   3566462.0526   4   6   0.3588   0.3988   0.3696  -0.1491   0.1971  -0.1387   0.00    0.0    1.60123    3.03994   -2.78789   0.03745  0.02881  0.03371  0.01817 -0.02167  0.01708    0.25434    0.54631  220.63601   0.02739  0.02694  0.45877 -0.00263  0.03256  0.04533
2046 358260.000  -2408341.1335   4698483.3112   3566459.2724   4   7   0.3456   0.3939   0.3680  -0.1613   0.1950  -0.1373   0.00    0.0    1.55850    3.01006   -2.70040   0.03591  0.02833  0.03353  0.01681 -0.02168  0.01677    0.36461    0.56900  220.72807   0.02732  0.02673  0.45845 -0.00318  0.03118  0.04447
2046 358261.000  -2408339.7268   4698486.2646   3566456.5173   4   7   0.3358   0.3900   0.3665  -0.1687   0.1930  -0.1360   0.00    0.0    1.55330    2.98153   -2.70099   0.03494  0.02799  0.03339  0.01593 -0.02166  0.01661    0.23737    0.64598  220.77697   0.02727  0.02661  0.45820 -0.00348  0.03006  0.04363
2046 358262.000  -2408338.3781   4698489.2337   3566453.8020   4   7   0.3255   0.3853   0.3633  -0.1750   0.1926  -0.1358   0.00    0.0    1.60258    2.90905   -2.69678   0.03398  0.02762  0.03313  0.01511 -0.02154  0.01635    0.21933    0.66575  221.84779   0.02719  0.02651  0.45793 -0.00368  0.02898  0.04270
2046 358263.000  -2408336.7546   4698492.1713   3566451.1254   4   6   0.3326   0.3897   0.3658  -0.1728   0.1963  -0.1383   0.00    0.0    1.59518    2.93743   -2.66578   0.03463  0.02790  0.03322  0.01580 -0.02159  0.01634    0.54517    0.81471  222.00401   0.02718  0.02660  0.45797 -0.00355  0.02875  0.04202
2046 358264.000  -2408335.1837   4698495.0983   3566448.4443   4   6   0.3391   0.3939   0.3681  -0.1708   0.1999  -0.1409   0.00    0.0    1.53783    2.92109   -2.66811   0.03516  0.02815  0.03323  0.01645 -0.02159  0.01623    0.43798    0.46635  221.09548   0.02717  0.02668  0.45799 -0.00346  0.02845  0.04129
2046 358265.000  -2408333.6855   4698498.0104   3566445.7227   4   6   0.3449   0.3977   0.3703  -0.1692   0.2034  -0.1435   0.00    0.0    1.50471    2.93821   -2.68776   0.03563  0.02835  0.03325  0.01697 -0.02159  0.01617    0.35667    0.41139  220.55758   0.02715  0.02673  0.45801 -0.00339  0.02805  0.04054
2046 358266.000  -2408332.1533   4698501.0037   3566442.9162   4   6   0.3500   0.4013   0.3723  -0.1679   0.2068  -0.1460   0.00    0.0    1.59316    3.06428   -2.81825   0.03621  0.02848  0.03340  0.01736 -0.02158  0.01641    0.46166    0.66438  220.24267   0.02712  0.02677  0.45800 -0.00336  0.02755  0.03975
2046 358267.000  -2408330.7452   4698504.0001   3566440.0933   4   7   0.3393   0.3966   0.3703  -0.1748   0.2037  -0.1440   0.00    0.0    1.47055    2.89978   -2.70195   0.03501  0.02819  0.03314  0.01652 -0.02159  0.01595    0.15921    0.88712  219.67439   0.02707  0.02663  0.45776 -0.00367  0.02621  0.03874
2046 358268.000  -2408329.3612   4698506.7933   3566437.4271   4   6   0.3448   0.4002   0.3721  -0.1730   0.2070  -0.1466   0.00    0.0    1.33144    2.70988   -2.50642   0.03526  0.02845  0.03305  0.01699 -0.02163  0.01565    0.21711    1.01283  219.14175   0.02705  0.02669  0.45788 -0.00360  0.02583  0.03800
2046 358269.000  -2408328.1395   4698509.3494   3566434.9530   4   6   0.3496   0.4037   0.3738  -0.1715   0.2102  -0.1493   0.00    0.0    1.17304    2.47333   -2.30955   0.03555  0.02867  0.03302  0.01736 -0.02166  0.01558    0.28106    0.89213  218.45870   0.02703  0.02673  0.45812 -0.00355  0.02544  0.03738
2046 358270.000  -2408327.0527   4698511.7254   3566432.6293   4   6   0.3537   0.4069   0.3753  -0.1704   0.2132  -0.1520   0.00    0.0    1.07877    2.46744   -2.36139   0.03586  0.02883  0.03307  0.01770 -0.02167  0.01558    0.39155    0.73084  217.62733   0.02701  0.02675  0.45848 -0.00351  0.02514  0.03692
2046 358271.000  -2408325.9033   4698514.2763   3566430.1339   4   6   0.3573   0.4098   0.3767  -0.1697   0.2161  -0.1543   0.00    0.0    1.20658    2.60138   -2.50874   0.03615  0.02889  0.03307  0.01797 -0.02162  0.01554    0.22116    0.88847  217.68268   0.02699  0.02676  0.45891 -0.00348  0.02483  0.03657
2046 358272.000  -2408324.7238   4698516.8502   3566427.6096   4   6   0.3605   0.4125   0.3781  -0.1694   0.2189  -0.1565   0.00    0.0    1.16847    2.51647   -2.37692   0.03632  0.02899  0.03307  0.01811 -0.02162  0.01555    0.04137    0.93295  217.81997   0.02697  0.02676  0.45938 -0.00348  0.02454  0.03630
2046 358273.000  -2408323.6666   4698519.2407   3566425.2238   4   6   0.3631   0.4150   0.3794  -0.1694   0.2215  -0.1585   0.00    0.0    1.03557    2.41213   -2.33587   0.03645  0.02910  0.03310  0.01824 -0.02164  0.01559    0.09033    0.65107  216.96165   0.02694  0.02676  0.45991 -0.00347  0.02431  0.03615
2046 358274.000  -2408322.6167   4698521.6312   3566422.8468   4   6   0.3653   0.4173   0.3805  -0.1698   0.2240  -0.1604   0.00    0.0    1.05508    2.34449   -2.26968   0.03657  0.02914  0.03308  0.01832 -0.02161  0.01562    0.42485    0.77177  217.30943   0.02693  0.02675  0.46048 -0.00347  0.02416  0.03613
2046 358275.000  -2408321.6333   4698523.8407   3566420.6745   4   6   0.3672   0.4194   0.3816  -0.1703   0.2263  -0.1622   0.00    0.0    0.95560    2.13362   -2.00740   0.03683  0.02923  0.03312  0.01838 -0.02160  0.01593    0.37913    0.64173  218.06040   0.02691  0.02674  0.46109 -0.00347  0.02415  0.03625
2046 358276.000  -2408320.6320   4698525.9958   3566418.5825   4   6   0.3687   0.4213   0.3826  -0.1711   0.2285  -0.1637   0.00    0.0    1.11853    2.25401   -2.09425   0.03680  0.02923  0.03304  0.01847 -0.02156  0.01565    0.43569    0.97352  218.64502   0.02690  0.02673  0.46173 -0.00346  0.02429  0.03649
2046 358277.000  -2408319.9004   4698528.2861   3566416.4840   4   7   0.3528   0.4137   0.3791  -0.1810   0.2233  -0.1600   0.00    0.0    1.14508    2.37655   -2.24097   0.03544  0.02869  0.03292  0.01725 -0.02156  0.01552    0.45705    0.74207  219.53920   0.02687  0.02655  0.46237 -0.00370  0.02447  0.03678
2046 358278.000  -2408318.7989   4698530.7649   3566414.2083   4   8   0.3319   0.4022   0.3726  -0.1900   0.2160  -0.1547   0.00    0.0    1.35566    2.64579   -2.42794   0.03397  0.02798  0.03273  0.01581 -0.02148  0.01545    0.03821    1.28600  220.55301   0.02683  0.02636  0.46302 -0.00390  0.02469  0.03703
2046 358279.000  -2408317.4724   4698533.4332   3566411.7690   4   8   0.3175   0.3930   0.3670  -0.1936   0.2093  -0.1499   0.00    0.0    1.47380    2.72416   -2.43147   0.03318  0.02758  0.03263  0.01499 -0.02149  0.01549    0.05704    0.85137  222.17313   0.02680  0.02627  0.46368 -0.00398  0.02489  0.03718
2046 358280.000  -2408315.9617   4698536.1846   3566409.3077   4   8   0.3072   0.3854   0.3622  -0.1946   0.2031  -0.1454   0.00    0.0    1.64961    2.82397   -2.44014   0.03280  0.02736  0.03267  0.01450 -0.02160  0.01562   -0.00047    0.69260  224.06682   0.02678  0.02623  0.46432 -0.00401  0.02505  0.03722
2046 358281.000  -2408314.3239   4698538.9854   3566406.8423   4   8   0.2995   0.3790   0.3582  -0.1942   0.1973  -0.1413   0.00    0.0    1.64848    2.82615   -2.47838   0.03262  0.02721  0.03260  0.01436 -0.02159  0.01568    0.14138    0.59162  224.18805   0.02677  0.02622  0.46495 -0.00402  0.02519  0.03713
2046 358282.000  -2408312.7139   4698541.8546   3566404.3017   4   8   0.2938   0.3736   0.3547  -0.1930   0.1919  -0.1374   0.00    0.0    1.57117    2.90131   -2.53215   0.03262  0.02710  0.03255  0.01440 -0.02156  0.01577    0.49870    0.31004  222.80086   0.02676  0.02621  0.46554 -0.00403  0.02530  0.03693
2046 358283.000  -2408311.2175   4698544.7919   3566401.6771   4   7   0.2952   0.3726   0.3547  -0.1904   0.1885  -0.1349   0.00    0.0    1.54302    2.97729   -2.67619   0.03321  0.02723  0.03271  0.01492 -0.02162  0.01601    0.84141    0.42456  221.27795   0.02677  0.02627  0.46611 -0.00398  0.02542  0.03670
2046 358284.000  -2408309.7088   4698547.8837   3566398.8842   4   7   0.2967   0.3718   0.3546  -0.1878   0.1855  -0.1325   0.00    0.0    1.56506    3.13322   -2.82348   0.03381  0.02734  0.03291  0.01535 -0.02168  0.01635    0.77415    0.61570  220.68962   0.02676  0.02630  0.46662 -0.00396  0.02540  0.03635
2046 358285.000  -2408308.1274   4698551.0430   3566395.9722   4   9   0.2907   0.3643   0.3476  -0.1844   0.1820  -0.1299   0.00    0.0    1.59030    3.17183   -2.88943   0.03354  0.02702  0.03251  0.01528 -0.02137  0.01620    0.56469    0.77915  220.36442   0.02668  0.02623  0.46699 -0.00400  0.02500  0.03567
