% program   : GINav v0.1.0
% obs start : 2019/03/28 03:28:10.0
% obs end   : 2019/03/28 03:59:01.0
% mode      : PPD/INS TC
% system    : GPS 
% nfreqs    : 1
% elev mask : 15.0 deg
% ephemeris : broadcast
% ionos opt : broadcast model
% trops opt : Saastamoinen model
%
%  GPST              x-ecef(m)      y-ecef(m)      z-ecef(m)   Q  ns   sdx(m)   sdy(m)   sdz(m)  sdxy(m)  sdyz(m)  sdzx(m) age(s)  ratio    vx(m/s)    vy(m/s)    vz(m/s)      sdvx     sdvy     sdvz    sdvxy    sdvyz    sdvzx pitch(deg)  roll(deg)   yaw(deg)       sdp      sdr      sdy     sdpr     sdry     sdyp
2046 358097.000  -2408691.0211   4698108.4418   3566698.3462   3   0  25.9956  29.0088  29.8845 -10.7365   1.3054  -0.9347   0.00    0.0    1.46918    0.91718   -0.16143  10.00000 10.00000 10.00000 -0.00000 -0.00000 -0.00000    0.00000    0.00000  262.88144   0.30000  0.30000  0.50000  0.00000  0.00000  0.00000
2046 358098.000  -2408689.3912   4698109.5680   3566698.0356   4   8   0.7393   1.2225   0.9871  -0.7302   0.8354  -0.4876   0.00    0.0    1.60201    0.99145   -0.27243   9.32076  9.44354  9.48523 -1.26498  0.18036 -0.12260   -0.19198    0.03523  259.45053   0.30002  0.30002  0.50001  0.00000 -0.00017 -0.00310
2046 358099.000  -2408687.7311   4698110.7552   3566697.6262   4   8   0.7352   1.2107   0.9797  -0.7220   0.8247  -0.4803   0.00    0.0    1.66415    1.13743   -0.37795   1.03145  1.68829  1.37254 -1.00385  1.14544 -0.66501   -0.69357   -2.07704  259.21318   0.30004  0.30004  0.50003  0.00007  0.00028 -0.00440
2046 358100.000  -2408685.8663   4698111.9401   3566697.2699   4   8   0.6741   1.1132   0.8992  -0.6647   0.7599  -0.4433   0.00    0.0    1.95461    1.27900   -0.36910   0.52519  0.86087  0.69820 -0.51154  0.58509 -0.34072    0.36494    1.73154  259.98359   0.29994  0.29985  0.50005  0.00356  0.00274 -0.00572
2046 358101.000  -2408683.8053   4698113.2714   3566696.9441   4   8   0.6194   1.0226   0.8258  -0.6104   0.6979  -0.4073   0.00    0.0    2.11558    1.23292   -0.16316   0.34556  0.55264  0.45141 -0.32308  0.36918 -0.21438    0.49440    1.16895  262.83201   0.29935  0.29879  0.50007  0.00864  0.00577 -0.00802
2046 358102.000  -2408681.6458   4698114.5520   3566696.7674   4   8   0.5768   0.9489   0.7670  -0.5653   0.6461  -0.3769   0.00    0.0    2.23836    1.11954    0.04450   0.26917  0.40404  0.33699 -0.22520  0.25585 -0.14667    0.44688    0.81092  268.00508   0.29757  0.29573  0.50009  0.01561  0.01156 -0.01110
2046 358103.000  -2408679.3397   4698115.7520   3566696.7916   4   8   0.5460   0.8904   0.7217  -0.5277   0.6025  -0.3509   0.00    0.0    2.38918    1.01435    0.24203   0.23870  0.32626  0.28234 -0.16584  0.18452 -0.10145    0.37741    0.87626  272.72627   0.29367  0.28934  0.50011  0.02369  0.01993 -0.01482
2046 358104.000  -2408676.8460   4698116.9162   3566696.9931   4   8   0.5260   0.8451   0.6887  -0.4964   0.5653  -0.3279   0.00    0.0    2.58253    0.98647    0.44295   0.22771  0.28543  0.25815 -0.12893  0.13483 -0.06500    0.03709    1.24409  276.82483   0.28682  0.27903  0.50010  0.03123  0.02942 -0.01899
2046 358105.000  -2408674.2587   4698118.1773   3566697.3286   4   9   0.4828   0.7794   0.6658  -0.4275   0.5293  -0.3010   0.00    0.0    2.68896    0.96099    0.54955   0.21523  0.25864  0.24760 -0.09671  0.10370 -0.03477   -0.15069    1.25246  279.68898   0.27631  0.26564  0.50009  0.03320  0.03821 -0.02272
2046 358106.000  -2408671.3809   4698119.2806   3566697.7749   4   8   0.4901   0.7677   0.6512  -0.4283   0.5048  -0.2844   0.00    0.0    2.90253    0.93587    0.58318   0.21150  0.25035  0.24131 -0.10122  0.08746  0.02220    0.03816    1.41876  282.14125   0.26502  0.25224  0.50009  0.03787  0.04504 -0.02617
2046 358107.000  -2408668.3843   4698120.4074   3566698.2929   4   8   0.4933   0.7591   0.6418  -0.4286   0.4876  -0.2719   0.00    0.0    2.96969    0.91536    0.68951   0.20251  0.24475  0.23470 -0.10738  0.08905  0.02230    0.01007    1.24679  283.65316   0.25285  0.24022  0.50010  0.03675  0.04961 -0.02854
2046 358108.000  -2408665.3618   4698121.5291   3566698.8548   4   8   0.4926   0.7534   0.6354  -0.4291   0.4781  -0.2651   0.00    0.0    2.97783    0.96115    0.68051   0.19089  0.23979  0.22685 -0.11284  0.09993 -0.02297    0.17558    1.44323  283.90722   0.24170  0.23070  0.50014  0.03324  0.05204 -0.02974
2046 358109.000  -2408662.3512   4698122.6833   3566699.4144   4   8   0.4894   0.7500   0.6307  -0.4300   0.4753  -0.2636   0.00    0.0    2.99759    0.99777    0.67412   0.17872  0.23475  0.21786 -0.11681  0.11165 -0.04328    0.01321    1.28024  284.28361   0.23255  0.22369  0.50019  0.02905  0.05271 -0.03012
2046 358110.000  -2408659.3047   4698123.7402   3566700.0077   4   7   0.4894   0.8396   0.6280  -0.4603   0.4927  -0.2708   0.00    0.0    3.04890    0.91709    0.69805   0.16716  0.24796  0.20814 -0.12267  0.11996 -0.05546   -0.13837    1.43698  285.26033   0.22625  0.21925  0.50025  0.01848  0.05235 -0.03022
2046 358111.000  -2408656.2769   4698124.9438   3566700.6284   4   8   0.4823   0.7948   0.6240  -0.4495   0.4915  -0.2734   0.00    0.0    3.07620    1.02486    0.60136   0.15609  0.22895  0.19821 -0.12066  0.12654 -0.06329   -0.09506    1.29297  284.40379   0.22042  0.21529  0.50030  0.01992  0.05116 -0.03012
2046 358112.000  -2408653.1942   4698126.1606   3566701.2178   4   8   0.4753   0.7698   0.6193  -0.4431   0.4909  -0.2759   0.00    0.0    3.12073    1.07190    0.64827   0.14587  0.21647  0.18795 -0.11805  0.12818 -0.06719   -0.19689    1.30412  283.77350   0.21639  0.21273  0.50035  0.01770  0.04954 -0.03060
2046 358113.000  -2408650.0753   4698127.3106   3566701.8014   4   7   0.4745   0.8447   0.6162  -0.4704   0.5117  -0.2855   0.00    0.0    3.13726    1.11184    0.57462   0.13706  0.22288  0.17783 -0.11959  0.12964 -0.06935   -0.10340    1.39372  283.35110   0.21369  0.21129  0.50038  0.01050  0.04792 -0.03187
2046 358114.000  -2408646.9864   4698128.5350   3566702.3561   4   6   0.5017   0.9142   0.6265  -0.5168   0.5484  -0.3291   0.00    0.0    3.11785    1.11488    0.59646   0.13434  0.22479  0.17023 -0.12363  0.13240 -0.07709    0.01384    1.11198  282.93288   0.21158  0.21024  0.50040  0.00631  0.04620 -0.03311
2046 358115.000  -2408643.8964   4698129.7411   3566702.9659   4   6   0.5195   0.9633   0.6330  -0.5512   0.5772  -0.3588   0.00    0.0    3.13532    1.05400    0.66395   0.12951  0.22150  0.16208 -0.12402  0.13222 -0.07972   -0.00850    1.27974  284.63699   0.20993  0.20933  0.50040  0.00085  0.04425 -0.03444
2046 358116.000  -2408640.7762   4698130.9122   3566703.6522   4   6   0.5290   0.9935   0.6352  -0.5736   0.5966  -0.3773   0.00    0.0    3.20232    1.04246    0.75078   0.12358  0.21469  0.15380 -0.12159  0.12960 -0.07928   -0.06224    1.21979  285.74426   0.20862  0.20859  0.50040 -0.00480  0.04235 -0.03575
2046 358117.000  -2408637.7164   4698132.2737   3566704.4233   4   8   0.4626   0.9245   0.6118  -0.4922   0.5627  -0.3307   0.00    0.0    3.20293    1.10214    0.73145   0.10639  0.19311  0.14259 -0.10229  0.11913 -0.06802   -0.19361    1.73533  285.16224   0.20729  0.20793  0.50039 -0.00583  0.04041 -0.03736
2046 358118.000  -2408634.5177   4698133.4401   3566705.0978   4   6   0.4804   0.9482   0.6126  -0.5214   0.5761  -0.3498   0.00    0.0    3.20301    1.12345    0.74943   0.10439  0.18799  0.13577 -0.10309  0.11605 -0.06856   -0.20346    1.62176  284.74286   0.20658  0.20751  0.50040 -0.00687  0.03883 -0.03859
2046 358119.000  -2408631.3486   4698134.6399   3566705.8127   4   7   0.4646   0.9493   0.5958  -0.5173   0.5661  -0.3309   0.00    0.0    3.20408    1.10731    0.74716   0.09719  0.17980  0.12693 -0.09813  0.10956 -0.06261   -0.00200    1.64961  285.18296   0.20587  0.20712  0.50040 -0.00859  0.03710 -0.04015
2046 358120.000  -2408628.1956   4698135.8188   3566706.5619   4   7   0.4532   0.9456   0.5825  -0.5130   0.5574  -0.3184   0.00    0.0    3.19228    1.07428    0.82853   0.09152  0.17166  0.11945 -0.09356  0.10376 -0.05844   -0.08845    1.47479  285.80183   0.20525  0.20681  0.50040 -0.00929  0.03551 -0.04161
2046 358121.000  -2408625.0340   4698136.9783   3566707.3186   4   7   0.4441   0.9386   0.5712  -0.5080   0.5493  -0.3094   0.00    0.0    3.22853    1.08267    0.76941   0.08671  0.16380  0.11290 -0.08914  0.09852 -0.05514   -0.17836    1.53372  285.68134   0.20470  0.20655  0.50041 -0.00966  0.03398 -0.04300
2046 358122.000  -2408621.8532   4698138.1419   3566708.0721   4   7   0.4364   0.9296   0.5613  -0.5026   0.5415  -0.3024   0.00    0.0    3.21631    1.08410    0.87583   0.08252  0.15638  0.10704 -0.08501  0.09365 -0.05233   -0.22605    1.49160  285.80395   0.20418  0.20631  0.50042 -0.00996  0.03246 -0.04437
2046 358123.000  -2408618.6149   4698139.3123   3566708.8102   4   7   0.4296   0.9194   0.5523  -0.4968   0.5340  -0.2968   0.00    0.0    3.26087    1.12797    0.80895   0.07876  0.14941  0.10175 -0.08105  0.08917 -0.04983   -0.21624    1.49880  285.16447   0.20369  0.20608  0.50043 -0.01031  0.03092 -0.04575
2046 358124.000  -2408615.3571   4698140.5216   3566709.4922   4   7   0.4235   0.9087   0.5440  -0.4908   0.5267  -0.2919   0.00    0.0    3.26940    1.17990    0.78510   0.07531  0.14288  0.09688 -0.07738  0.08501 -0.04756   -0.23950    1.52454  283.56633   0.20322  0.20586  0.50044 -0.01076  0.02930 -0.04720
2046 358125.000  -2408612.0928   4698141.7700   3566710.1096   4   7   0.4178   0.8977   0.5361  -0.4848   0.5197  -0.2877   0.00    0.0    3.27512    1.16909    0.72480   0.07210  0.13680  0.09233 -0.07398  0.08114 -0.04549   -0.25605    1.36288  282.71857   0.20281  0.20567  0.50044 -0.01132  0.02753 -0.04871
2046 358126.000  -2408608.8795   4698143.0153   3566710.7067   4   7   0.4125   0.8867   0.5287  -0.4789   0.5129  -0.2838   0.00    0.0    3.21828    1.13544    0.69753   0.06918  0.13118  0.08817 -0.07079  0.07748 -0.04352   -0.12265    1.47210  282.60470   0.20246  0.20551  0.50043 -0.01195  0.02553 -0.05016
2046 358127.000  -2408605.6962   4698144.2340   3566711.3275   4   7   0.4075   0.8759   0.5216  -0.4731   0.5062  -0.2801   0.00    0.0    3.22177    1.09043    0.81208   0.06657  0.12597  0.08438 -0.06780  0.07395 -0.04156   -0.13913    1.17086  283.87610   0.20219  0.20538  0.50041 -0.01262  0.02326 -0.05147
2046 358128.000  -2408602.5100   4698145.3905   3566712.0166   4   7   0.4027   0.8654   0.5149  -0.4674   0.4997  -0.2766   0.00    0.0    3.22254    1.03831    0.84065   0.06429  0.12121  0.08098 -0.06488  0.07057 -0.03960   -0.25022    1.30646  285.01053   0.20200  0.20529  0.50041 -0.01332  0.02073 -0.05254
2046 358129.000  -2408599.2869   4698146.5395   3566712.7526   4   7   0.3983   0.8553   0.5085  -0.4618   0.4933  -0.2731   0.00    0.0    3.28750    1.03522    0.90459   0.06228  0.11680  0.07792 -0.06208  0.06733 -0.03766   -0.20180    1.47051  285.20205   0.20185  0.20523  0.50043 -0.01404  0.01794 -0.05341
2046 358130.000  -2408596.0345   4698147.7072   3566713.4772   4   7   0.3941   0.8456   0.5024  -0.4562   0.4871  -0.2697   0.00    0.0    3.28270    1.06261    0.87920   0.06048  0.11273  0.07515 -0.05939  0.06423 -0.03577   -0.08653    1.36081  284.89609   0.20175  0.20518  0.50047 -0.01476  0.01471 -0.05411
2046 358131.000  -2408592.7783   4698148.8782   3566714.2104   4   7   0.3902   0.8362   0.4966  -0.4508   0.4809  -0.2662   0.00    0.0    3.29005    1.01775    0.93844   0.05889  0.10895  0.07261 -0.05686  0.06124 -0.03391   -0.24967    1.47408  285.16468   0.20167  0.20514  0.50053 -0.01547  0.01065 -0.05468
2046 358132.000  -2408589.5169   4698150.0384   3566714.9507   4   7   0.3866   0.8272   0.4912  -0.4455   0.4749  -0.2628   0.00    0.0    3.27963    1.00365    0.91544   0.05747  0.10546  0.07033 -0.05442  0.05837 -0.03206   -0.18677    1.50796  285.19023   0.20162  0.20510  0.50060 -0.01617  0.00364 -0.05512
2046 358133.000  -2408586.2492   4698151.2024   3566715.6817   4   7   0.3832   0.8186   0.4860  -0.4403   0.4689  -0.2594   0.00    0.0    3.31232    0.99090    0.88973   0.05622  0.10219  0.06827 -0.05209  0.05560 -0.03026   -0.23633    1.62520  284.97544   0.20159  0.20506  0.50068 -0.01683 -0.00918 -0.05545
2046 358134.000  -2408582.9769   4698152.3757   3566716.3999   4   7   0.3800   0.8104   0.4811  -0.4352   0.4631  -0.2559   0.00    0.0    3.29136    1.02382    0.93217   0.05513  0.09916  0.06644 -0.04986  0.05290 -0.02844   -0.31280    1.66830  284.49056   0.20158  0.20502  0.50078 -0.01746 -0.01340 -0.05568
2046 358135.000  -2408579.6922   4698153.5808   3566717.0807   4   7   0.3770   0.8025   0.4765  -0.4303   0.4573  -0.2525   0.00    0.0    3.36254    1.08107    0.88824   0.05416  0.09627  0.06476 -0.04774  0.05031 -0.02670   -0.23702    1.51692  283.82778   0.20158  0.20499  0.50089 -0.01803 -0.01653 -0.05582
2046 358136.000  -2408576.3237   4698154.8351   3566717.7572   4   7   0.3743   0.7948   0.4721  -0.4254   0.4516  -0.2490   0.00    0.0    3.43221    1.07556    0.89381   0.05331  0.09357  0.06323 -0.04575  0.04777 -0.02496   -0.26933    1.51092  283.50400   0.20160  0.20495  0.50100 -0.01852 -0.01900 -0.05591
2046 358137.000  -2408572.9083   4698156.1194   3566718.4279   4   7   0.3717   0.7875   0.4680  -0.4207   0.4459  -0.2455   0.00    0.0    3.46426    1.08827    0.90406   0.05259  0.09106  0.06188 -0.04383  0.04526 -0.02319   -0.38144    1.42293  283.32354   0.20165  0.20491  0.50113 -0.01891 -0.02102 -0.05596
2046 358138.000  -2408569.5378   4698157.4046   3566719.0531   4   7   0.3694   0.7804   0.4641  -0.4161   0.4404  -0.2421   0.00    0.0    3.32283    1.08674    0.83445   0.05196  0.08876  0.06073 -0.04196  0.04281 -0.02140   -0.25003    1.31350  282.43801   0.20171  0.20488  0.50127 -0.01917 -0.02277 -0.05593
2046 358139.000  -2408566.2987   4698158.6927   3566719.5939   4   7   0.3672   0.7737   0.4604  -0.4116   0.4348  -0.2386   0.00    0.0    3.22961    1.08502    0.73900   0.05148  0.08656  0.05976 -0.04017  0.04036 -0.01964   -0.23772    1.28972  280.72236   0.20178  0.20486  0.50141 -0.01929 -0.02446 -0.05580
2046 358140.000  -2408563.1219   4698160.0211   3566720.0507   4   7   0.3652   0.7671   0.4570  -0.4073   0.4293  -0.2351   0.00    0.0    3.17284    1.11176    0.70239   0.05122  0.08451  0.05899 -0.03839  0.03783 -0.01776   -0.13048    0.96018  279.82509   0.20187  0.20484  0.50154 -0.01922 -0.02613 -0.05552
2046 358141.000  -2408560.0290   4698161.5316   3566720.5175   4   8   0.3477   0.7296   0.4528  -0.3737   0.4161  -0.2247   0.00    0.0    3.27573    1.12612    0.73503   0.04995  0.08027  0.05832 -0.03369  0.03502 -0.01532   -0.18403    1.19384  279.98372   0.20191  0.20482  0.50166 -0.01892 -0.02766 -0.05502
2046 358142.000  -2408556.7906   4698162.9555   3566721.0652   4   8   0.3359   0.7028   0.4493  -0.3494   0.4057  -0.2166   0.00    0.0    3.36484    1.06256    0.93624   0.04914  0.07722  0.05768 -0.03010  0.03232 -0.01252   -0.43951    1.22454  283.05130   0.20190  0.20476  0.50179 -0.01841 -0.02884 -0.05442
2046 358143.000  -2408553.4090   4698164.0739   3566721.7760   4   7   0.3392   0.7052   0.4467  -0.3539   0.4018  -0.2146   0.00    0.0    3.33950    0.89165    1.09015   0.04912  0.07640  0.05691 -0.02991  0.03000 -0.00959   -0.52651    1.37104  286.71977   0.20182  0.20466  0.50195 -0.01761 -0.02946 -0.05390
2046 358144.000  -2408550.1375   4698165.0578   3566722.6213   4   7   0.3419   0.7068   0.4442  -0.3574   0.3977  -0.2123   0.00    0.0    3.28224    0.75502    1.17397   0.04874  0.07541  0.05599 -0.02977  0.02789 -0.00625   -0.30149    1.37014  289.77875   0.20168  0.20451  0.50211 -0.01674 -0.02934 -0.05351
2046 358145.000  -2408546.8392   4698166.0401   3566723.5171   4   7   0.3439   0.7076   0.4418  -0.3600   0.3937  -0.2098   0.00    0.0    3.31141    0.85578    1.26550   0.04838  0.07436  0.05512 -0.02944  0.02556  0.00158   -0.42221    1.50183  289.41570   0.20153  0.20435  0.50225 -0.01592 -0.02857 -0.05325
2046 358146.000  -2408543.5437   4698167.0609   3566724.3748   4   7   0.3453   0.7077   0.4394  -0.3617   0.3896  -0.2074   0.00    0.0    3.31449    0.86078    1.11542   0.04792  0.07321  0.05442 -0.02900  0.02323  0.00621   -0.39481    1.32408  288.41005   0.20140  0.20419  0.50237 -0.01526 -0.02736 -0.05302
2046 358147.000  -2408540.3636   4698168.5296   3566725.2194   4   9   0.3308   0.6276   0.4349  -0.3219   0.3669  -0.1966   0.00    0.0    3.30361    0.93714    1.07393   0.04664  0.06612  0.05383 -0.02497  0.02091  0.00807   -0.27936    1.27777  287.18605   0.20118  0.20399  0.50245 -0.01413 -0.02587 -0.05255
2046 358148.000  -2408537.1063   4698169.6595   3566725.9557   4   8   0.3227   0.6198   0.4325  -0.3077   0.3617  -0.1918   0.00    0.0    3.31043    0.96190    1.02130   0.04574  0.06509  0.05327 -0.02261  0.01861  0.00951   -0.11747    1.30552  286.38331   0.20110  0.20386  0.50255 -0.01424 -0.02438 -0.05203
2046 358149.000  -2408533.8571   4698170.8203   3566726.6585   4   8   0.3165   0.6135   0.4302  -0.2963   0.3568  -0.1873   0.00    0.0    3.24996    1.02807    0.89972   0.04496  0.06408  0.05277 -0.02062  0.01629  0.01068   -0.38002    1.09044  285.90657   0.20100  0.20375  0.50266 -0.01433 -0.02302 -0.05139
2046 358150.000  -2408530.6753   4698172.1648   3566727.3538   4   9   0.3109   0.5683   0.4271  -0.2784   0.3433  -0.1815   0.00    0.0    3.20665    0.99927    0.97398   0.04438  0.06002  0.05219 -0.01906  0.01411  0.01171   -0.20385    1.56076  285.44983   0.20086  0.20354  0.50279 -0.01368 -0.02182 -0.05066
2046 358151.000  -2408527.4616   4698173.4518   3566728.0199   4   9   0.3068   0.5375   0.4243  -0.2656   0.3329  -0.1766   0.00    0.0    3.29792    1.04178    0.87813   0.04373  0.05718  0.05161 -0.01777  0.01192  0.01228   -0.33706    1.59942  285.08198   0.20071  0.20336  0.50294 -0.01339 -0.02084 -0.04987
2046 358152.000  -2408524.1526   4698174.7257   3566728.6723   4   9   0.3035   0.5152   0.4218  -0.2560   0.3243  -0.1724   0.00    0.0    3.36438    1.11453    0.91707   0.04316  0.05511  0.05103 -0.01668  0.00935  0.01281   -0.30724    1.83751  284.59217   0.20055  0.20319  0.50311 -0.01326 -0.01999 -0.04914
2046 358153.000  -2408520.8874   4698175.9865   3566729.2622   4   9   0.3008   0.4985   0.4193  -0.2485   0.3169  -0.1686   0.00    0.0    3.19894    1.08192    0.84187   0.04252  0.05352  0.05040 -0.01575  0.00673  0.01326   -0.43683    1.56843  284.08926   0.20038  0.20303  0.50330 -0.01318 -0.01941 -0.04847
2046 358154.000  -2408517.6847   4698177.1823   3566729.8472   4   9   0.2985   0.4856   0.4169  -0.2423   0.3104  -0.1652   0.00    0.0    3.23625    1.06054    0.84042   0.04195  0.05215  0.04973 -0.01494  0.00258  0.01354   -0.56917    1.51873  284.58636   0.20021  0.20287  0.50350 -0.01308 -0.01908 -0.04785
2046 358155.000  -2408514.4842   4698178.3715   3566730.4309   4   9   0.2965   0.4754   0.4144  -0.2373   0.3046  -0.1620   0.00    0.0    3.21636    1.06613    0.86141   0.04140  0.05097  0.04908 -0.01416 -0.00526  0.01378   -0.59076    1.40979  284.39517   0.20004  0.20273  0.50372 -0.01294 -0.01895 -0.04730
2046 358156.000  -2408511.2874   4698179.5860   3566730.9769   4   9   0.2947   0.4672   0.4120  -0.2330   0.2994  -0.1590   0.00    0.0    3.22814    1.12464    0.76504   0.04086  0.04984  0.04844 -0.01338 -0.00733  0.01386   -0.60988    1.26283  283.21388   0.19987  0.20259  0.50394 -0.01275 -0.01905 -0.04683
2046 358157.000  -2408508.0645   4698180.7673   3566731.4628   4   8   0.2931   0.4797   0.4097  -0.2315   0.2967  -0.1565   0.00    0.0    3.32889    1.20376    0.73084   0.04040  0.05036  0.04785 -0.01223 -0.00999  0.01388   -0.76761    0.88371  282.24771   0.19973  0.20254  0.50418 -0.01294 -0.01932 -0.04649
2046 358158.000  -2408504.6965   4698182.1737   3566731.9047   4   9   0.2915   0.4700   0.4074  -0.2281   0.2925  -0.1541   0.00    0.0    3.44322    1.32183    0.53619   0.04014  0.04881  0.04732 -0.01163 -0.01051  0.01402   -0.71595    0.97835  279.69843   0.19959  0.20243  0.50442 -0.01248 -0.01990 -0.04634
2046 358159.000  -2408501.2426   4698183.7664   3566732.1621   4   9   0.2902   0.4620   0.4051  -0.2251   0.2886  -0.1519   0.00    0.0    3.55134    1.60343    0.38690   0.04059  0.04758  0.04725 -0.01056 -0.01197  0.01453   -0.73215    0.95690  275.24646   0.19946  0.20234  0.50464 -0.01202 -0.02099 -0.04637
2046 358160.000  -2408497.6144   4698185.6391   3566732.1660   4   9   0.2891   0.4552   0.4031  -0.2224   0.2849  -0.1499   0.00    0.0    3.62553    1.88186   -0.02302   0.04277  0.04684  0.04802 -0.00785 -0.01470  0.01561   -0.54685    0.42468  269.44023   0.19928  0.20226  0.50479 -0.01154 -0.02314 -0.04637
2046 358161.000  -2408494.0660   4698187.8371   3566731.6988   4   8   0.2948   0.4544   0.4015  -0.2285   0.2804  -0.1465   0.00    0.0    3.40500    2.27102   -0.52128   0.04904  0.04772  0.05125  0.00763 -0.02077  0.01803   -0.14295    0.58372  259.24751   0.19887  0.20209  0.50476 -0.01082 -0.02690 -0.04525
2046 358162.000  -2408490.8008   4698190.3906   3566730.6040   4   8   0.3019   0.4541   0.4012  -0.2330   0.2757  -0.1432   0.00    0.0    3.11223    2.54605   -1.10738   0.06009  0.05112  0.05881  0.01931 -0.03052  0.02216    0.21723    0.30352  249.02432   0.19771  0.20151  0.50425 -0.00994 -0.03311 -0.04022
2046 358163.000  -2408487.8777   4698193.1465   3566729.0382   4   8   0.3122   0.4544   0.4032  -0.2355   0.2694  -0.1390   0.00    0.0    2.78289    2.63161   -1.47661   0.07394  0.05759  0.07073  0.03024 -0.04265  0.02916   -0.03643    0.31075  242.22511   0.19479  0.19985  0.50304 -0.00825 -0.04160 -0.02273
2046 358164.000  -2408485.3248   4698195.9136   3566727.1923   4   8   0.3265   0.4559   0.4089  -0.2358   0.2602  -0.1322   0.00    0.0    2.44970    2.63002   -1.68500   0.08841  0.06596  0.08488  0.04004 -0.05507  0.03850    0.06878    0.30284  236.71573   0.18869  0.19605  0.50118 -0.00231 -0.05122  0.03877
2046 358165.000  -2408483.1132   4698198.7439   3566725.1072   4   9   0.3350   0.4530   0.4185  -0.2213   0.2500  -0.1260   0.00    0.0    2.24071    2.67690   -1.88833   0.10031  0.07407  0.09792  0.04811 -0.06576  0.04723    0.62803   -0.08504  232.84201   0.17816  0.18793  0.49900  0.01455 -0.06207  0.06620
2046 358166.000  -2408481.1077   4698201.6035   3566722.8468   4   9   0.3453   0.4522   0.4308  -0.2069   0.2369  -0.1140   0.00    0.0    2.01710    2.70612   -2.06772   0.10860  0.08014  0.10814  0.05249 -0.07373  0.05504    0.06520    0.78745  228.79192   0.16340  0.17594  0.49728  0.01988 -0.06978  0.08621
2046 358167.000  -2408479.4238   4698204.3589   3566720.4379   4   9   0.3544   0.4523   0.4431  -0.1944   0.2227  -0.0963   0.00    0.0    1.68695    2.64220   -2.23431   0.11258  0.08318  0.11467  0.05377 -0.07824  0.06084    0.18306    0.88272  224.78386   0.14590  0.16052  0.49634  0.02227 -0.07358  0.09983
2046 358168.000  -2408477.9695   4698207.0896   3566717.8597   4   7   0.3970   0.4523   0.4569  -0.1880   0.2093  -0.1125   0.00    0.0    1.44865    2.69981   -2.42298   0.11991  0.08506  0.11724  0.05796 -0.08028  0.06289    0.22418    0.63771  221.50214   0.13269  0.14415  0.49620 -0.00256 -0.07270  0.10602
2046 358169.000  -2408476.6535   4698209.8104   3566715.2282   4   7   0.4301   0.4515   0.4664  -0.1861   0.1995  -0.1298   0.00    0.0    1.34465    2.69487   -2.54074   0.12125  0.08423  0.11549  0.05854 -0.07929  0.06241    0.51587    0.42390  220.46277   0.11772  0.12695  0.49630 -0.01440 -0.07049  0.10979
2046 358170.000  -2408475.3961   4698212.4819   3566712.6455   4   7   0.4512   0.4500   0.4714  -0.1886   0.1946  -0.1450   0.00    0.0    1.34983    2.66288   -2.49744   0.11802  0.08152  0.11073  0.05660 -0.07616  0.06010    0.45168    0.51272  220.48028   0.10290  0.11055  0.49652 -0.01547 -0.06732  0.11084
2046 358171.000  -2408474.1983   4698215.1244   3566710.1599   4   8   0.4201   0.4533   0.4685  -0.2085   0.1864  -0.0850   0.00    0.0    1.41398    2.67907   -2.45424   0.10491  0.07598  0.10505  0.04421 -0.07175  0.06092    0.53339    0.14659  222.24293   0.08493  0.09647  0.49667  0.00951 -0.06362  0.10902
2046 358172.000  -2408472.8038   4698217.7859   3566707.7470   4   9   0.3890   0.4491   0.4615  -0.2000   0.1906  -0.0702   0.00    0.0    1.51480    2.71750   -2.46900   0.09311  0.07105  0.09688  0.03877 -0.06617  0.05523    0.49092    0.42388  223.98354   0.07289  0.08270  0.49661  0.01301 -0.05969  0.10595
2046 358173.000  -2408471.3307   4698220.5028   3566705.2994   4   9   0.3695   0.4449   0.4543  -0.1938   0.1941  -0.0604   0.00    0.0    1.45251    2.78238   -2.53976   0.08455  0.06644  0.08961  0.03511 -0.06083  0.05042    0.32148    0.53904  223.14817   0.06399  0.07205  0.49630  0.01137 -0.05684  0.10237
2046 358174.000  -2408469.8930   4698223.2451   3566702.7957   4   9   0.3557   0.4407   0.4471  -0.1891   0.1970  -0.0548   0.00    0.0    1.39872    2.77325   -2.54659   0.07797  0.06249  0.08318  0.03257 -0.05606  0.04634    0.36168    0.52281  222.00273   0.05703  0.06359  0.49574  0.00870 -0.05472  0.09857
2046 358175.000  -2408468.5028   4698226.0135   3566700.2135   4   8   0.3555   0.4365   0.4433  -0.1842   0.1986  -0.0856   0.00    0.0    1.32064    2.82468   -2.65534   0.07372  0.05933  0.07784  0.03184 -0.05230  0.04179    0.49947    0.35339  220.84510   0.05214  0.05677  0.49507  0.00493 -0.05315  0.09525
2046 358176.000  -2408467.1373   4698228.8172   3566697.6095   4   6   0.3889   0.4377   0.4405  -0.2043   0.1959  -0.0943   0.00    0.0    1.34253    2.82622   -2.63775   0.07438  0.05683  0.07372  0.03081 -0.04928  0.04059    0.57212    0.56218  220.95046   0.04854  0.05234  0.49440 -0.00900 -0.05332  0.09242
2046 358177.000  -2408465.7411   4698231.5966   3566695.0357   4   8   0.3737   0.4381   0.4333  -0.2131   0.1950  -0.0700   0.00    0.0    1.32732    2.78785   -2.64469   0.06822  0.05378  0.06934  0.02624 -0.04603  0.03872    0.45595    0.61198  220.87375   0.04377  0.04776  0.49284 -0.00777 -0.05158  0.08773
2046 358178.000  -2408464.3669   4698234.3657   3566692.4627   4   8   0.3628   0.4378   0.4264  -0.2181   0.1950  -0.0535   0.00    0.0    1.30347    2.80014   -2.63587   0.06339  0.05120  0.06530  0.02320 -0.04308  0.03650    0.46955    0.74121  220.49257   0.04025  0.04392  0.49132 -0.00748 -0.05040  0.08374
2046 358179.000  -2408462.9695   4698237.1974   3566689.8066   4   9   0.3442   0.4312   0.4185  -0.2070   0.2014  -0.0685   0.00    0.0    1.36136    3.00659   -2.83256   0.05793  0.04851  0.06105  0.02179 -0.03995  0.03266    0.44824    0.82753  219.87276   0.03751  0.04029  0.48978 -0.00716 -0.04942  0.08020
2046 358180.000  -2408461.4895   4698240.2678   3566686.9147   4   9   0.3307   0.4254   0.4118  -0.1991   0.2053  -0.0758   0.00    0.0    1.47567    3.12651   -2.98630   0.05382  0.04628  0.05757  0.02064 -0.03737  0.02975    0.39936    0.86086  219.68800   0.03538  0.03755  0.48830 -0.00731 -0.04912  0.07711
2046 358181.000  -2408459.9541   4698243.4730   3566683.8929   4   8   0.3282   0.4250   0.4068  -0.2046   0.2033  -0.0663   0.00    0.0    1.53002    3.29415   -3.16636   0.05118  0.04449  0.05506  0.01815 -0.03560  0.02861    0.44715    0.93822  219.41223   0.03371  0.03569  0.48687 -0.00775 -0.04934  0.07438
2046 358182.000  -2408458.3362   4698246.9251   3566680.6288   4   7   0.3402   0.4251   0.4019  -0.2152   0.2020  -0.0606   0.00    0.0    1.64313    3.58957   -3.35341   0.05024  0.04292  0.05290  0.01597 -0.03408  0.02795    0.39119    0.91857  219.42723   0.03256  0.03427  0.48566 -0.00868 -0.05022  0.07227
2046 358183.000  -2408456.6317   4698250.5088   3566677.2343   4   8   0.3385   0.4194   0.3962  -0.2107   0.2059  -0.0769   0.00    0.0    1.65893    3.58136   -3.37146   0.04824  0.04123  0.05020  0.01627 -0.03193  0.02567    0.35702    0.73300  219.42761   0.03159  0.03281  0.48441 -0.00889 -0.05102  0.07030
2046 358184.000  -2408454.9660   4698253.9978   3566673.9419   4   7   0.3468   0.4198   0.3920  -0.2206   0.2047  -0.0752   0.00    0.0    1.65487    3.49149   -3.28319   0.04740  0.04006  0.04819  0.01535 -0.03049  0.02477    0.41191    0.62845  219.89709   0.03083  0.03190  0.48308 -0.00915 -0.05179  0.06844
2046 358185.000  -2408453.2592   4698257.4814   3566670.6757   4   7   0.3530   0.4202   0.3878  -0.2289   0.2042  -0.0764   0.00    0.0    1.69623    3.44844   -3.24116   0.04636  0.03899  0.04634  0.01448 -0.02921  0.02373    0.27319    0.75560  220.45736   0.03023  0.03115  0.48163 -0.00922 -0.05246  0.06669
2046 358186.000  -2408451.6735   4698260.9131   3566667.5278   4   7   0.3506   0.4191   0.3859  -0.2302   0.2056  -0.0975   0.00    0.0    1.69781    3.44229   -3.18351   0.04456  0.03804  0.04463  0.01451 -0.02808  0.02154    0.43601    0.91578  220.67498   0.02981  0.03045  0.48014 -0.00894 -0.05279  0.06509
2046 358187.000  -2408450.0488   4698264.3401   3566664.3536   4   8   0.3383   0.4175   0.3817  -0.2282   0.2056  -0.0949   0.00    0.0    1.61994    3.36866   -3.19217   0.04217  0.03691  0.04290  0.01369 -0.02667  0.02046    0.42591    0.76337  220.18763   0.02940  0.02993  0.47822 -0.00861 -0.05293  0.06322
2046 358188.000  -2408448.4467   4698267.7136   3566661.2043   4   8   0.3288   0.4158   0.3777  -0.2263   0.2057  -0.0934   0.00    0.0    1.57225    3.37191   -3.12328   0.04040  0.03601  0.04143  0.01339 -0.02553  0.01947    0.39199    0.77546  219.88432   0.02917  0.02958  0.47631 -0.00838 -0.05302  0.06161
2046 358189.000  -2408446.8509   4698271.0510   3566658.0757   4   8   0.3212   0.4139   0.3739  -0.2242   0.2058  -0.0925   0.00    0.0    1.54690    3.31838   -3.11114   0.03901  0.03517  0.04012  0.01324 -0.02448  0.01865    0.47961    0.37938  220.20263   0.02907  0.02934  0.47438 -0.00819 -0.05300  0.06019
2046 358190.000  -2408445.2255   4698274.3244   3566655.0420   4   8   0.3150   0.4119   0.3703  -0.2221   0.2059  -0.0921   0.00    0.0    1.62454    3.24948   -3.01096   0.03805  0.03463  0.03903  0.01368 -0.02375  0.01772    0.32136    0.69732  220.94013   0.02908  0.02922  0.47234 -0.00802 -0.05283  0.05891
2046 358191.000  -2408443.5478   4698277.5712   3566652.0555   4   8   0.3098   0.4099   0.3670  -0.2200   0.2058  -0.0920   0.00    0.0    1.67907    3.23866   -2.98330   0.03714  0.03404  0.03808  0.01379 -0.02310  0.01697    0.38992    0.81732  221.57359   0.02917  0.02917  0.47018 -0.00785 -0.05250  0.05775
2046 358192.000  -2408441.8449   4698280.7912   3566649.1305   4   6   0.3269   0.4096   0.3660  -0.2275   0.2078  -0.1090   0.00    0.0    1.67998    3.19332   -2.91198   0.03816  0.03353  0.03730  0.01433 -0.02253  0.01624    0.49127    1.12139  221.72248   0.02938  0.02926  0.46855 -0.00791 -0.05244  0.05710
2046 358193.000  -2408440.1878   4698283.9937   3566646.1844   4   6   0.3432   0.4097   0.3652  -0.2356   0.2104  -0.1246   0.00    0.0    1.57532    3.18073   -2.93400   0.03884  0.03284  0.03659  0.01416 -0.02186  0.01591    0.41984    0.97506  220.72855   0.02961  0.02938  0.46671 -0.00789 -0.05210  0.05645
2046 358194.000  -2408438.5500   4698287.1744   3566643.2433   4   6   0.3585   0.4100   0.3646  -0.2442   0.2134  -0.1389   0.00    0.0    1.63886    3.17039   -2.87761   0.03953  0.03250  0.03611  0.01438 -0.02161  0.01524    0.38939    1.01845  221.23368   0.02986  0.02953  0.46471 -0.00782 -0.05150  0.05582
2046 358195.000  -2408436.8542   4698290.2930   3566640.3848   4   8   0.3412   0.4076   0.3611  -0.2375   0.2123  -0.1303   0.00    0.0    1.62344    3.00442   -2.78438   0.03799  0.03212  0.03551  0.01432 -0.02112  0.01531    0.61939    1.26702  222.01883   0.03009  0.02958  0.46135 -0.00745 -0.04981  0.05476
2046 358196.000  -2408435.1236   4698293.3854   3566637.5809   4   8   0.3284   0.4054   0.3581  -0.2319   0.2112  -0.1237   0.00    0.0    1.71864    3.09887   -2.77477   0.03657  0.03187  0.03523  0.01407 -0.02109  0.01509    0.30860    0.93880  222.86365   0.03037  0.02968  0.45836 -0.00718 -0.04816  0.05401
2046 358197.000  -2408433.3810   4698296.5097   3566634.7449   4   8   0.3185   0.4032   0.3555  -0.2271   0.2102  -0.1184   0.00    0.0    1.73904    3.11905   -2.82425   0.03557  0.03153  0.03499  0.01379 -0.02095  0.01521    0.27199    0.89325  221.93678   0.03067  0.02982  0.45565 -0.00698 -0.04648  0.05349
2046 358198.000  -2408431.7260   4698299.6370   3566631.8623   4   8   0.3107   0.4012   0.3532  -0.2230   0.2091  -0.1137   0.00    0.0    1.59563    3.09423   -2.88947   0.03490  0.03107  0.03471  0.01343 -0.02061  0.01570    0.59243    0.82757  220.53376   0.03098  0.02997  0.45321 -0.00681 -0.04470  0.05317
2046 358199.000  -2408430.1512   4698302.7596   3566628.9531   4   7   0.3161   0.4005   0.3513  -0.2256   0.2086  -0.1125   0.00    0.0    1.58330    3.09202   -2.85134   0.03538  0.03088  0.03462  0.01345 -0.02062  0.01612    0.30676    0.94059  220.17151   0.03128  0.03016  0.45132 -0.00667 -0.04307  0.05302
2046 358200.000  -2408428.5775   4698305.8338   3566626.0817   4   7   0.3209   0.3999   0.3496  -0.2279   0.2079  -0.1113   0.00    0.0    1.58735    3.05642   -2.77759   0.03585  0.03077  0.03458  0.01358 -0.02070  0.01648    0.41625    1.54489  220.26244   0.03158  0.03033  0.44953 -0.00653 -0.04118  0.05297
2046 358201.000  -2408427.0740   4698308.9050   3566623.2255   4   9   0.3052   0.3930   0.3479  -0.2136   0.2084  -0.1110   0.00    0.0    1.55574    3.06916   -2.82282   0.03482  0.03040  0.03443  0.01406 -0.02051  0.01618    0.33817    1.77681  219.97016   0.03185  0.03041  0.44758 -0.00652 -0.03864  0.05311
2046 358202.000  -2408425.5140   4698311.9559   3566620.3481   4   8   0.2999   0.3916   0.3467  -0.2107   0.2064  -0.1062   0.00    0.0    1.58619    3.07576   -2.86629   0.03452  0.03031  0.03454  0.01390 -0.02072  0.01651    0.43404    1.64251  220.07405   0.03212  0.03051  0.44596 -0.00645 -0.03603  0.05329
2046 358203.000  -2408423.9330   4698315.0414   3566617.4493   4   8   0.2958   0.3902   0.3457  -0.2081   0.2044  -0.1017   0.00    0.0    1.60807    3.09949   -2.83793   0.03442  0.03027  0.03468  0.01387 -0.02097  0.01684    0.32433    1.58822  220.30619   0.03237  0.03060  0.44460 -0.00639 -0.03325  0.05354
2046 358204.000  -2408422.3138   4698318.1402   3566614.5497   4   8   0.2925   0.3889   0.3448  -0.2057   0.2024  -0.0974   0.00    0.0    1.71974    3.10575   -2.85390   0.03438  0.03026  0.03487  0.01385 -0.02129  0.01713    0.16128    1.69642  220.88516   0.03259  0.03067  0.44348 -0.00635 -0.03028  0.05382
2046 358205.000  -2408420.6718   4698321.2503   3566611.6424   4   8   0.2899   0.3875   0.3441  -0.2035   0.2003  -0.0933   0.00    0.0    1.67480    3.11733   -2.87892   0.03441  0.03016  0.03499  0.01377 -0.02143  0.01756    0.31994    1.63931  220.74221   0.03278  0.03072  0.44257 -0.00633 -0.02705  0.05410
2046 358206.000  -2408419.0730   4698324.3728   3566608.7153   4   8   0.2879   0.3862   0.3435  -0.2014   0.1982  -0.0891   0.00    0.0    1.59842    3.11658   -2.87493   0.03449  0.03007  0.03509  0.01374 -0.02155  0.01795    0.44910    1.44675  219.82696   0.03293  0.03074  0.44187 -0.00632 -0.02346  0.05437
2046 358207.000  -2408417.6177   4698327.5424   3566605.7422   4   9   0.2808   0.3809   0.3426  -0.1917   0.1983  -0.0899   0.00    0.0    1.55542    3.13493   -2.93993   0.03424  0.02981  0.03503  0.01415 -0.02143  0.01790    0.40030    1.41277  218.79158   0.03300  0.03073  0.44138 -0.00637 -0.01941  0.05462
2046 358208.000  -2408416.1389   4698330.6728   3566602.7056   4   8   0.2805   0.3800   0.3423  -0.1910   0.1958  -0.0848   0.00    0.0    1.51982    3.17545   -2.99062   0.03439  0.02972  0.03516  0.01397 -0.02159  0.01834    0.42256    1.30538  218.44751   0.03309  0.03069  0.44110 -0.00635 -0.01462  0.05484
2046 358209.000  -2408414.6704   4698333.8903   3566599.6244   4   9   0.2753   0.3755   0.3416  -0.1829   0.1955  -0.0850   0.00    0.0    1.63294    3.28534   -3.06678   0.03428  0.02950  0.03523  0.01421 -0.02160  0.01838    0.40148    1.22005  218.93529   0.03308  0.03063  0.44097 -0.00641 -0.00803  0.05496
2046 358210.000  -2408413.0839   4698337.2666   3566596.4193   4   9   0.2712   0.3716   0.3411  -0.1761   0.1947  -0.0842   0.00    0.0    1.70891    3.42066   -3.16863   0.03431  0.02930  0.03535  0.01435 -0.02161  0.01860    0.53731    1.29207  219.35945   0.03305  0.03055  0.44097 -0.00646  0.00831  0.05497
2046 358211.000  -2408411.3855   4698340.6814   3566593.1812   4   8   0.2728   0.3711   0.3410  -0.1772   0.1916  -0.0775   0.00    0.0    1.82183    3.43112   -3.21092   0.03458  0.02925  0.03559  0.01400 -0.02188  0.01915    0.27940    1.31023  220.05065   0.03305  0.03046  0.44105 -0.00646  0.01370  0.05491
2046 358212.000  -2408409.6443   4698344.0963   3566589.9410   4   8   0.2743   0.3707   0.3409  -0.1783   0.1886  -0.0710   0.00    0.0    1.80722    3.41048   -3.10379   0.03471  0.02925  0.03565  0.01375 -0.02210  0.01941    0.18166    1.10020  220.44944   0.03301  0.03034  0.44115 -0.00647  0.01706  0.05470
2046 358213.000  -2408407.8993   4698347.4467   3566586.7888   4   8   0.2758   0.3703   0.3408  -0.1792   0.1857  -0.0647   0.00    0.0    1.83911    3.36176   -3.06016   0.03480  0.02921  0.03570  0.01350 -0.02228  0.01963    0.31338    1.14684  220.99773   0.03292  0.03021  0.44124 -0.00650  0.01957  0.05436
2046 358214.000  -2408406.2114   4698350.7336   3566583.7042   4   8   0.2770   0.3698   0.3405  -0.1800   0.1830  -0.0587   0.00    0.0    1.75073    3.16649   -2.93294   0.03471  0.02918  0.03553  0.01336 -0.02235  0.01957    0.32360    1.15129  220.48616   0.03280  0.03007  0.44134 -0.00653  0.02159  0.05393
2046 358215.000  -2408404.6521   4698353.8481   3566580.7399   4   8   0.2781   0.3693   0.3401  -0.1807   0.1805  -0.0533   0.00    0.0    1.62535    3.06700   -2.85339   0.03465  0.02911  0.03538  0.01323 -0.02237  0.01958    0.41321    0.87627  220.14117   0.03265  0.02991  0.44146 -0.00656  0.02330  0.05347
2046 358216.000  -2408403.1656   4698356.8758   3566577.8447   4   8   0.2789   0.3688   0.3396  -0.1812   0.1782  -0.0484   0.00    0.0    1.54474    3.01769   -2.81996   0.03458  0.02902  0.03528  0.01307 -0.02239  0.01961    0.29693    0.78391  219.67570   0.03248  0.02974  0.44163 -0.00657  0.02480  0.05303
2046 358217.000  -2408401.7116   4698359.9275   3566574.9560   4   8   0.2790   0.3649   0.3399  -0.1746   0.1791  -0.0676   0.00    0.0    1.62197    3.04147   -2.77544   0.03452  0.02885  0.03509  0.01369 -0.02231  0.01895    0.55534    0.62640  220.74664   0.03220  0.02964  0.44180 -0.00656  0.02607  0.05248
2046 358218.000  -2408400.2026   4698362.9592   3566572.1042   4   7   0.2886   0.3619   0.3404  -0.1724   0.1798  -0.0830   0.00    0.0    1.60024    3.02586   -2.78132   0.03519  0.02871  0.03492  0.01436 -0.02219  0.01860    0.31613    0.73210  220.59095   0.03200  0.02960  0.44202 -0.00623  0.02735  0.05207
2046 358219.000  -2408398.7390   4698365.9453   3566569.2933   4   8   0.2871   0.3619   0.3397  -0.1748   0.1774  -0.0749   0.00    0.0    1.57526    3.05884   -2.79158   0.03486  0.02856  0.03491  0.01375 -0.02222  0.01891    0.60148    0.61886  220.27799   0.03182  0.02934  0.44229 -0.00633  0.02833  0.05174
2046 358220.000  -2408397.1949   4698369.0837   3566566.3431   4   8   0.2859   0.3619   0.3390  -0.1768   0.1751  -0.0673   0.00    0.0    1.71810    3.23764   -2.95000   0.03475  0.02838  0.03501  0.01324 -0.02222  0.01933    0.50050    0.72968  220.59947   0.03162  0.02910  0.44255 -0.00638  0.02914  0.05136
2046 358221.000  -2408395.5291   4698372.4042   3566563.2478   4   8   0.2849   0.3618   0.3383  -0.1783   0.1730  -0.0600   0.00    0.0    1.74690    3.35881   -3.15644   0.03476  0.02822  0.03501  0.01304 -0.02212  0.01968    0.57746    0.82541  220.17434   0.03141  0.02889  0.44277 -0.00639  0.02975  0.05087
2046 358222.000  -2408393.8692   4698375.7966   3566560.0472   4   8   0.2841   0.3617   0.3377  -0.1795   0.1711  -0.0531   0.00    0.0    1.77350    3.39572   -3.12467   0.03454  0.02811  0.03493  0.01272 -0.02212  0.01975    0.34932    0.83157  220.08989   0.03119  0.02870  0.44293 -0.00638  0.03014  0.05027
2046 358223.000  -2408392.2043   4698379.1352   3566556.8851   4   7   0.2928   0.3621   0.3370  -0.1845   0.1693  -0.0466   0.00    0.0    1.71855    3.32255   -3.08427   0.03494  0.02803  0.03475  0.01263 -0.02205  0.01989    0.44222    0.63234  220.03172   0.03103  0.02857  0.44310 -0.00604  0.03060  0.04975
2046 358224.000  -2408390.5755   4698382.3858   3566553.8132   4   7   0.3005   0.3625   0.3362  -0.1893   0.1678  -0.0413   0.00    0.0    1.66718    3.21495   -2.98124   0.03515  0.02795  0.03455  0.01245 -0.02202  0.01991    0.39882    0.92495  220.40399   0.03085  0.02844  0.44325 -0.00577  0.03090  0.04918
2046 358225.000  -2408388.9898   4698385.5661   3566550.8292   4   7   0.3027   0.3624   0.3367  -0.1902   0.1673  -0.0572   0.00    0.0    1.68506    3.14125   -2.88114   0.03493  0.02793  0.03438  0.01254 -0.02207  0.01940    0.57661    0.80572  221.05216   0.03058  0.02832  0.44332 -0.00580  0.03098  0.04842
2046 358226.000  -2408387.3509   4698388.6677   3566547.9472   4   6   0.3177   0.3631   0.3372  -0.1970   0.1673  -0.0714   0.00    0.0    1.70582    3.09851   -2.79812   0.03577  0.02789  0.03428  0.01278 -0.02207  0.01932    0.54263    0.92733  221.61186   0.03042  0.02829  0.44354 -0.00535  0.03140  0.04794
2046 358227.000  -2408385.7224   4698391.7424   3566545.0963   4   6   0.3319   0.3640   0.3377  -0.2041   0.1679  -0.0843   0.00    0.0    1.68190    3.07298   -2.80110   0.03652  0.02784  0.03416  0.01302 -0.02202  0.01924    0.43760    1.18755  221.20876   0.03025  0.02823  0.44376 -0.00494  0.03173  0.04746
2046 358228.000  -2408384.1298   4698394.8195   3566542.2307   4   6   0.3451   0.3651   0.3382  -0.2115   0.1690  -0.0963   0.00    0.0    1.69797    2.97900   -2.79111   0.03707  0.02776  0.03400  0.01311 -0.02197  0.01910    0.43779    1.06728  221.09836   0.03008  0.02816  0.44399 -0.00459  0.03198  0.04698
2046 358229.000  -2408382.6518   4698397.9130   3566539.3998   4   8   0.3293   0.3645   0.3368  -0.2074   0.1681  -0.0872   0.00    0.0    1.64329    3.08609   -2.79688   0.03559  0.02763  0.03386  0.01253 -0.02186  0.01894    0.39656    1.64638  221.11708   0.02979  0.02784  0.44408 -0.00518  0.03152  0.04620
2046 358230.000  -2408381.1909   4698400.9446   3566536.5863   4   8   0.3176   0.3640   0.3355  -0.2040   0.1674  -0.0797   0.00    0.0    1.56569    3.00139   -2.73152   0.03446  0.02755  0.03364  0.01216 -0.02176  0.01872    0.21605    1.24623  220.08029   0.02955  0.02761  0.44426 -0.00543  0.03127  0.04559
2046 358231.000  -2408379.8236   4698403.9533   3566533.7478   4   8   0.3086   0.3636   0.3344  -0.2010   0.1667  -0.0733   0.00    0.0    1.51171    3.02144   -2.73439   0.03373  0.02745  0.03348  0.01202 -0.02165  0.01858    0.48937   -0.18683  219.22860   0.02934  0.02743  0.44450 -0.00551  0.03109  0.04515
2046 358232.000  -2408378.3869   4698407.0050   3566530.8942   4   8   0.3015   0.3630   0.3334  -0.1983   0.1661  -0.0675   0.00    0.0    1.58311    3.02567   -2.81823   0.03325  0.02733  0.03335  0.01197 -0.02151  0.01851    0.43825    0.09552  220.59817   0.02916  0.02728  0.44476 -0.00549  0.03092  0.04481
2046 358233.000  -2408376.8346   4698410.0642   3566528.0722   4   8   0.2959   0.3625   0.3325  -0.1958   0.1655  -0.0622   0.00    0.0    1.68975    3.07840   -2.73557   0.03292  0.02725  0.03328  0.01187 -0.02147  0.01850    0.36661   -0.06007  221.82182   0.02899  0.02717  0.44505 -0.00542  0.03079  0.04451
2046 358234.000  -2408375.2737   4698413.1024   3566525.2764   4   8   0.2914   0.3620   0.3317  -0.1936   0.1649  -0.0572   0.00    0.0    1.56250    3.01236   -2.72801   0.03267  0.02721  0.03314  0.01204 -0.02138  0.01839    0.10188    0.17107  221.05910   0.02884  0.02707  0.44535 -0.00531  0.03068  0.04424
2046 358235.000  -2408373.8642   4698415.9911   3566522.5759   4   8   0.2878   0.3614   0.3309  -0.1914   0.1643  -0.0526   0.00    0.0    1.36756    2.81407   -2.60722   0.03241  0.02721  0.03299  0.01211 -0.02134  0.01827    0.49164   -0.18282  219.77368   0.02870  0.02699  0.44569 -0.00518  0.03061  0.04406
2046 358236.000  -2408372.5059   4698418.8086   3566519.8927   4   8   0.2849   0.3608   0.3302  -0.1894   0.1636  -0.0483   0.00    0.0    1.47349    2.65509   -2.67915   0.03226  0.02711  0.03283  0.01214 -0.02122  0.01820    0.36959    0.51698  219.60059   0.02857  0.02691  0.44607 -0.00504  0.03056  0.04395
2046 358237.000  -2408371.1313   4698421.6445   3566517.1895   4   7   0.2879   0.3603   0.3307  -0.1887   0.1637  -0.0595   0.00    0.0    1.44444    2.91060   -2.61467   0.03263  0.02710  0.03284  0.01260 -0.02124  0.01801    0.21195    0.67290  219.43479   0.02845  0.02689  0.44648 -0.00484  0.03062  0.04391
2046 358238.000  -2408369.7796   4698424.5261   3566514.4282   4   7   0.2907   0.3598   0.3313  -0.1882   0.1639  -0.0680   0.00    0.0    1.39933    2.92042   -2.72047   0.03287  0.02707  0.03278  0.01299 -0.02119  0.01781    0.35527    0.73976  218.56622   0.02834  0.02686  0.44689 -0.00467  0.03064  0.04389
2046 358239.000  -2408368.4325   4698427.4572   3566511.6061   4   7   0.2969   0.3563   0.3315  -0.1835   0.1670  -0.0847   0.00    0.0    1.39981    2.93352   -2.79898   0.03340  0.02692  0.03256  0.01386 -0.02094  0.01733    0.37074    0.77529  218.37061   0.02820  0.02688  0.44731 -0.00435  0.03072  0.04389
2046 358240.000  -2408367.0613   4698430.4133   3566508.7549   4   7   0.3028   0.3533   0.3319  -0.1798   0.1694  -0.0975   0.00    0.0    1.45243    2.96798   -2.88053   0.03387  0.02678  0.03240  0.01447 -0.02075  0.01699    0.45726    1.09844  218.68769   0.02807  0.02688  0.44770 -0.00410  0.03069  0.04387
2046 358241.000  -2408365.6959   4698433.3792   3566505.9386   4   7   0.3073   0.3540   0.3310  -0.1847   0.1684  -0.0900   0.00    0.0    1.41214    2.90500   -2.72159   0.03396  0.02669  0.03238  0.01392 -0.02074  0.01749    0.30562    0.91050  219.27299   0.02804  0.02679  0.44807 -0.00380  0.03043  0.04392
2046 358242.000  -2408364.4591   4698436.1513   3566503.3373   4   8   0.3000   0.3541   0.3301  -0.1842   0.1671  -0.0810   0.00    0.0    1.34121    2.68468   -2.46797   0.03320  0.02665  0.03231  0.01324 -0.02079  0.01761    0.04946    0.84597  220.14792   0.02795  0.02664  0.44842 -0.00394  0.03000  0.04388
2046 358243.000  -2408363.2680   4698438.6889   3566500.9433   4   9   0.2883   0.3509   0.3288  -0.1758   0.1683  -0.0797   0.00    0.0    1.24221    2.43896   -2.30679   0.03242  0.02654  0.03209  0.01323 -0.02063  0.01735    0.05540    0.96132  220.01683   0.02782  0.02653  0.44884 -0.00411  0.02977  0.04389
2046 358244.000  -2408362.1096   4698441.0139   3566498.7295   4   8   0.2878   0.3485   0.3278  -0.1720   0.1691  -0.0798   0.00    0.0    1.11591    2.27904   -2.09366   0.03259  0.02648  0.03199  0.01341 -0.02051  0.01747   -0.01685    0.82986  219.87645   0.02774  0.02650  0.44934 -0.00391  0.02988  0.04412
2046 358245.000  -2408361.0999   4698443.1336   3566496.6969   4   7   0.2937   0.3495   0.3273  -0.1769   0.1672  -0.0726   0.00    0.0    0.97144    2.05807   -1.90704   0.03318  0.02652  0.03213  0.01312 -0.02060  0.01817    0.29157    0.91847  218.64018   0.02774  0.02649  0.44987 -0.00355  0.03017  0.04450
2046 358246.000  -2408360.2292   4698445.0467   3566494.8471   4   7   0.2992   0.3505   0.3268  -0.1815   0.1654  -0.0657   0.00    0.0    0.89480    1.88973   -1.77743   0.03364  0.02654  0.03222  0.01287 -0.02066  0.01868    0.41686    0.55942  218.78872   0.02773  0.02647  0.45039 -0.00321  0.03062  0.04501
2046 358247.000  -2408359.2745   4698447.0947   3566492.8811   4   7   0.3040   0.3516   0.3264  -0.1858   0.1638  -0.0593   0.00    0.0    1.07463    2.24990   -2.11968   0.03344  0.02645  0.03207  0.01275 -0.02067  0.01828    0.39561    0.55303  219.12099   0.02772  0.02646  0.45090 -0.00288  0.03117  0.04561
2046 358248.000  -2408358.2503   4698449.5446   3566490.5928   4   8   0.2973   0.3518   0.3259  -0.1847   0.1623  -0.0534   0.00    0.0    1.28070    2.54622   -2.31246   0.03288  0.02638  0.03206  0.01253 -0.02070  0.01807    0.36323    0.61719  220.42389   0.02767  0.02638  0.45143 -0.00301  0.03173  0.04619
2046 358249.000  -2408356.9919   4698452.1546   3566488.2356   4   7   0.2981   0.3521   0.3267  -0.1849   0.1617  -0.0634   0.00    0.0    1.45021    2.65304   -2.35555   0.03297  0.02641  0.03218  0.01262 -0.02084  0.01791    0.36929    0.74869  222.49407   0.02763  0.02640  0.45197 -0.00299  0.03219  0.04666
2046 358250.000  -2408355.5599   4698454.8540   3566485.8326   4   8   0.2926   0.3522   0.3261  -0.1839   0.1605  -0.0571   0.00    0.0    1.48967    2.72875   -2.39401   0.03270  0.02638  0.03225  0.01241 -0.02089  0.01804    0.17824    0.75978  223.00978   0.02760  0.02635  0.45254 -0.00301  0.03255  0.04697
2046 358251.000  -2408354.0819   4698457.5351   3566483.4080   4   6   0.3061   0.3530   0.3269  -0.1893   0.1603  -0.0685   0.00    0.0    1.41907    2.69361   -2.45197   0.03367  0.02642  0.03226  0.01287 -0.02089  0.01809    0.24196    0.80265  221.76973   0.02760  0.02644  0.45310 -0.00247  0.03292  0.04719
2046 358252.000  -2408352.6789   4698460.2204   3566480.9267   4   6   0.3191   0.3540   0.3277  -0.1951   0.1607  -0.0793   0.00    0.0    1.37204    2.69399   -2.53855   0.03456  0.02644  0.03227  0.01325 -0.02087  0.01814    0.28924    0.92804  220.16599   0.02758  0.02651  0.45364 -0.00192  0.03323  0.04731
2046 358253.000  -2408351.2914   4698462.9546   3566478.3652   4   6   0.3315   0.3551   0.3285  -0.2012   0.1615  -0.0895   0.00    0.0    1.41847    2.73480   -2.54328   0.03530  0.02643  0.03232  0.01340 -0.02090  0.01824    0.25937    0.92444  220.43597   0.02756  0.02655  0.45414 -0.00133  0.03344  0.04732
2046 358254.000  -2408349.8994   4698465.6914   3566475.8052   4   6   0.3431   0.3563   0.3293  -0.2075   0.1627  -0.0991   0.00    0.0    1.40054    2.75288   -2.52347   0.03588  0.02643  0.03232  0.01353 -0.02090  0.01823    0.31371    0.86484  220.24569   0.02753  0.02658  0.45461 -0.00059  0.03354  0.04726
2046 358255.000  -2408348.5355   4698468.4426   3566473.2328   4   6   0.3538   0.3576   0.3302  -0.2139   0.1642  -0.1081   0.00    0.0    1.42382    2.78460   -2.55751   0.03640  0.02641  0.03234  0.01359 -0.02089  0.01828    0.11732    0.63239  219.79342   0.02750  0.02660  0.45502  0.00080  0.03353  0.04711
2046 358256.000  -2408347.1225   4698471.3203   3566470.5020   4   6   0.3637   0.3591   0.3311  -0.2202   0.1661  -0.1164   0.00    0.0    1.50058    2.98901   -2.70819   0.03713  0.02635  0.03250  0.01366 -0.02085  0.01865    0.25401    0.90905  219.44724   0.02747  0.02660  0.45535  0.00109  0.03338  0.04686
2046 358257.000  -2408345.6707   4698474.2735   3566467.6876   4   6   0.3726   0.3606   0.3320  -0.2263   0.1682  -0.1240   0.00    0.0    1.50862    2.96929   -2.80991   0.03747  0.02632  0.03247  0.01372 -0.02078  0.01865    0.31808    0.60821  219.77429   0.02743  0.02660  0.45558  0.00117  0.03308  0.04650
2046 358258.000  -2408344.1720   4698477.2724   3566464.8501   4   6   0.3805   0.3623   0.3330  -0.2322   0.1705  -0.1310   0.00    0.0    1.53679    3.05076   -2.80917   0.03774  0.02630  0.03252  0.01362 -0.02079  0.01871    0.31158    0.51634  220.17353   0.02738  0.02659  0.45570  0.00112  0.03264  0.04603
2046 358259.000  -2408342.6447   4698480.2916   3566462.0145   4   6   0.3875   0.3640   0.3340  -0.2378   0.1729  -0.1374   0.00    0.0    1.59227    3.03594   -2.79077   0.03779  0.02628  0.03253  0.01342 -0.02081  0.01865    0.25482    0.54400  220.60597   0.02734  0.02657  0.45572  0.00095  0.03208  0.04546
2046 358260.000  -2408341.2179   4698483.3062   3566459.2607   4   7   0.3763   0.3647   0.3323  -0.2363   0.1721  -0.1254   0.00    0.0    1.55350    3.00767   -2.70114   0.03664  0.02624  0.03243  0.01272 -0.02077  0.01871    0.36519    0.56819  220.70718   0.02729  0.02643  0.45555 -0.00114  0.03101  0.04473
2046 358261.000  -2408339.7940   4698486.2799   3566456.5230   4   7   0.3675   0.3654   0.3310  -0.2349   0.1714  -0.1155   0.00    0.0    1.55073    2.97999   -2.70029   0.03587  0.02622  0.03236  0.01232 -0.02072  0.01879    0.23806    0.64609  220.76197   0.02725  0.02634  0.45539 -0.00170  0.03005  0.04398
2046 358262.000  -2408338.4461   4698489.2873   3566453.8210   4   7   0.3537   0.3646   0.3318  -0.2283   0.1720  -0.1166   0.00    0.0    1.60137    2.90901   -2.69532   0.03482  0.02627  0.03231  0.01238 -0.02077  0.01823    0.21995    0.66650  221.83819   0.02717  0.02627  0.45512 -0.00254  0.02899  0.04300
2046 358263.000  -2408336.8369   4698492.2191   3566451.1381   4   6   0.3623   0.3660   0.3328  -0.2328   0.1740  -0.1238   0.00    0.0    1.59251    2.93696   -2.66496   0.03532  0.02632  0.03231  0.01267 -0.02078  0.01816    0.54578    0.81492  221.99087   0.02715  0.02633  0.45512 -0.00235  0.02859  0.04230
2046 358264.000  -2408335.2796   4698495.1403   3566448.4513   4   6   0.3702   0.3675   0.3338  -0.2373   0.1762  -0.1306   0.00    0.0    1.53383    2.92019   -2.66785   0.03571  0.02636  0.03224  0.01298 -0.02074  0.01802    0.43859    0.46606  221.07927   0.02712  0.02637  0.45511 -0.00220  0.02816  0.04157
2046 358265.000  -2408333.7933   4698498.0465   3566445.7250   4   6   0.3774   0.3690   0.3348  -0.2416   0.1785  -0.1370   0.00    0.0    1.49958    2.93686   -2.68792   0.03607  0.02639  0.03220  0.01321 -0.02070  0.01793    0.35730    0.41070  220.53895   0.02709  0.02640  0.45510 -0.00210  0.02765  0.04082
2046 358266.000  -2408332.2726   4698501.0344   3566442.9143   4   6   0.3839   0.3706   0.3357  -0.2457   0.1808  -0.1429   0.00    0.0    1.58694    3.06254   -2.81884   0.03655  0.02638  0.03231  0.01334 -0.02067  0.01812    0.46231    0.66335  220.22192   0.02706  0.02641  0.45509 -0.00204  0.02707  0.04004
2046 358267.000  -2408330.8436   4698504.0485   3566440.1078   4   7   0.3730   0.3709   0.3340  -0.2427   0.1796  -0.1310   0.00    0.0    1.46719    2.89888   -2.70109   0.03556  0.02639  0.03208  0.01298 -0.02059  0.01804    0.15992    0.88712  219.66012   0.02703  0.02631  0.45497 -0.00232  0.02600  0.03917
2046 358268.000  -2408329.4717   4698506.8358   3566437.4366   4   6   0.3795   0.3723   0.3349  -0.2463   0.1819  -0.1378   0.00    0.0    1.32696    2.70855   -2.50601   0.03566  0.02648  0.03194  0.01317 -0.02061  0.01768    0.21781    1.01240  219.12496   0.02700  0.02634  0.45506 -0.00225  0.02547  0.03841
2046 358269.000  -2408328.2617   4698509.3865   3566434.9583   4   6   0.3853   0.3738   0.3358  -0.2498   0.1841  -0.1442   0.00    0.0    1.16755    2.47159   -2.30951   0.03584  0.02656  0.03186  0.01329 -0.02061  0.01753    0.28176    0.89130  218.43993   0.02697  0.02635  0.45528 -0.00221  0.02499  0.03778
2046 358270.000  -2408327.1849   4698511.7580   3566432.6311   4   6   0.3904   0.3753   0.3366  -0.2532   0.1864  -0.1501   0.00    0.0    1.07240    2.46536   -2.36170   0.03605  0.02659  0.03187  0.01343 -0.02060  0.01748    0.39222    0.72971  217.60725   0.02695  0.02636  0.45563 -0.00217  0.02462  0.03732
2046 358271.000  -2408326.0436   4698514.3052   3566430.1331   4   6   0.3950   0.3768   0.3375  -0.2565   0.1886  -0.1553   0.00    0.0    1.19950    2.59905   -2.50935   0.03625  0.02655  0.03186  0.01353 -0.02054  0.01741    0.22183    0.88715  217.66178   0.02692  0.02635  0.45605 -0.00215  0.02429  0.03697
2046 358272.000  -2408324.8709   4698516.8756   3566427.6068   4   6   0.3991   0.3783   0.3384  -0.2596   0.1908  -0.1599   0.00    0.0    1.16093    2.51392   -2.37772   0.03636  0.02657  0.03183  0.01352 -0.02054  0.01738    0.04205    0.93147  217.79848   0.02690  0.02635  0.45652 -0.00213  0.02397  0.03669
2046 358273.000  -2408323.8200   4698519.2633   3566425.2191   4   6   0.4027   0.3798   0.3392  -0.2625   0.1930  -0.1642   0.00    0.0    1.02761    2.40936   -2.33681   0.03644  0.02661  0.03185  0.01353 -0.02054  0.01739    0.09098    0.64945  216.93974   0.02688  0.02633  0.45705 -0.00212  0.02374  0.03654
2046 358274.000  -2408322.7746   4698521.6514   3566422.8411   4   6   0.4059   0.3812   0.3401  -0.2653   0.1952  -0.1679   0.00    0.0    1.04688    2.34157   -2.27073   0.03652  0.02661  0.03182  0.01351 -0.02050  0.01740    0.42554    0.77009  217.28730   0.02686  0.02632  0.45762 -0.00210  0.02359  0.03651
2046 358275.000  -2408321.7944   4698523.8590   3566420.6685   4   6   0.4086   0.3827   0.3409  -0.2679   0.1972  -0.1713   0.00    0.0    0.94738    2.13057   -2.00843   0.03675  0.02666  0.03185  0.01350 -0.02048  0.01765    0.37986    0.64004  218.03822   0.02684  0.02631  0.45824 -0.00208  0.02362  0.03661
2046 358276.000  -2408320.7952   4698526.0122   3566418.5759   4   6   0.4110   0.3841   0.3417  -0.2704   0.1992  -0.1743   0.00    0.0    1.11019    2.25087   -2.09537   0.03669  0.02663  0.03177  0.01353 -0.02043  0.01740    0.43646    0.97183  218.62285   0.02683  0.02629  0.45888 -0.00205  0.02381  0.03683
2046 358277.000  -2408319.9705   4698528.3389   3566416.5082   4   7   0.3972   0.3839   0.3396  -0.2652   0.1973  -0.1622   0.00    0.0    1.14715    2.37591   -2.23812   0.03585  0.02658  0.03173  0.01317 -0.02037  0.01761    0.45785    0.74398  219.51818   0.02682  0.02620  0.45953 -0.00219  0.02409  0.03710
2046 358278.000  -2408318.8827   4698530.8549   3566414.2540   4   8   0.3626   0.3804   0.3368  -0.2476   0.1926  -0.1412   0.00    0.0    1.35819    2.64627   -2.42397   0.03416  0.02652  0.03177  0.01293 -0.02035  0.01767    0.03910    1.28827  220.53224   0.02678  0.02605  0.46019 -0.00277  0.02440  0.03730
2046 358279.000  -2408317.5518   4698533.5335   3566411.8252   4   8   0.3391   0.3778   0.3349  -0.2348   0.1893  -0.1251   0.00    0.0    1.47735    2.72491   -2.42667   0.03327  0.02654  0.03183  0.01289 -0.02038  0.01780    0.05795    0.85402  222.15265   0.02676  0.02598  0.46084 -0.00299  0.02466  0.03743
2046 358280.000  -2408316.0307   4698536.2864   3566409.3696   4   8   0.3222   0.3757   0.3333  -0.2246   0.1866  -0.1118   0.00    0.0    1.65417    2.82478   -2.43484   0.03283  0.02657  0.03198  0.01289 -0.02050  0.01800    0.00038    0.69554  224.04664   0.02675  0.02596  0.46149 -0.00307  0.02488  0.03745
2046 358281.000  -2408314.3814   4698539.0853   3566406.9077   4   8   0.3096   0.3738   0.3321  -0.2163   0.1842  -0.1002   0.00    0.0    1.65388    2.82691   -2.47275   0.03262  0.02657  0.03200  0.01306 -0.02048  0.01811    0.14220    0.59471  224.16808   0.02674  0.02595  0.46212 -0.00310  0.02510  0.03734
2046 358282.000  -2408312.7604   4698541.9512   3566404.3689   4   8   0.3000   0.3721   0.3310  -0.2091   0.1819  -0.0896   0.00    0.0    1.57721    2.90200   -2.52640   0.03261  0.02655  0.03200  0.01329 -0.02042  0.01824    0.49952    0.31318  222.78096   0.02673  0.02595  0.46271 -0.00311  0.02528  0.03714
2046 358283.000  -2408311.2478   4698544.8780   3566401.7454   4   7   0.3030   0.3715   0.3301  -0.2082   0.1801  -0.0818   0.00    0.0    1.55015    2.97762   -2.66999   0.03328  0.02650  0.03204  0.01350 -0.02036  0.01860    0.84236    0.42795  221.25875   0.02673  0.02599  0.46328 -0.00285  0.02549  0.03690
2046 358284.000  -2408309.7266   4698547.9617   3566398.9517   4   7   0.3060   0.3708   0.3293  -0.2075   0.1783  -0.0743   0.00    0.0    1.57287    3.13336   -2.81719   0.03395  0.02645  0.03215  0.01367 -0.02032  0.01901    0.77509    0.61920  220.67074   0.02673  0.02601  0.46381 -0.00267  0.02555  0.03656
2046 358285.000  -2408308.1362   4698551.1174   3566396.0462   4   9   0.2915   0.3651   0.3281  -0.1929   0.1790  -0.0736   0.00    0.0    1.59839    3.17178   -2.88293   0.03344  0.02629  0.03196  0.01412 -0.02010  0.01856    0.56563    0.78259  220.34550   0.02664  0.02595  0.46417 -0.00306  0.02512  0.03584
