% program   : GINav v0.1.0
% obs start : 2020/03/06 00:00:00.0
% obs end   : 2020/03/06 23:59:30.0
% mode      : PPS
% system    : GPS 
% nfreqs    : 2
% elev mask : 10.0 deg
% ephemeris : broadcast
% ionos opt : broadcast model
% trops opt : Saastamoinen model
%
%  GPST              x-ecef(m)      y-ecef(m)      z-ecef(m)   Q  ns   sdx(m)   sdy(m)   sdz(m)  sdxy(m)  sdyz(m)  sdzx(m) age(s)  ratio    vx(m/s)    vy(m/s)    vz(m/s)      sdvx     sdvy     sdvz    sdvxy    sdvyz    sdvzx
2095 432000.000  -2364333.7729   4870287.3652  -3360809.2519   1   7   0.0067   0.0118   0.0073  -0.0073  -0.0077   0.0057   0.00   20.2    0.00096   -0.01332    0.00352   0.00000  0.00000  0.00000  0.00000  0.00000  0.00000
2095 432030.000  -2364333.7725   4870287.9641  -3360809.5361   2   7   0.4088   0.6896   0.4317  -0.3943  -0.4253   0.3148   0.00    0.0    0.00963   -0.02801    0.01115   0.00000  0.00000  0.00000  0.00000  0.00000  0.00000
2095 432060.000  -2364333.7188   4870287.7801  -3360809.4795   2   8   0.3015   0.4743   0.2899  -0.2513  -0.2661   0.1998   0.00    0.0   -0.00811   -0.01199   -0.00136   0.00000  0.00000  0.00000  0.00000  0.00000  0.00000
2095 432090.000  -2364333.6452   4870287.5583  -3360809.5043   2   8   0.2453   0.3556   0.2124  -0.1769  -0.1822   0.1383   0.00    0.0   -0.01165    0.03365   -0.00358   0.00000  0.00000  0.00000  0.00000  0.00000  0.00000
2095 432120.000  -2364333.6006   4870287.4452  -3360809.4535   2   8   0.2064   0.2749   0.1633  -0.1240  -0.1296   0.0983   0.00    0.0    0.01066   -0.03462    0.00776   0.00000  0.00000  0.00000  0.00000  0.00000  0.00000
2095 432150.000  -2364333.6411   4870287.3487  -3360809.3894   2   8   0.1797   0.2207   0.1305  -0.0891  -0.0969   0.0722   0.00    0.0   -0.02258    0.04106   -0.02537   0.00000  0.00000  0.00000  0.00000  0.00000  0.00000
2095 432180.000  -2364333.6051   4870287.3183  -3360809.3420   2   8   0.1598   0.1820   0.1073  -0.0641  -0.0754   0.0540   0.00    0.0    0.00286    0.01024   -0.01581   0.00000  0.00000  0.00000  0.00000  0.00000  0.00000
2095 432210.000  -2364333.6473   4870287.3357  -3360809.3344   2   8   0.1442   0.1533   0.0902  -0.0451  -0.0606   0.0405   0.00    0.0    0.01276   -0.03725    0.03900   0.00000  0.00000  0.00000  0.00000  0.00000  0.00000
2095 432240.000  -2364333.6861   4870287.3437  -3360809.3211   2   8   0.1315   0.1313   0.0772  -0.0294  -0.0501   0.0302   0.00    0.0    0.00947   -0.01396    0.00705   0.00000  0.00000  0.00000  0.00000  0.00000  0.00000
2095 432270.000  -2364333.6969   4870287.3330  -3360809.3208   2   8   0.1208   0.1140   0.0670  -0.0139  -0.0423   0.0218   0.00    0.0   -0.00241   -0.00310   -0.00071   0.00000  0.00000  0.00000  0.00000  0.00000  0.00000
2095 432300.000  -2364333.7020   4870287.3521  -3360809.3255   2   8   0.1116   0.1002   0.0588   0.0138  -0.0364   0.0145   0.00    0.0    0.00055    0.01102    0.02056   0.00000  0.00000  0.00000  0.00000  0.00000  0.00000
2095 432330.000  -2364333.6912   4870287.3466  -3360809.3033   2   8   0.1037   0.0889   0.0522   0.0202  -0.0318   0.0071   0.00    0.0   -0.00617    0.01966   -0.00611   0.00000  0.00000  0.00000  0.00000  0.00000  0.00000
2095 432360.000  -2364333.7078   4870287.3622  -3360809.2948   2   8   0.0966   0.0796   0.0467   0.0229  -0.0281  -0.0068   0.00    0.0    0.00209   -0.01280    0.01153   0.00000  0.00000  0.00000  0.00000  0.00000  0.00000
2095 432390.000  -2364333.7283   4870287.3523  -3360809.2809   2   8   0.0903   0.0717   0.0422   0.0241  -0.0252  -0.0103   0.00    0.0    0.01013   -0.00438    0.01241   0.00000  0.00000  0.00000  0.00000  0.00000  0.00000
2095 432420.000  -2364333.7412   4870287.3516  -3360809.2829   2   8   0.0847   0.0651   0.0383   0.0244  -0.0227  -0.0118   0.00    0.0   -0.00857    0.00991   -0.00642   0.00000  0.00000  0.00000  0.00000  0.00000  0.00000
2095 432450.000  -2364333.7463   4870287.3460  -3360809.2705   2   8   0.0796   0.0594   0.0350   0.0243  -0.0207  -0.0125   0.00    0.0    0.00344    0.01263   -0.01308   0.00000  0.00000  0.00000  0.00000  0.00000  0.00000
2095 432480.000  -2364333.7375   4870287.3532  -3360809.2730   2   8   0.0765   0.0551   0.0326   0.0263  -0.0202  -0.0158   0.00    0.0    0.02272   -0.01517    0.01780   0.00000  0.00000  0.00000  0.00000  0.00000  0.00000
2095 432510.000  -2364333.7377   4870287.3615  -3360809.2748   2   8   0.0736   0.0513   0.0311   0.0274  -0.0198  -0.0172   0.00    0.0   -0.01447    0.00059   -0.01335   0.00000  0.00000  0.00000  0.00000  0.00000  0.00000
2095 432540.000  -2364333.7422   4870287.3653  -3360809.2721   2   8   0.0710   0.0480   0.0297   0.0281  -0.0193  -0.0183   0.00    0.0   -0.00146   -0.01087   -0.00180   0.00000  0.00000  0.00000  0.00000  0.00000  0.00000
2095 432570.000  -2364333.7477   4870287.3646  -3360809.2690   2   8   0.0686   0.0450   0.0284   0.0284  -0.0189  -0.0190   0.00    0.0    0.00422   -0.00356   -0.00119   0.00000  0.00000  0.00000  0.00000  0.00000  0.00000
2095 432600.000  -2364333.7511   4870287.3588  -3360809.2702   2   8   0.0663   0.0424   0.0271   0.0284  -0.0184  -0.0194   0.00    0.0   -0.01741   -0.01801    0.00454   0.00000  0.00000  0.00000  0.00000  0.00000  0.00000
2095 432630.000  -2364333.7479   4870287.3616  -3360809.2689   2   8   0.0641   0.0400   0.0259   0.0283  -0.0179  -0.0197   0.00    0.0    0.00648   -0.02767    0.01195   0.00000  0.00000  0.00000  0.00000  0.00000  0.00000
2095 432660.000  -2364333.7430   4870287.3644  -3360809.2646   2   8   0.0620   0.0378   0.0248   0.0280  -0.0174  -0.0197   0.00    0.0   -0.01057    0.01890   -0.00099   0.00000  0.00000  0.00000  0.00000  0.00000  0.00000
2095 432690.000  -2364333.7442   4870287.3637  -3360809.2653   2   8   0.0600   0.0358   0.0237   0.0275  -0.0169  -0.0197   0.00    0.0    0.00388   -0.01019    0.00378   0.00000  0.00000  0.00000  0.00000  0.00000  0.00000
2095 432720.000  -2364333.7346   4870287.3604  -3360809.2610   2   8   0.0580   0.0340   0.0226   0.0270  -0.0163  -0.0195   0.00    0.0   -0.00748    0.02931   -0.00227   0.00000  0.00000  0.00000  0.00000  0.00000  0.00000
2095 432750.000  -2364333.7300   4870287.3612  -3360809.2606   2   8   0.0561   0.0323   0.0217   0.0264  -0.0158  -0.0192   0.00    0.0    0.00597   -0.03176    0.00581   0.00000  0.00000  0.00000  0.00000  0.00000  0.00000
2095 432780.000  -2364333.7757   4870287.3698  -3360809.2528   1   8   0.0014   0.0023   0.0014  -0.0010  -0.0011   0.0011   0.00  119.5    0.00157   -0.04032   -0.00520   0.00000  0.00000  0.00000  0.00000  0.00000  0.00000
2095 432810.000  -2364333.7760   4870287.3698  -3360809.2529   1   8   0.0014   0.0023   0.0013  -0.0010  -0.0011   0.0011   0.00  115.5   -0.00828   -0.00964    0.00654   0.00000  0.00000  0.00000  0.00000  0.00000  0.00000
2095 432840.000  -2364333.7760   4870287.3699  -3360809.2528   1   8   0.0013   0.0022   0.0013  -0.0010  -0.0011   0.0011   0.00  117.8    0.00052    0.00598   -0.00074   0.00000  0.00000  0.00000  0.00000  0.00000  0.00000
2095 432870.000  -2364333.7761   4870287.3699  -3360809.2528   1   8   0.0013   0.0022   0.0013  -0.0010  -0.0011   0.0010   0.00  118.6    0.01309   -0.02616    0.01540   0.00000  0.00000  0.00000  0.00000  0.00000  0.00000
2095 432900.000  -2364333.7762   4870287.3699  -3360809.2528   1   8   0.0013   0.0021   0.0012  -0.0010  -0.0011   0.0010   0.00  125.6   -0.00173    0.00763   -0.00456   0.00000  0.00000  0.00000  0.00000  0.00000  0.00000
2095 432930.000  -2364333.7762   4870287.3699  -3360809.2528   1   8   0.0012   0.0021   0.0012  -0.0010  -0.0011   0.0010   0.00  309.4   -0.02572    0.00178   -0.00667   0.00000  0.00000  0.00000  0.00000  0.00000  0.00000
2095 432960.000  -2364333.7763   4870287.3699  -3360809.2529   1   8   0.0012   0.0020   0.0012  -0.0010  -0.0011   0.0010   0.00  425.1   -0.00011    0.00173    0.00538   0.00000  0.00000  0.00000  0.00000  0.00000  0.00000
2095 432990.000  -2364333.7762   4870287.3697  -3360809.2529   1   8   0.0012   0.0020   0.0012  -0.0009  -0.0011   0.0009   0.00  577.3    0.03326   -0.04036    0.02511   0.00000  0.00000  0.00000  0.00000  0.00000  0.00000
2095 433020.000  -2364333.7761   4870287.3696  -3360809.2527   1   8   0.0012   0.0020   0.0011  -0.0009  -0.0011   0.0009   0.00  768.3    0.01226   -0.00589    0.01295   0.00000  0.00000  0.00000  0.00000  0.00000  0.00000
2095 433050.000  -2364333.7761   4870287.3697  -3360809.2527   1   8   0.0011   0.0019   0.0011  -0.0009  -0.0010   0.0009   0.00  995.8   -0.01087    0.01459   -0.01014   0.00000  0.00000  0.00000  0.00000  0.00000  0.00000
2095 433080.000  -2364333.7761   4870287.3698  -3360809.2528   1   8   0.0011   0.0019   0.0011  -0.0009  -0.0010   0.0009   0.00  999.9    0.00270   -0.00656   -0.00673   0.00000  0.00000  0.00000  0.00000  0.00000  0.00000
2095 433110.000  -2364333.7761   4870287.3698  -3360809.2528   1   8   0.0011   0.0019   0.0011  -0.0009  -0.0010   0.0009   0.00  999.9    0.00232   -0.00790    0.00334   0.00000  0.00000  0.00000  0.00000  0.00000  0.00000
2095 433140.000  -2364333.7760   4870287.3699  -3360809.2528   1   8   0.0011   0.0019   0.0011  -0.0009  -0.0010   0.0009   0.00  999.9    0.00574   -0.00437    0.00868   0.00000  0.00000  0.00000  0.00000  0.00000  0.00000
2095 433170.000  -2364333.7759   4870287.3698  -3360809.2527   1   8   0.0011   0.0018   0.0011  -0.0009  -0.0010   0.0008   0.00  999.9    0.00833   -0.03033    0.00617   0.00000  0.00000  0.00000  0.00000  0.00000  0.00000
2095 433200.000  -2364333.7759   4870287.3698  -3360809.2527   1   8   0.0011   0.0018   0.0010  -0.0009  -0.0010   0.0008   0.00  999.9    0.00567   -0.00476    0.00305   0.00000  0.00000  0.00000  0.00000  0.00000  0.00000
2095 433230.000  -2364333.7759   4870287.3699  -3360809.2527   1   8   0.0010   0.0018   0.0010  -0.0009  -0.0010   0.0008   0.00  999.9   -0.01155    0.02401   -0.00207   0.00000  0.00000  0.00000  0.00000  0.00000  0.00000
2095 433260.000  -2364333.7758   4870287.3700  -3360809.2526   1   8   0.0010   0.0018   0.0010  -0.0009  -0.0010   0.0008   0.00  999.9    0.01112    0.00572   -0.00629   0.00000  0.00000  0.00000  0.00000  0.00000  0.00000
2095 433290.000  -2364333.7758   4870287.3700  -3360809.2526   1   8   0.0010   0.0017   0.0010  -0.0009  -0.0010   0.0008   0.00  999.9   -0.00488    0.00789   -0.00040   0.00000  0.00000  0.00000  0.00000  0.00000  0.00000
2095 433320.000  -2364333.7758   4870287.3699  -3360809.2526   1   8   0.0010   0.0017   0.0010  -0.0009  -0.0010   0.0008   0.00  999.9   -0.00988    0.00456    0.00627   0.00000  0.00000  0.00000  0.00000  0.00000  0.00000
2095 433350.000  -2364333.7756   4870287.3695  -3360809.2525   1   8   0.0010   0.0017   0.0010  -0.0009  -0.0010   0.0008   0.00  999.9    0.01767   -0.01030   -0.00715   0.00000  0.00000  0.00000  0.00000  0.00000  0.00000
2095 433380.000  -2364333.7755   4870287.3694  -3360809.2524   1   8   0.0010   0.0017   0.0010  -0.0009  -0.0009   0.0008   0.00  999.9    0.00345   -0.00416    0.00332   0.00000  0.00000  0.00000  0.00000  0.00000  0.00000
2095 433410.000  -2364333.7755   4870287.3691  -3360809.2523   1   8   0.0010   0.0017   0.0010  -0.0009  -0.0009   0.0008   0.00  999.9    0.00357   -0.00704    0.00466   0.00000  0.00000  0.00000  0.00000  0.00000  0.00000
2095 433440.000  -2364333.7753   4870287.3690  -3360809.2522   1   8   0.0010   0.0017   0.0010  -0.0008  -0.0009   0.0007   0.00  999.9    0.00358    0.00608   -0.00645   0.00000  0.00000  0.00000  0.00000  0.00000  0.00000
2095 433470.000  -2364333.7752   4870287.3689  -3360809.2521   1   8   0.0009   0.0016   0.0009  -0.0008  -0.0009   0.0007   0.00  999.9   -0.00104    0.00591    0.00375   0.00000  0.00000  0.00000  0.00000  0.00000  0.00000
2095 433500.000  -2364333.7750   4870287.3687  -3360809.2520   1   8   0.0009   0.0016   0.0009  -0.0008  -0.0009   0.0007   0.00  999.9    0.01258   -0.02391    0.00225   0.00000  0.00000  0.00000  0.00000  0.00000  0.00000
2095 433530.000  -2364333.7750   4870287.3687  -3360809.2520   1   8   0.0009   0.0016   0.0009  -0.0008  -0.0009   0.0007   0.00  999.9    0.00219    0.00072   -0.00112   0.00000  0.00000  0.00000  0.00000  0.00000  0.00000
2095 433560.000  -2364333.7749   4870287.3688  -3360809.2520   1   8   0.0009   0.0016   0.0009  -0.0008  -0.0009   0.0007   0.00  999.9   -0.00442    0.00418   -0.00041   0.00000  0.00000  0.00000  0.00000  0.00000  0.00000
2095 433590.000  -2364333.7749   4870287.3688  -3360809.2520   1   8   0.0009   0.0016   0.0009  -0.0008  -0.0009   0.0007   0.00  999.9   -0.01394    0.00294   -0.00404   0.00000  0.00000  0.00000  0.00000  0.00000  0.00000
2095 433620.000  -2364333.7748   4870287.3689  -3360809.2520   1   8   0.0009   0.0016   0.0009  -0.0008  -0.0009   0.0007   0.00  999.9    0.00450   -0.02368    0.00490   0.00000  0.00000  0.00000  0.00000  0.00000  0.00000
2095 433650.000  -2364333.7748   4870287.3690  -3360809.2520   1   8   0.0009   0.0016   0.0009  -0.0008  -0.0009   0.0007   0.00  999.9    0.00069    0.00239   -0.00564   0.00000  0.00000  0.00000  0.00000  0.00000  0.00000
2095 433680.000  -2364333.7749   4870287.3690  -3360809.2521   1   8   0.0009   0.0015   0.0009  -0.0008  -0.0009   0.0007   0.00  999.9   -0.00460    0.00160   -0.00812   0.00000  0.00000  0.00000  0.00000  0.00000  0.00000
2095 433710.000  -2364333.7748   4870287.3689  -3360809.2521   1   8   0.0009   0.0015   0.0009  -0.0008  -0.0009   0.0007   0.00  999.9    0.01482   -0.01462    0.00434   0.00000  0.00000  0.00000  0.00000  0.00000  0.00000
2095 433740.000  -2364333.7749   4870287.3690  -3360809.2521   1   8   0.0009   0.0015   0.0009  -0.0008  -0.0009   0.0007   0.00  999.9   -0.00379    0.00984   -0.00868   0.00000  0.00000  0.00000  0.00000  0.00000  0.00000
2095 433770.000  -2364333.7749   4870287.3691  -3360809.2522   1   8   0.0009   0.0015   0.0009  -0.0008  -0.0009   0.0007   0.00  999.9   -0.00421    0.00999   -0.01089   0.00000  0.00000  0.00000  0.00000  0.00000  0.00000
2095 433800.000  -2364333.7750   4870287.3693  -3360809.2522   1   8   0.0010   0.0016   0.0009  -0.0007  -0.0008   0.0007   0.00  999.9   -0.00727    0.00776    0.00464   0.00000  0.00000  0.00000  0.00000  0.00000  0.00000
2095 433830.000  -2364333.7751   4870287.3695  -3360809.2523   1   8   0.0009   0.0016   0.0009  -0.0007  -0.0008   0.0007   0.00  999.9   -0.00171    0.01231   -0.01383   0.00000  0.00000  0.00000  0.00000  0.00000  0.00000
2095 433860.000  -2364333.7751   4870287.3693  -3360809.2522   1   8   0.0010   0.0017   0.0009  -0.0008  -0.0009   0.0008   0.00  999.9   -0.00962    0.02239   -0.00596   0.00000  0.00000  0.00000  0.00000  0.00000  0.00000
2095 433890.000  -2364333.7751   4870287.3693  -3360809.2522   1   8   0.0010   0.0017   0.0009  -0.0008  -0.0009   0.0008   0.00  999.9    0.00683   -0.02332    0.00028   0.00000  0.00000  0.00000  0.00000  0.00000  0.00000
2095 433920.000  -2364333.7752   4870287.3694  -3360809.2523   1   8   0.0010   0.0017   0.0009  -0.0008  -0.0009   0.0008   0.00  999.9    0.00264   -0.03189   -0.00824   0.00000  0.00000  0.00000  0.00000  0.00000  0.00000
2095 433950.000  -2364333.7751   4870287.3694  -3360809.2523   1   8   0.0010   0.0017   0.0009  -0.0008  -0.0009   0.0008   0.00  999.9    0.01736   -0.02466    0.00749   0.00000  0.00000  0.00000  0.00000  0.00000  0.00000
2095 433980.000  -2364333.7751   4870287.3694  -3360809.2522   1   8   0.0010   0.0017   0.0009  -0.0008  -0.0008   0.0007   0.00  999.9    0.01103    0.00868    0.00675   0.00000  0.00000  0.00000  0.00000  0.00000  0.00000
2095 434010.000  -2364333.7753   4870287.3696  -3360809.2523   1   8   0.0010   0.0017   0.0009  -0.0008  -0.0008   0.0007   0.00  999.9   -0.00335    0.01605   -0.00517   0.00000  0.00000  0.00000  0.00000  0.00000  0.00000
2095 434040.000  -2364333.7755   4870287.3694  -3360809.2523   1   8   0.0010   0.0016   0.0009  -0.0008  -0.0008   0.0007   0.00  999.9   -0.00897    0.01497   -0.00959   0.00000  0.00000  0.00000  0.00000  0.00000  0.00000
2095 434070.000  -2364333.7757   4870287.3693  -3360809.2524   1   8   0.0010   0.0016   0.0009  -0.0008  -0.0008   0.0007   0.00  999.9   -0.00247    0.02187   -0.00456   0.00000  0.00000  0.00000  0.00000  0.00000  0.00000
2095 434100.000  -2364333.7760   4870287.3693  -3360809.2526   1   8   0.0009   0.0016   0.0008  -0.0008  -0.0008   0.0007   0.00  238.3    0.00388   -0.00851    0.00821   0.00000  0.00000  0.00000  0.00000  0.00000  0.00000
2095 434130.000  -2364333.7759   4870287.3693  -3360809.2525   1   8   0.0009   0.0016   0.0008  -0.0008  -0.0008   0.0007   0.00  573.8   -0.01860    0.02026    0.00069   0.00000  0.00000  0.00000  0.00000  0.00000  0.00000
2095 434160.000  -2364333.7759   4870287.3693  -3360809.2525   1   8   0.0009   0.0015   0.0008  -0.0008  -0.0008   0.0007   0.00  841.6   -0.00737    0.02216   -0.00141   0.00000  0.00000  0.00000  0.00000  0.00000  0.00000
2095 434190.000  -2364333.7758   4870287.3692  -3360809.2524   1   8   0.0009   0.0015   0.0008  -0.0008  -0.0008   0.0007   0.00  999.9    0.00957   -0.03669    0.00899   0.00000  0.00000  0.00000  0.00000  0.00000  0.00000
2095 434220.000  -2364333.7757   4870287.3692  -3360809.2524   1   8   0.0009   0.0015   0.0008  -0.0008  -0.0008   0.0007   0.00  999.9    0.00556   -0.00549    0.00975   0.00000  0.00000  0.00000  0.00000  0.00000  0.00000
2095 434250.000  -2364333.7756   4870287.3693  -3360809.2523   1   8   0.0009   0.0016   0.0008  -0.0007  -0.0008   0.0007   0.00  999.9   -0.01432    0.01025   -0.00376   0.00000  0.00000  0.00000  0.00000  0.00000  0.00000
2095 434280.000  -2364333.7756   4870287.3693  -3360809.2524   1   8   0.0009   0.0016   0.0008  -0.0007  -0.0008   0.0007   0.00  999.9   -0.01945    0.03055    0.00381   0.00000  0.00000  0.00000  0.00000  0.00000  0.00000
2095 434310.000  -2364333.7755   4870287.3692  -3360809.2524   1   8   0.0009   0.0015   0.0008  -0.0007  -0.0008   0.0007   0.00  999.9    0.00949    0.00186   -0.01828   0.00000  0.00000  0.00000  0.00000  0.00000  0.00000
2095 434340.000  -2364333.7755   4870287.3692  -3360809.2524   1   8   0.0009   0.0015   0.0008  -0.0007  -0.0008   0.0007   0.00  999.9   -0.00404   -0.00817   -0.00592   0.00000  0.00000  0.00000  0.00000  0.00000  0.00000
2095 434370.000  -2364333.7755   4870287.3691  -3360809.2523   1   8   0.0009   0.0015   0.0008  -0.0007  -0.0008   0.0007   0.00  999.9   -0.01240   -0.00722    0.00513   0.00000  0.00000  0.00000  0.00000  0.00000  0.00000
2095 434400.000  -2364333.7755   4870287.3691  -3360809.2523   1   8   0.0009   0.0015   0.0008  -0.0007  -0.0008   0.0007   0.00  999.9   -0.00120   -0.00804    0.01209   0.00000  0.00000  0.00000  0.00000  0.00000  0.00000
2095 434430.000  -2364333.7752   4870287.3690  -3360809.2520   1   8   0.0009   0.0015   0.0008  -0.0007  -0.0008   0.0006   0.00  222.4   -0.00799    0.02610   -0.00636   0.00000  0.00000  0.00000  0.00000  0.00000  0.00000
2095 434460.000  -2364333.7754   4870287.3690  -3360809.2522   1   8   0.0009   0.0015   0.0008  -0.0007  -0.0008   0.0006   0.00  999.9    0.00878    0.00026   -0.00211   0.00000  0.00000  0.00000  0.00000  0.00000  0.00000
2095 434490.000  -2364333.7753   4870287.3689  -3360809.2522   1   8   0.0009   0.0015   0.0008  -0.0007  -0.0008   0.0006   0.00  999.9   -0.00405    0.01633   -0.00759   0.00000  0.00000  0.00000  0.00000  0.00000  0.00000
2095 434520.000  -2364333.7753   4870287.3688  -3360809.2521   1   8   0.0009   0.0015   0.0008  -0.0007  -0.0007   0.0006   0.00  999.9    0.00066   -0.01041    0.01476   0.00000  0.00000  0.00000  0.00000  0.00000  0.00000
2095 434550.000  -2364333.7753   4870287.3689  -3360809.2522   1   9   0.0009   0.0015   0.0008  -0.0007  -0.0007   0.0006   0.00  999.9    0.00477   -0.01234   -0.01109   0.00000  0.00000  0.00000  0.00000  0.00000  0.00000
2095 434580.000  -2364333.7753   4870287.3689  -3360809.2521   1   9   0.0009   0.0015   0.0008  -0.0007  -0.0007   0.0006   0.00  999.9   -0.00872    0.02769   -0.00210   0.00000  0.00000  0.00000  0.00000  0.00000  0.00000
2095 434610.000  -2364333.7753   4870287.3689  -3360809.2522   1   9   0.0008   0.0015   0.0008  -0.0006  -0.0007   0.0006   0.00  999.9    0.01183   -0.01880   -0.00029   0.00000  0.00000  0.00000  0.00000  0.00000  0.00000
2095 434640.000  -2364333.7753   4870287.3689  -3360809.2522   1   9   0.0008   0.0015   0.0008  -0.0006  -0.0007   0.0006   0.00  999.9   -0.00848    0.01270   -0.01238   0.00000  0.00000  0.00000  0.00000  0.00000  0.00000
2095 434670.000  -2364333.7752   4870287.3689  -3360809.2521   1   9   0.0008   0.0015   0.0008  -0.0006  -0.0007   0.0006   0.00  999.9   -0.01053    0.02923    0.00411   0.00000  0.00000  0.00000  0.00000  0.00000  0.00000
2095 434700.000  -2364333.7752   4870287.3689  -3360809.2521   1   9   0.0008   0.0015   0.0008  -0.0006  -0.0007   0.0006   0.00  457.6   -0.02734    0.00738   -0.02611   0.00000  0.00000  0.00000  0.00000  0.00000  0.00000
2095 434730.000  -2364333.7752   4870287.3690  -3360809.2521   1   9   0.0008   0.0014   0.0007  -0.0006  -0.0007   0.0006   0.00  999.9    0.00358   -0.01962   -0.00657   0.00000  0.00000  0.00000  0.00000  0.00000  0.00000
2095 434760.000  -2364333.7752   4870287.3690  -3360809.2521   1   9   0.0008   0.0014   0.0007  -0.0006  -0.0007   0.0006   0.00  999.9   -0.00992    0.03897   -0.00742   0.00000  0.00000  0.00000  0.00000  0.00000  0.00000
2095 434790.000  -2364333.7752   4870287.3693  -3360809.2522   1   9   0.0008   0.0014   0.0007  -0.0006  -0.0007   0.0006   0.00  999.9    0.00899    0.00854   -0.01198   0.00000  0.00000  0.00000  0.00000  0.00000  0.00000
2095 434820.000  -2364333.7752   4870287.3692  -3360809.2522   1   9   0.0008   0.0014   0.0007  -0.0006  -0.0007   0.0006   0.00  999.9    0.01367   -0.00401   -0.01198   0.00000  0.00000  0.00000  0.00000  0.00000  0.00000
2095 434850.000  -2364333.7752   4870287.3692  -3360809.2521   1   9   0.0008   0.0014   0.0007  -0.0006  -0.0007   0.0006   0.00  999.9    0.00632   -0.00747   -0.00791   0.00000  0.00000  0.00000  0.00000  0.00000  0.00000
2095 434880.000  -2364333.7753   4870287.3693  -3360809.2522   1   9   0.0008   0.0014   0.0007  -0.0006  -0.0007   0.0006   0.00  999.9   -0.01779   -0.01287    0.00766   0.00000  0.00000  0.00000  0.00000  0.00000  0.00000
2095 434910.000  -2364333.7753   4870287.3692  -3360809.2521   1   9   0.0008   0.0014   0.0007  -0.0006  -0.0007   0.0006   0.00  999.9    0.00134   -0.01295   -0.00377   0.00000  0.00000  0.00000  0.00000  0.00000  0.00000
2095 434940.000  -2364333.7752   4870287.3691  -3360809.2521   1   9   0.0008   0.0014   0.0007  -0.0006  -0.0007   0.0006   0.00  999.9   -0.00446   -0.03617    0.01225   0.00000  0.00000  0.00000  0.00000  0.00000  0.00000
2095 434970.000  -2364333.7752   4870287.3691  -3360809.2521   1   9   0.0008   0.0014   0.0007  -0.0006  -0.0007   0.0006   0.00  999.9    0.00624    0.00214   -0.01825   0.00000  0.00000  0.00000  0.00000  0.00000  0.00000
2095 435000.000  -2364333.7753   4870287.3693  -3360809.2521   1   9   0.0008   0.0014   0.0007  -0.0006  -0.0007   0.0006   0.00  999.9    0.00317   -0.00117   -0.00442   0.00000  0.00000  0.00000  0.00000  0.00000  0.00000
2095 435030.000  -2364333.7752   4870287.3692  -3360809.2521   1   9   0.0008   0.0014   0.0007  -0.0006  -0.0007   0.0006   0.00  999.9    0.00621    0.00703   -0.01196   0.00000  0.00000  0.00000  0.00000  0.00000  0.00000
2095 435060.000  -2364333.7752   4870287.3692  -3360809.2521   1   9   0.0008   0.0014   0.0007  -0.0006  -0.0007   0.0006   0.00  999.9    0.00833    0.00273    0.01069   0.00000  0.00000  0.00000  0.00000  0.00000  0.00000
2095 435090.000  -2364333.7752   4870287.3692  -3360809.2521   1   9   0.0008   0.0013   0.0007  -0.0006  -0.0007   0.0006   0.00  999.9   -0.01195   -0.00134    0.00011   0.00000  0.00000  0.00000  0.00000  0.00000  0.00000
2095 435120.000  -2364333.7752   4870287.3692  -3360809.2521   1   9   0.0008   0.0013   0.0007  -0.0006  -0.0007   0.0006   0.00  999.9    0.01967   -0.05415    0.01382   0.00000  0.00000  0.00000  0.00000  0.00000  0.00000
2095 435150.000  -2364333.7751   4870287.3691  -3360809.2521   1   9   0.0008   0.0013   0.0007  -0.0005  -0.0007   0.0006   0.00  999.9   -0.00019    0.03166   -0.00534   0.00000  0.00000  0.00000  0.00000  0.00000  0.00000
2095 435180.000  -2364333.7751   4870287.3690  -3360809.2520   1   9   0.0007   0.0013   0.0007  -0.0005  -0.0007   0.0006   0.00  999.9    0.01790   -0.00939   -0.00420   0.00000  0.00000  0.00000  0.00000  0.00000  0.00000
2095 435210.000  -2364333.7751   4870287.3690  -3360809.2520   1   9   0.0007   0.0013   0.0007  -0.0005  -0.0007   0.0005   0.00  999.9    0.00695    0.02549    0.01716   0.00000  0.00000  0.00000  0.00000  0.00000  0.00000
2095 435240.000  -2364333.7750   4870287.3689  -3360809.2520   1   9   0.0007   0.0013   0.0007  -0.0005  -0.0007   0.0005   0.00  999.9    0.02129   -0.02303    0.00984   0.00000  0.00000  0.00000  0.00000  0.00000  0.00000
2095 435270.000  -2364333.7750   4870287.3689  -3360809.2520   1   9   0.0007   0.0013   0.0007  -0.0006  -0.0007   0.0005   0.00  999.9    0.00224    0.01308   -0.00190   0.00000  0.00000  0.00000  0.00000  0.00000  0.00000
2095 435300.000  -2364333.7749   4870287.3688  -3360809.2519   1   9   0.0007   0.0013   0.0007  -0.0006  -0.0007   0.0005   0.00  999.9    0.01099   -0.02024    0.00703   0.00000  0.00000  0.00000  0.00000  0.00000  0.00000
2095 435330.000  -2364333.7748   4870287.3687  -3360809.2519   1   9   0.0007   0.0013   0.0007  -0.0005  -0.0006   0.0005   0.00  999.9    0.01400   -0.00926   -0.00079   0.00000  0.00000  0.00000  0.00000  0.00000  0.00000
2095 435360.000  -2364333.7748   4870287.3686  -3360809.2518   1   9   0.0007   0.0013   0.0007  -0.0006  -0.0007   0.0006   0.00  999.9   -0.00686   -0.02175    0.02178   0.00000  0.00000  0.00000  0.00000  0.00000  0.00000
2095 435390.000  -2364333.7747   4870287.3685  -3360809.2518   1   9   0.0007   0.0012   0.0007  -0.0006  -0.0007   0.0006   0.00  999.9   -0.00052    0.00553    0.00373   0.00000  0.00000  0.00000  0.00000  0.00000  0.00000
2095 435420.000  -2364333.7747   4870287.3684  -3360809.2518   1   9   0.0007   0.0013   0.0007  -0.0005  -0.0007   0.0006   0.00  999.9    0.00448    0.00699   -0.00409   0.00000  0.00000  0.00000  0.00000  0.00000  0.00000
2095 435450.000  -2364333.7747   4870287.3683  -3360809.2517   1   9   0.0007   0.0013   0.0007  -0.0005  -0.0007   0.0006   0.00  999.9    0.00429    0.02267   -0.01135   0.00000  0.00000  0.00000  0.00000  0.00000  0.00000
2095 435480.000  -2364333.7747   4870287.3683  -3360809.2517   1   9   0.0007   0.0013   0.0007  -0.0005  -0.0007   0.0006   0.00  999.9    0.00086   -0.01667    0.00634   0.00000  0.00000  0.00000  0.00000  0.00000  0.00000
2095 435510.000  -2364333.7746   4870287.3683  -3360809.2517   1   9   0.0007   0.0013   0.0007  -0.0005  -0.0007   0.0005   0.00  999.9   -0.01540    0.01955   -0.01979   0.00000  0.00000  0.00000  0.00000  0.00000  0.00000
2095 435540.000  -2364333.7746   4870287.3683  -3360809.2517   1   9   0.0007   0.0013   0.0007  -0.0005  -0.0007   0.0006   0.00  999.9    0.00442    0.03251   -0.03079   0.00000  0.00000  0.00000  0.00000  0.00000  0.00000
2095 435570.000  -2364333.7745   4870287.3685  -3360809.2518   1   9   0.0007   0.0012   0.0007  -0.0005  -0.0007   0.0005   0.00  999.9   -0.00267   -0.01224   -0.01188   0.00000  0.00000  0.00000  0.00000  0.00000  0.00000
2095 435600.000  -2364333.7745   4870287.3685  -3360809.2518   1   9   0.0007   0.0012   0.0007  -0.0005  -0.0007   0.0005   0.00  999.9   -0.00683    0.01538   -0.00015   0.00000  0.00000  0.00000  0.00000  0.00000  0.00000
2095 435630.000  -2364333.7745   4870287.3684  -3360809.2517   1   9   0.0007   0.0012   0.0007  -0.0005  -0.0007   0.0005   0.00  999.9   -0.02678    0.03725   -0.02274   0.00000  0.00000  0.00000  0.00000  0.00000  0.00000
2095 435660.000  -2364333.7745   4870287.3683  -3360809.2517   1   9   0.0007   0.0012   0.0007  -0.0005  -0.0007   0.0005   0.00  999.9   -0.00862    0.04627   -0.03795   0.00000  0.00000  0.00000  0.00000  0.00000  0.00000
2095 435690.000  -2364333.7745   4870287.3683  -3360809.2518   1   8   0.0007   0.0012   0.0007  -0.0005  -0.0007   0.0005   0.00  999.9   -0.00118    0.01947   -0.00994   0.00000  0.00000  0.00000  0.00000  0.00000  0.00000
2095 435720.000  -2364333.7744   4870287.3682  -3360809.2517   1   8   0.0007   0.0012   0.0007  -0.0005  -0.0006   0.0005   0.00  229.1    0.00721    0.00527    0.01070   0.00000  0.00000  0.00000  0.00000  0.00000  0.00000
2095 435750.000  -2364333.7744   4870287.3681  -3360809.2517   1   8   0.0007   0.0012   0.0007  -0.0005  -0.0006   0.0005   0.00  670.4   -0.00396    0.01682   -0.00201   0.00000  0.00000  0.00000  0.00000  0.00000  0.00000
2095 435780.000  -2364333.7744   4870287.3682  -3360809.2516   1   8   0.0007   0.0012   0.0007  -0.0005  -0.0006   0.0005   0.00  999.9   -0.01417    0.02028   -0.00959   0.00000  0.00000  0.00000  0.00000  0.00000  0.00000
2095 435810.000  -2364333.7744   4870287.3681  -3360809.2516   1   8   0.0007   0.0012   0.0007  -0.0005  -0.0006   0.0005   0.00  999.9    0.00377   -0.01103    0.00272   0.00000  0.00000  0.00000  0.00000  0.00000  0.00000
2095 435840.000  -2364333.7744   4870287.3681  -3360809.2517   1   8   0.0007   0.0012   0.0007  -0.0005  -0.0006   0.0005   0.00  999.9   -0.01008    0.00903   -0.02154   0.00000  0.00000  0.00000  0.00000  0.00000  0.00000
2095 435870.000  -2364333.7744   4870287.3682  -3360809.2517   1   8   0.0007   0.0011   0.0007  -0.0005  -0.0006   0.0005   0.00  999.9    0.00316   -0.00837   -0.01607   0.00000  0.00000  0.00000  0.00000  0.00000  0.00000
2095 435900.000  -2364333.7744   4870287.3682  -3360809.2517   1   8   0.0007   0.0011   0.0007  -0.0005  -0.0006   0.0005   0.00  999.9    0.01671   -0.00894    0.00605   0.00000  0.00000  0.00000  0.00000  0.00000  0.00000
2095 435930.000  -2364333.7744   4870287.3682  -3360809.2516   1   8   0.0007   0.0011   0.0007  -0.0005  -0.0006   0.0005   0.00  999.9    0.01291   -0.02019    0.00079   0.00000  0.00000  0.00000  0.00000  0.00000  0.00000
2095 435960.000  -2364333.7743   4870287.3682  -3360809.2516   1   8   0.0007   0.0011   0.0007  -0.0005  -0.0006   0.0005   0.00  999.9   -0.00214   -0.00142   -0.01125   0.00000  0.00000  0.00000  0.00000  0.00000  0.00000
2095 435990.000  -2364333.7744   4870287.3682  -3360809.2516   1   8   0.0007   0.0011   0.0007  -0.0005  -0.0006   0.0005   0.00  208.8    0.00077   -0.00757   -0.00439   0.00000  0.00000  0.00000  0.00000  0.00000  0.00000
2095 436020.000  -2364333.7743   4870287.3681  -3360809.2515   1   8   0.0006   0.0011   0.0007  -0.0005  -0.0006   0.0005   0.00  771.1    0.01854    0.00022    0.01220   0.00000  0.00000  0.00000  0.00000  0.00000  0.00000
2095 436050.000  -2364333.7743   4870287.3680  -3360809.2515   1   8   0.0006   0.0011   0.0007  -0.0005  -0.0006   0.0005   0.00  999.9    0.00068   -0.00367    0.02100   0.00000  0.00000  0.00000  0.00000  0.00000  0.00000
2095 436080.000  -2364333.7742   4870287.3680  -3360809.2514   1   8   0.0006   0.0011   0.0007  -0.0005  -0.0006   0.0005   0.00  999.9    0.00186    0.01223   -0.00888   0.00000  0.00000  0.00000  0.00000  0.00000  0.00000
2095 436110.000  -2364333.7742   4870287.3680  -3360809.2514   1   8   0.0006   0.0011   0.0006  -0.0005  -0.0006   0.0005   0.00  999.9   -0.00191    0.00335   -0.00037   0.00000  0.00000  0.00000  0.00000  0.00000  0.00000
2095 436140.000  -2364333.7742   4870287.3679  -3360809.2514   1   8   0.0006   0.0011   0.0006  -0.0005  -0.0006   0.0005   0.00  999.9    0.01028    0.01926   -0.01514   0.00000  0.00000  0.00000  0.00000  0.00000  0.00000
2095 436170.000  -2364333.7742   4870287.3680  -3360809.2514   1   8   0.0006   0.0011   0.0006  -0.0005  -0.0006   0.0005   0.00  999.9   -0.00639    0.00815    0.01060   0.00000  0.00000  0.00000  0.00000  0.00000  0.00000
2095 436200.000  -2364333.7741   4870287.3680  -3360809.2515   1   8   0.0006   0.0011   0.0006  -0.0005  -0.0006   0.0005   0.00  999.9    0.01786   -0.02519   -0.00733   0.00000  0.00000  0.00000  0.00000  0.00000  0.00000
2095 436230.000  -2364333.7741   4870287.3680  -3360809.2515   1   8   0.0006   0.0011   0.0006  -0.0005  -0.0006   0.0005   0.00  999.9    0.01132   -0.00515   -0.00553   0.00000  0.00000  0.00000  0.00000  0.00000  0.00000
2095 436260.000  -2364333.7740   4870287.3680  -3360809.2514   1   9   0.0006   0.0011   0.0006  -0.0005  -0.0006   0.0005   0.00  999.9    0.01765   -0.01169   -0.00186   0.00000  0.00000  0.00000  0.00000  0.00000  0.00000
2095 436290.000  -2364333.7740   4870287.3681  -3360809.2514   1   9   0.0006   0.0011   0.0006  -0.0005  -0.0006   0.0005   0.00  999.9   -0.00716   -0.00883   -0.00434   0.00000  0.00000  0.00000  0.00000  0.00000  0.00000
2095 436320.000  -2364333.7740   4870287.3680  -3360809.2514   1   9   0.0006   0.0010   0.0006  -0.0005  -0.0006   0.0005   0.00  999.9    0.01131    0.00339    0.00095   0.00000  0.00000  0.00000  0.00000  0.00000  0.00000
2095 436350.000  -2364333.7740   4870287.3680  -3360809.2514   1   9   0.0006   0.0010   0.0006  -0.0005  -0.0006   0.0005   0.00  999.9   -0.01638    0.01620   -0.00002   0.00000  0.00000  0.00000  0.00000  0.00000  0.00000
2095 436380.000  -2364333.7740   4870287.3680  -3360809.2514   1   9   0.0006   0.0010   0.0006  -0.0005  -0.0006   0.0005   0.00  999.9    0.00047    0.00061    0.00690   0.00000  0.00000  0.00000  0.00000  0.00000  0.00000
2095 436410.000  -2364333.7739   4870287.3680  -3360809.2514   1   9   0.0006   0.0010   0.0006  -0.0005  -0.0006   0.0005   0.00   90.7    0.01080   -0.00381   -0.01080   0.00000  0.00000  0.00000  0.00000  0.00000  0.00000
2095 436440.000  -2364333.7739   4870287.3678  -3360809.2514   1   9   0.0006   0.0010   0.0006  -0.0005  -0.0006   0.0005   0.00  526.5    0.01395   -0.03113   -0.00698   0.00000  0.00000  0.00000  0.00000  0.00000  0.00000
2095 436470.000  -2364333.7739   4870287.3677  -3360809.2513   1   9   0.0006   0.0010   0.0006  -0.0005  -0.0006   0.0005   0.00  999.9   -0.01002    0.00343    0.02025   0.00000  0.00000  0.00000  0.00000  0.00000  0.00000
2095 436500.000  -2364333.7738   4870287.3678  -3360809.2513   1   8   0.0006   0.0010   0.0006  -0.0005  -0.0006   0.0005   0.00  999.9    0.03402   -0.04834    0.03396   0.00000  0.00000  0.00000  0.00000  0.00000  0.00000
2095 436530.000  -2364333.7738   4870287.3678  -3360809.2513   1   8   0.0006   0.0010   0.0006  -0.0005  -0.0006   0.0005   0.00  999.9    0.02050    0.07920   -0.02030   0.00000  0.00000  0.00000  0.00000  0.00000  0.00000
2095 436560.000  -2364333.7737   4870287.3678  -3360809.2513   1   8   0.0006   0.0010   0.0006  -0.0005  -0.0006   0.0005   0.00  999.9    0.01394   -0.02173    0.01585   0.00000  0.00000  0.00000  0.00000  0.00000  0.00000
2095 436590.000  -2364333.7737   4870287.3678  -3360809.2513   1   8   0.0006   0.0010   0.0006  -0.0005  -0.0006   0.0005   0.00  999.9    0.01681   -0.04130    0.01661   0.00000  0.00000  0.00000  0.00000  0.00000  0.00000
2095 436620.000  -2364333.7737   4870287.3678  -3360809.2513   1   8   0.0006   0.0010   0.0006  -0.0005  -0.0006   0.0005   0.00  999.9    0.01933   -0.00551    0.01418   0.00000  0.00000  0.00000  0.00000  0.00000  0.00000
2095 436650.000  -2364333.7737   4870287.3678  -3360809.2513   1   8   0.0006   0.0010   0.0006  -0.0005  -0.0006   0.0005   0.00  999.9    0.02323   -0.01374    0.01937   0.00000  0.00000  0.00000  0.00000  0.00000  0.00000
2095 436680.000  -2364333.7736   4870287.3678  -3360809.2513   1   8   0.0006   0.0010   0.0006  -0.0005  -0.0006   0.0005   0.00  999.9    0.02116    0.01158   -0.00694   0.00000  0.00000  0.00000  0.00000  0.00000  0.00000
2095 436710.000  -2364333.7736   4870287.3677  -3360809.2513   1   8   0.0006   0.0010   0.0006  -0.0005  -0.0006   0.0005   0.00  999.9    0.01044   -0.00169    0.00384   0.00000  0.00000  0.00000  0.00000  0.00000  0.00000
2095 436740.000  -2364333.7736   4870287.3677  -3360809.2513   1   8   0.0006   0.0010   0.0006  -0.0005  -0.0006   0.0005   0.00  999.9    0.00016   -0.03101    0.01396   0.00000  0.00000  0.00000  0.00000  0.00000  0.00000
2095 436770.000  -2364333.7736   4870287.3676  -3360809.2513   1   8   0.0006   0.0010   0.0006  -0.0005  -0.0006   0.0004   0.00  249.3   -0.01030    0.03385   -0.00778   0.00000  0.00000  0.00000  0.00000  0.00000  0.00000
2095 436800.000  -2364333.7736   4870287.3676  -3360809.2512   1   8   0.0006   0.0010   0.0006  -0.0005  -0.0006   0.0004   0.00  999.9   -0.00065   -0.00472    0.01021   0.00000  0.00000  0.00000  0.00000  0.00000  0.00000
2095 436830.000  -2364333.7736   4870287.3675  -3360809.2512   1   8   0.0006   0.0009   0.0006  -0.0005  -0.0006   0.0004   0.00  999.9   -0.00990   -0.01683    0.00172   0.00000  0.00000  0.00000  0.00000  0.00000  0.00000
2095 436860.000  -2364333.7736   4870287.3674  -3360809.2512   1   8   0.0006   0.0010   0.0006  -0.0005  -0.0006   0.0004   0.00  999.9    0.00246    0.00796    0.00131   0.00000  0.00000  0.00000  0.00000  0.00000  0.00000
2095 436890.000  -2364333.7736   4870287.3674  -3360809.2512   1   8   0.0006   0.0010   0.0006  -0.0005  -0.0006   0.0004   0.00  999.9    0.00573   -0.01529    0.00805   0.00000  0.00000  0.00000  0.00000  0.00000  0.00000
2095 436920.000  -2364333.7736   4870287.3673  -3360809.2511   1   8   0.0006   0.0010   0.0006  -0.0005  -0.0006   0.0004   0.00  999.9    0.00619   -0.01555    0.00106   0.00000  0.00000  0.00000  0.00000  0.00000  0.00000
2095 436950.000  -2364333.7736   4870287.3673  -3360809.2511   1   8   0.0006   0.0010   0.0006  -0.0005  -0.0006   0.0004   0.00  999.9   -0.00848    0.01311   -0.00448   0.00000  0.00000  0.00000  0.00000  0.00000  0.00000
2095 436980.000  -2364333.7736   4870287.3673  -3360809.2511   1   8   0.0006   0.0010   0.0006  -0.0005  -0.0006   0.0004   0.00  999.9   -0.00408    0.00105   -0.01570   0.00000  0.00000  0.00000  0.00000  0.00000  0.00000
2095 437010.000  -2364333.7736   4870287.3672  -3360809.2511   1   8   0.0006   0.0010   0.0006  -0.0005  -0.0006   0.0004   0.00  999.9    0.00134   -0.00285    0.00453   0.00000  0.00000  0.00000  0.00000  0.00000  0.00000
2095 437040.000  -2364333.7736   4870287.3672  -3360809.2511   1   8   0.0006   0.0010   0.0006  -0.0005  -0.0006   0.0004   0.00  999.9   -0.00692    0.01732   -0.01048   0.00000  0.00000  0.00000  0.00000  0.00000  0.00000
2095 437070.000  -2364333.7736   4870287.3672  -3360809.2512   1   8   0.0006   0.0009   0.0006  -0.0005  -0.0006   0.0004   0.00  999.9   -0.00812    0.03200   -0.01935   0.00000  0.00000  0.00000  0.00000  0.00000  0.00000
2095 437100.000  -2364333.7736   4870287.3672  -3360809.2511   1   8   0.0006   0.0009   0.0006  -0.0005  -0.0006   0.0004   0.00  999.9   -0.01271    0.00517    0.00119   0.00000  0.00000  0.00000  0.00000  0.00000  0.00000
2095 437130.000  -2364333.7736   4870287.3671  -3360809.2511   1   8   0.0006   0.0009   0.0006  -0.0005  -0.0006   0.0004   0.00  999.9    0.03751   -0.03099    0.01601   0.00000  0.00000  0.00000  0.00000  0.00000  0.00000
2095 437160.000  -2364333.7737   4870287.3668  -3360809.2510   1   8   0.0006   0.0009   0.0006  -0.0005  -0.0006   0.0004   0.00  304.7    0.00402   -0.00892    0.01815   0.00000  0.00000  0.00000  0.00000  0.00000  0.00000
2095 437190.000  -2364333.7737   4870287.3667  -3360809.2510   1   8   0.0006   0.0009   0.0006  -0.0005  -0.0006   0.0004   0.00  723.9   -0.01448    0.02011   -0.00778   0.00000  0.00000  0.00000  0.00000  0.00000  0.00000
2095 437220.000  -2364333.7737   4870287.3667  -3360809.2510   1   8   0.0006   0.0009   0.0006  -0.0005  -0.0006   0.0004   0.00  999.9   -0.00145    0.00119   -0.01065   0.00000  0.00000  0.00000  0.00000  0.00000  0.00000
2095 437250.000  -2364333.7737   4870287.3667  -3360809.2510   1   8   0.0006   0.0009   0.0006  -0.0005  -0.0005   0.0004   0.00  999.9   -0.00397   -0.00779   -0.00692   0.00000  0.00000  0.00000  0.00000  0.00000  0.00000
2095 437280.000  -2364333.7737   4870287.3668  -3360809.2510   1   8   0.0006   0.0009   0.0006  -0.0005  -0.0005   0.0004   0.00  999.9    0.01954   -0.01281    0.00853   0.00000  0.00000  0.00000  0.00000  0.00000  0.00000
2095 437310.000  -2364333.7737   4870287.3668  -3360809.2510   1   8   0.0006   0.0009   0.0006  -0.0005  -0.0005   0.0004   0.00  999.9    0.00912   -0.01867    0.00919   0.00000  0.00000  0.00000  0.00000  0.00000  0.00000
2095 437340.000  -2364333.7737   4870287.3667  -3360809.2510   1   8   0.0006   0.0009   0.0006  -0.0005  -0.0005   0.0004   0.00  999.9   -0.02420    0.00019   -0.01865   0.00000  0.00000  0.00000  0.00000  0.00000  0.00000
2095 437370.000  -2364333.7737   4870287.3666  -3360809.2510   1   8   0.0006   0.0009   0.0006  -0.0004  -0.0005   0.0004   0.00  999.9    0.01019   -0.01365    0.01529   0.00000  0.00000  0.00000  0.00000  0.00000  0.00000
2095 437400.000  -2364333.7737   4870287.3666  -3360809.2510   1   8   0.0005   0.0009   0.0006  -0.0004  -0.0005   0.0004   0.00  999.9    0.01782   -0.01890    0.01571   0.00000  0.00000  0.00000  0.00000  0.00000  0.00000
2095 437430.000  -2364333.7738   4870287.3666  -3360809.2510   1   8   0.0005   0.0009   0.0006  -0.0004  -0.0005   0.0004   0.00  999.9   -0.03130    0.02033   -0.02488   0.00000  0.00000  0.00000  0.00000  0.00000  0.00000
2095 437460.000  -2364333.7738   4870287.3666  -3360809.2510   1   8   0.0005   0.0009   0.0006  -0.0004  -0.0005   0.0004   0.00  999.9    0.00756    0.00703   -0.00803   0.00000  0.00000  0.00000  0.00000  0.00000  0.00000
2095 437490.000  -2364333.7738   4870287.3667  -3360809.2510   1   8   0.0005   0.0009   0.0006  -0.0004  -0.0005   0.0004   0.00  999.9    0.00051    0.01356   -0.00475   0.00000  0.00000  0.00000  0.00000  0.00000  0.00000
2095 437520.000  -2364333.7738   4870287.3666  -3360809.2510   1   8   0.0005   0.0009   0.0006  -0.0004  -0.0005   0.0004   0.00  999.9    0.01451   -0.01126   -0.00938   0.00000  0.00000  0.00000  0.00000  0.00000  0.00000
2095 437550.000  -2364333.7738   4870287.3667  -3360809.2510   1   8   0.0005   0.0009   0.0006  -0.0004  -0.0005   0.0004   0.00  999.9    0.03430   -0.00104   -0.00222   0.00000  0.00000  0.00000  0.00000  0.00000  0.00000
2095 437580.000  -2364333.7738   4870287.3667  -3360809.2510   1   8   0.0005   0.0009   0.0006  -0.0004  -0.0005   0.0004   0.00  999.9   -0.00320   -0.00716    0.00447   0.00000  0.00000  0.00000  0.00000  0.00000  0.00000
2095 437610.000  -2364333.7738   4870287.3667  -3360809.2510   1   8   0.0005   0.0009   0.0006  -0.0004  -0.0005   0.0004   0.00  999.9   -0.00681    0.00183   -0.01576   0.00000  0.00000  0.00000  0.00000  0.00000  0.00000
2095 437640.000  -2364333.7738   4870287.3667  -3360809.2510   1   8   0.0005   0.0008   0.0006  -0.0004  -0.0005   0.0004   0.00  999.9    0.00594   -0.00168    0.00355   0.00000  0.00000  0.00000  0.00000  0.00000  0.00000
2095 437670.000  -2364333.7737   4870287.3667  -3360809.2510   1   8   0.0005   0.0008   0.0006  -0.0004  -0.0005   0.0004   0.00  999.9    0.01550   -0.02148    0.00043   0.00000  0.00000  0.00000  0.00000  0.00000  0.00000
2095 437700.000  -2364333.7737   4870287.3667  -3360809.2510   1   8   0.0005   0.0008   0.0006  -0.0004  -0.0005   0.0004   0.00  999.9   -0.00498    0.00332   -0.00917   0.00000  0.00000  0.00000  0.00000  0.00000  0.00000
2095 437730.000  -2364333.7737   4870287.3667  -3360809.2510   1   8   0.0005   0.0008   0.0006  -0.0004  -0.0005   0.0004   0.00  999.9   -0.03633    0.02373   -0.01548   0.00000  0.00000  0.00000  0.00000  0.00000  0.00000
2095 437760.000  -2364333.7737   4870287.3667  -3360809.2510   1   8   0.0005   0.0008   0.0006  -0.0004  -0.0005   0.0004   0.00  999.9    0.01763    0.00828   -0.00457   0.00000  0.00000  0.00000  0.00000  0.00000  0.00000
2095 437790.000  -2364333.7737   4870287.3667  -3360809.2509   1   8   0.0005   0.0008   0.0006  -0.0004  -0.0005   0.0004   0.00  999.9    0.00522   -0.00957    0.00272   0.00000  0.00000  0.00000  0.00000  0.00000  0.00000
2095 437820.000  -2364333.7737   4870287.3667  -3360809.2509   1   8   0.0005   0.0008   0.0006  -0.0004  -0.0005   0.0004   0.00  999.9   -0.00387    0.01421   -0.00789   0.00000  0.00000  0.00000  0.00000  0.00000  0.00000
2095 437850.000  -2364333.7737   4870287.3667  -3360809.2509   1   8   0.0005   0.0008   0.0006  -0.0004  -0.0005   0.0004   0.00  999.9   -0.01652    0.01017   -0.00819   0.00000  0.00000  0.00000  0.00000  0.00000  0.00000
2095 437880.000  -2364333.7737   4870287.3667  -3360809.2509   1   8   0.0005   0.0008   0.0006  -0.0004  -0.0005   0.0004   0.00  999.9    0.02901    0.01488    0.00846   0.00000  0.00000  0.00000  0.00000  0.00000  0.00000
2095 437910.000  -2364333.7736   4870287.3667  -3360809.2509   1   8   0.0005   0.0008   0.0006  -0.0004  -0.0005   0.0004   0.00  999.9    0.02365   -0.02336    0.00759   0.00000  0.00000  0.00000  0.00000  0.00000  0.00000
2095 437940.000  -2364333.7736   4870287.3667  -3360809.2509   1   8   0.0005   0.0008   0.0006  -0.0004  -0.0005   0.0004   0.00  999.9    0.01434    0.01965   -0.02597   0.00000  0.00000  0.00000  0.00000  0.00000  0.00000
2095 437970.000  -2364333.7736   4870287.3666  -3360809.2509   1   8   0.0005   0.0008   0.0006  -0.0004  -0.0005   0.0004   0.00  999.9    0.01416   -0.02330    0.01469   0.00000  0.00000  0.00000  0.00000  0.00000  0.00000
2095 438000.000  -2364333.7736   4870287.3666  -3360809.2509   1   8   0.0005   0.0008   0.0006  -0.0004  -0.0005   0.0004   0.00  999.9    0.01867   -0.00014   -0.02735   0.00000  0.00000  0.00000  0.00000  0.00000  0.00000
2095 438030.000  -2364333.7736   4870287.3665  -3360809.2509   1   8   0.0005   0.0008   0.0006  -0.0004  -0.0005   0.0004   0.00  999.9    0.00242   -0.01284   -0.00863   0.00000  0.00000  0.00000  0.00000  0.00000  0.00000
2095 438060.000  -2364333.7736   4870287.3665  -3360809.2509   1   8   0.0005   0.0008   0.0006  -0.0004  -0.0005   0.0004   0.00  999.9    0.01260    0.01116   -0.02443   0.00000  0.00000  0.00000  0.00000  0.00000  0.00000
2095 438090.000  -2364333.7736   4870287.3665  -3360809.2509   1   8   0.0005   0.0008   0.0006  -0.0004  -0.0005   0.0004   0.00  999.9    0.00774   -0.01903    0.03769   0.00000  0.00000  0.00000  0.00000  0.00000  0.00000
2095 438120.000  -2364333.7736   4870287.3665  -3360809.2509   1   8   0.0005   0.0008   0.0006  -0.0004  -0.0005   0.0004   0.00  999.9    0.00913   -0.00843    0.00765   0.00000  0.00000  0.00000  0.00000  0.00000  0.00000
2095 438150.000  -2364333.7737   4870287.3664  -3360809.2509   1   8   0.0005   0.0008   0.0006  -0.0004  -0.0005   0.0004   0.00  999.9    0.02860   -0.04316    0.03928   0.00000  0.00000  0.00000  0.00000  0.00000  0.00000
2095 438180.000  -2364333.7737   4870287.3664  -3360809.2509   1   8   0.0005   0.0008   0.0006  -0.0004  -0.0005   0.0004   0.00  999.9   -0.01320    0.00637   -0.00541   0.00000  0.00000  0.00000  0.00000  0.00000  0.00000
2095 438210.000  -2364333.7737   4870287.3664  -3360809.2509   1   8   0.0005   0.0008   0.0006  -0.0004  -0.0005   0.0004   0.00  999.9    0.02371   -0.02118   -0.00631   0.00000  0.00000  0.00000  0.00000  0.00000  0.00000
2095 438240.000  -2364333.7737   4870287.3665  -3360809.2509   1   8   0.0005   0.0008   0.0006  -0.0004  -0.0005   0.0004   0.00  999.9   -0.01506    0.00662   -0.01727   0.00000  0.00000  0.00000  0.00000  0.00000  0.00000
2095 438270.000  -2364333.7737   4870287.3665  -3360809.2509   1   8   0.0005   0.0008   0.0006  -0.0004  -0.0005   0.0004   0.00  999.9    0.01355   -0.02395    0.01216   0.00000  0.00000  0.00000  0.00000  0.00000  0.00000
2095 438300.000  -2364333.7737   4870287.3665  -3360809.2509   1   8   0.0005   0.0008   0.0006  -0.0004  -0.0005   0.0004   0.00  999.9   -0.00719    0.00084    0.00130   0.00000  0.00000  0.00000  0.00000  0.00000  0.00000
2095 438330.000  -2364333.7737   4870287.3665  -3360809.2509   1   8   0.0005   0.0008   0.0006  -0.0004  -0.0005   0.0004   0.00  999.9    0.01346    0.00893    0.01948   0.00000  0.00000  0.00000  0.00000  0.00000  0.00000
2095 438360.000  -2364333.7737   4870287.3665  -3360809.2509   1   8   0.0005   0.0008   0.0006  -0.0004  -0.0005   0.0004   0.00  999.9   -0.00999    0.01829   -0.02445   0.00000  0.00000  0.00000  0.00000  0.00000  0.00000
2095 438390.000  -2364333.7737   4870287.3665  -3360809.2509   1   8   0.0005   0.0008   0.0006  -0.0004  -0.0005   0.0004   0.00  999.9    0.01654   -0.02760    0.02080   0.00000  0.00000  0.00000  0.00000  0.00000  0.00000
2095 438420.000  -2364333.7737   4870287.3665  -3360809.2510   1   8   0.0005   0.0008   0.0006  -0.0004  -0.0005   0.0004   0.00  999.9    0.00052    0.01842   -0.01114   0.00000  0.00000  0.00000  0.00000  0.00000  0.00000
2095 438450.000  -2364333.7737   4870287.3665  -3360809.2510   1   8   0.0005   0.0008   0.0006  -0.0004  -0.0005   0.0004   0.00  999.9    0.01125   -0.01212   -0.00232   0.00000  0.00000  0.00000  0.00000  0.00000  0.00000
2095 438480.000  -2364333.7738   4870287.3666  -3360809.2510   1   8   0.0005   0.0008   0.0006  -0.0004  -0.0005   0.0004   0.00  999.9   -0.01708    0.02352   -0.02385   0.00000  0.00000  0.00000  0.00000  0.00000  0.00000
2095 438510.000  -2364333.7738   4870287.3666  -3360809.2510   1   8   0.0005   0.0008   0.0006  -0.0004  -0.0005   0.0004   0.00  999.9    0.00475   -0.00960    0.00974   0.00000  0.00000  0.00000  0.00000  0.00000  0.00000
2095 438540.000  -2364333.7738   4870287.3666  -3360809.2511   1   8   0.0005   0.0008   0.0006  -0.0004  -0.0005   0.0004   0.00  999.9   -0.01795    0.03108   -0.01233   0.00000  0.00000  0.00000  0.00000  0.00000  0.00000
2095 438570.000  -2364333.7738   4870287.3667  -3360809.2511   1   8   0.0005   0.0008   0.0006  -0.0004  -0.0005   0.0004   0.00  999.9    0.01734    0.01911   -0.00008   0.00000  0.00000  0.00000  0.00000  0.00000  0.00000
2095 438600.000  -2364333.7739   4870287.3667  -3360809.2511   1   8   0.0005   0.0007   0.0006  -0.0004  -0.0005   0.0004   0.00  999.9   -0.01433    0.03570   -0.01638   0.00000  0.00000  0.00000  0.00000  0.00000  0.00000
2095 438630.000  -2364333.7739   4870287.3667  -3360809.2511   1   8   0.0005   0.0008   0.0006  -0.0004  -0.0005   0.0004   0.00  999.9    0.00948    0.00052   -0.00873   0.00000  0.00000  0.00000  0.00000  0.00000  0.00000
2095 438660.000  -2364333.7739   4870287.3668  -3360809.2511   1   8   0.0005   0.0008   0.0006  -0.0004  -0.0005   0.0004   0.00  999.9    0.01022    0.00381   -0.00377   0.00000  0.00000  0.00000  0.00000  0.00000  0.00000
2095 438690.000  -2364333.7739   4870287.3668  -3360809.2511   1   8   0.0005   0.0008   0.0006  -0.0004  -0.0005   0.0004   0.00  999.9    0.01803   -0.01769    0.01586   0.00000  0.00000  0.00000  0.00000  0.00000  0.00000
2095 438720.000  -2364333.7739   4870287.3668  -3360809.2511   1   8   0.0005   0.0008   0.0006  -0.0004  -0.0005   0.0004   0.00  999.9    0.02535   -0.01007   -0.00209   0.00000  0.00000  0.00000  0.00000  0.00000  0.00000
2095 438750.000  -2364333.7739   4870287.3668  -3360809.2511   1   8   0.0005   0.0008   0.0006  -0.0004  -0.0005   0.0004   0.00  999.9    0.01652   -0.00872    0.00056   0.00000  0.00000  0.00000  0.00000  0.00000  0.00000
2095 438780.000  -2364333.7739   4870287.3668  -3360809.2511   1   8   0.0005   0.0008   0.0006  -0.0004  -0.0005   0.0004   0.00  999.9    0.01848   -0.00240    0.00503   0.00000  0.00000  0.00000  0.00000  0.00000  0.00000
2095 438810.000  -2364333.7739   4870287.3668  -3360809.2511   1   8   0.0005   0.0008   0.0006  -0.0004  -0.0005   0.0004   0.00  999.9    0.00013    0.02340   -0.03179   0.00000  0.00000  0.00000  0.00000  0.00000  0.00000
2095 438840.000  -2364333.7739   4870287.3670  -3360809.2511   1   8   0.0005   0.0008   0.0006  -0.0004  -0.0005   0.0004   0.00  256.4    0.01573    0.00972   -0.02743   0.00000  0.00000  0.00000  0.00000  0.00000  0.00000
2095 438870.000  -2364333.7739   4870287.3671  -3360809.2511   1   8   0.0005   0.0007   0.0006  -0.0004  -0.0005   0.0004   0.00  502.0   -0.01192   -0.00031    0.01177   0.00000  0.00000  0.00000  0.00000  0.00000  0.00000
2095 438900.000  -2364333.7739   4870287.3671  -3360809.2511   1   8   0.0005   0.0007   0.0006  -0.0004  -0.0005   0.0004   0.00  776.6    0.00552   -0.00586   -0.01527   0.00000  0.00000  0.00000  0.00000  0.00000  0.00000
2095 438930.000  -2364333.7739   4870287.3671  -3360809.2511   1   8   0.0005   0.0007   0.0006  -0.0004  -0.0005   0.0004   0.00  999.9    0.00129   -0.02918    0.00108   0.00000  0.00000  0.00000  0.00000  0.00000  0.00000
2095 438960.000  -2364333.7739   4870287.3672  -3360809.2510   1   8   0.0005   0.0007   0.0006  -0.0004  -0.0005   0.0004   0.00  999.9   -0.00546    0.02371    0.01348   0.00000  0.00000  0.00000  0.00000  0.00000  0.00000
2095 438990.000  -2364333.7739   4870287.3672  -3360809.2510   1   8   0.0005   0.0007   0.0006  -0.0004  -0.0005   0.0004   0.00  999.9   -0.01847    0.04082   -0.02843   0.00000  0.00000  0.00000  0.00000  0.00000  0.00000
2095 439020.000  -2364333.7739   4870287.3672  -3360809.2511   1   8   0.0005   0.0007   0.0006  -0.0004  -0.0005   0.0004   0.00  999.9    0.00285   -0.00562   -0.02425   0.00000  0.00000  0.00000  0.00000  0.00000  0.00000
2095 439050.000  -2364333.7739   4870287.3672  -3360809.2511   1   8   0.0005   0.0007   0.0006  -0.0004  -0.0005   0.0004   0.00  999.9   -0.00655    0.02414   -0.01549   0.00000  0.00000  0.00000  0.00000  0.00000  0.00000
2095 439080.000  -2364333.7739   4870287.3673  -3360809.2511   1   8   0.0005   0.0007   0.0006  -0.0004  -0.0005   0.0004   0.00  999.9   -0.01016    0.00196   -0.02871   0.00000  0.00000  0.00000  0.00000  0.00000  0.00000
2095 439110.000  -2364333.7739   4870287.3673  -3360809.2511   1   8   0.0005   0.0007   0.0005  -0.0004  -0.0005   0.0004   0.00  999.9    0.00265    0.02713   -0.04205   0.00000  0.00000  0.00000  0.00000  0.00000  0.00000
2095 439140.000  -2364333.7739   4870287.3674  -3360809.2511   1   8   0.0005   0.0007   0.0005  -0.0004  -0.0005   0.0004   0.00  999.9   -0.00015    0.01679   -0.00824   0.00000  0.00000  0.00000  0.00000  0.00000  0.00000
2095 439170.000  -2364333.7739   4870287.3674  -3360809.2511   1   8   0.0005   0.0007   0.0005  -0.0004  -0.0005   0.0004   0.00  999.9   -0.00096    0.01783   -0.05182   0.00000  0.00000  0.00000  0.00000  0.00000  0.00000
2095 439200.000  -2364333.7739   4870287.3674  -3360809.2511   1   8   0.0005   0.0007   0.0005  -0.0004  -0.0005   0.0004   0.00  999.9    0.01497   -0.01957    0.00073   0.00000  0.00000  0.00000  0.00000  0.00000  0.00000
2095 439230.000  -2364333.7739   4870287.3674  -3360809.2511   1   8   0.0005   0.0007   0.0005  -0.0004  -0.0005   0.0004   0.00  999.9    0.01538   -0.00429   -0.01184   0.00000  0.00000  0.00000  0.00000  0.00000  0.00000
2095 439260.000  -2364333.7739   4870287.3674  -3360809.2511   1   8   0.0005   0.0007   0.0005  -0.0004  -0.0005   0.0004   0.00  999.9    0.00562   -0.01955    0.00037   0.00000  0.00000  0.00000  0.00000  0.00000  0.00000
2095 439290.000  -2364333.7738   4870287.3674  -3360809.2511   1   8   0.0005   0.0007   0.0005  -0.0004  -0.0005   0.0004   0.00  999.9    0.00063   -0.00239    0.00910   0.00000  0.00000  0.00000  0.00000  0.00000  0.00000
2095 439320.000  -2364333.7738   4870287.3674  -3360809.2511   1   8   0.0005   0.0007   0.0005  -0.0004  -0.0005   0.0004   0.00  999.9    0.01609   -0.02775    0.01318   0.00000  0.00000  0.00000  0.00000  0.00000  0.00000
2095 439350.000  -2364333.7738   4870287.3674  -3360809.2511   1   8   0.0005   0.0007   0.0005  -0.0004  -0.0005   0.0004   0.00  999.9   -0.00973    0.00576   -0.00279   0.00000  0.00000  0.00000  0.00000  0.00000  0.00000
2095 439380.000  -2364333.7738   4870287.3673  -3360809.2511   1   8   0.0005   0.0007   0.0005  -0.0004  -0.0005   0.0004   0.00  999.9   -0.00368    0.00637   -0.00924   0.00000  0.00000  0.00000  0.00000  0.00000  0.00000
2095 439410.000  -2364333.7738   4870287.3673  -3360809.2511   1   8   0.0005   0.0007   0.0005  -0.0004  -0.0005   0.0004   0.00  999.9    0.01296   -0.00003    0.01698   0.00000  0.00000  0.00000  0.00000  0.00000  0.00000
2095 439440.000  -2364333.7738   4870287.3673  -3360809.2511   1   8   0.0005   0.0007   0.0005  -0.0004  -0.0005   0.0004   0.00  999.9   -0.00531    0.00490    0.02957   0.00000  0.00000  0.00000  0.00000  0.00000  0.00000
2095 439470.000  -2364333.7738   4870287.3672  -3360809.2511   1   8   0.0005   0.0007   0.0005  -0.0004  -0.0005   0.0004   0.00  999.9   -0.01356    0.00647   -0.01239   0.00000  0.00000  0.00000  0.00000  0.00000  0.00000
2095 439500.000  -2364333.7738   4870287.3672  -3360809.2511   1   8   0.0005   0.0007   0.0005  -0.0004  -0.0005   0.0004   0.00  999.9    0.01667   -0.00896   -0.01802   0.00000  0.00000  0.00000  0.00000  0.00000  0.00000
2095 439530.000  -2364333.7738   4870287.3672  -3360809.2511   1   8   0.0005   0.0007   0.0005  -0.0004  -0.0005   0.0004   0.00  999.9   -0.00449    0.00010    0.00158   0.00000  0.00000  0.00000  0.00000  0.00000  0.00000
2095 439560.000  -2364333.7738   4870287.3672  -3360809.2511   1   8   0.0005   0.0007   0.0005  -0.0004  -0.0005   0.0004   0.00  999.9   -0.00365   -0.00264    0.01134   0.00000  0.00000  0.00000  0.00000  0.00000  0.00000
2095 439590.000  -2364333.7738   4870287.3672  -3360809.2511   1   8   0.0005   0.0007   0.0005  -0.0004  -0.0005   0.0004   0.00  999.9    0.00446   -0.01401    0.00311   0.00000  0.00000  0.00000  0.00000  0.00000  0.00000
2095 439620.000  -2364333.7738   4870287.3671  -3360809.2511   1   8   0.0005   0.0007   0.0005  -0.0004  -0.0005   0.0004   0.00  999.9    0.00447   -0.01124    0.02337   0.00000  0.00000  0.00000  0.00000  0.00000  0.00000
2095 439650.000  -2364333.7738   4870287.3671  -3360809.2511   1   8   0.0005   0.0007   0.0005  -0.0004  -0.0005   0.0004   0.00  999.9   -0.01123    0.00431    0.00869   0.00000  0.00000  0.00000  0.00000  0.00000  0.00000
2095 439680.000  -2364333.7738   4870287.3671  -3360809.2511   1   8   0.0005   0.0007   0.0005  -0.0004  -0.0005   0.0004   0.00  999.9    0.00078   -0.00123    0.00651   0.00000  0.00000  0.00000  0.00000  0.00000  0.00000
2095 439710.000  -2364333.7738   4870287.3671  -3360809.2511   1   8   0.0005   0.0007   0.0005  -0.0004  -0.0005   0.0004   0.00  999.9   -0.01303    0.00583    0.00121   0.00000  0.00000  0.00000  0.00000  0.00000  0.00000
2095 439740.000  -2364333.7738   4870287.3671  -3360809.2510   1   8   0.0005   0.0007   0.0005  -0.0004  -0.0005   0.0004   0.00  999.9    0.00274   -0.01100   -0.00323   0.00000  0.00000  0.00000  0.00000  0.00000  0.00000
2095 439770.000  -2364333.7738   4870287.3671  -3360809.2510   1   8   0.0005   0.0007   0.0005  -0.0004  -0.0005   0.0004   0.00  999.9   -0.00493    0.00768   -0.03820   0.00000  0.00000  0.00000  0.00000  0.00000  0.00000
2095 439800.000  -2364333.7738   4870287.3670  -3360809.2510   1   8   0.0005   0.0007   0.0005  -0.0004  -0.0005   0.0004   0.00  999.9   -0.00733    0.02079   -0.04519   0.00000  0.00000  0.00000  0.00000  0.00000  0.00000
2095 439830.000  -2364333.7738   4870287.3670  -3360809.2510   1   8   0.0005   0.0007   0.0005  -0.0004  -0.0005   0.0004   0.00  999.9   -0.00381    0.00549    0.01035   0.00000  0.00000  0.00000  0.00000  0.00000  0.00000
2095 439860.000  -2364333.7737   4870287.3669  -3360809.2510   1   8   0.0005   0.0007   0.0005  -0.0004  -0.0005   0.0004   0.00  247.0    0.01306   -0.01745    0.01435   0.00000  0.00000  0.00000  0.00000  0.00000  0.00000
2095 439890.000  -2364333.7738   4870287.3669  -3360809.2510   1   8   0.0005   0.0007   0.0005  -0.0004  -0.0005   0.0004   0.00  953.2   -0.00840   -0.00144   -0.00711   0.00000  0.00000  0.00000  0.00000  0.00000  0.00000
