% program   : GINav v0.1.0
% obs start : 2020/03/06 00:00:00.0
% obs end   : 2020/03/06 23:59:30.0
% mode      : SPP
% system    : GPS GALILEO 
% nfreqs    : 1
% elev mask : 10.0 deg
% ephemeris : broadcast
% ionos opt : broadcast model
% trops opt : Saastamoinen model
%
%  GPST              x-ecef(m)      y-ecef(m)      z-ecef(m)   Q  ns   sdx(m)   sdy(m)   sdz(m)  sdxy(m)  sdyz(m)  sdzx(m) age(s)  ratio    vx(m/s)    vy(m/s)    vz(m/s)      sdvx     sdvy     sdvz    sdvxy    sdvyz    sdvzx
2095 432000.000  -2364333.6772   4870286.4731  -3360808.0079   5   9   2.9051   4.8822   3.4404  -2.3987  -2.9733   2.3573   0.00    0.0    0.00263   -0.01862    0.00542   0.00000  0.00000  0.00000  0.00000  0.00000  0.00000
2095 432030.000  -2364333.5916   4870287.1044  -3360808.4151   5   9   2.9100   4.8883   3.4377  -2.4077  -2.9725   2.3589   0.00    0.0    0.00800   -0.01650   -0.00200   0.00000  0.00000  0.00000  0.00000  0.00000  0.00000
2095 432060.000  -2364333.4561   4870285.2601  -3360807.3175   5  10   2.8043   4.7657   2.8887  -2.2257  -2.5998   2.0232   0.00    0.0   -0.00499   -0.01848   -0.00052   0.00000  0.00000  0.00000  0.00000  0.00000  0.00000
2095 432090.000  -2364332.0368   4870283.2058  -3360807.5245   5  10   2.8099   4.7742   2.8881  -2.2375  -2.6031   2.0266   0.00    0.0   -0.00951    0.02661   -0.00133   0.00000  0.00000  0.00000  0.00000  0.00000  0.00000
2095 432120.000  -2364331.8268   4870282.7977  -3360807.0097   5  10   2.8156   4.7827   2.8875  -2.2493  -2.6063   2.0300   0.00    0.0    0.00928   -0.02415    0.00227   0.00000  0.00000  0.00000  0.00000  0.00000  0.00000
2095 432150.000  -2364332.6759   4870283.7325  -3360807.3002   5  10   2.8213   4.7912   2.8868  -2.2610  -2.6094   2.0333   0.00    0.0   -0.02037    0.03618   -0.02470   0.00000  0.00000  0.00000  0.00000  0.00000  0.00000
2095 432180.000  -2364332.2255   4870284.9638  -3360807.2584   5  10   2.8269   4.7997   2.8861  -2.2725  -2.6125   2.0365   0.00    0.0    0.00434    0.01275   -0.01936   0.00000  0.00000  0.00000  0.00000  0.00000  0.00000
2095 432210.000  -2364332.3925   4870283.6141  -3360806.6751   5  10   2.8326   4.8082   2.8854  -2.2840  -2.6155   2.0397   0.00    0.0    0.01051   -0.01544    0.02680   0.00000  0.00000  0.00000  0.00000  0.00000  0.00000
2095 432240.000  -2364333.5748   4870286.5187  -3360807.3709   5  10   2.8382   4.8168   2.8846  -2.2954  -2.6184   2.0428   0.00    0.0    0.01349   -0.01313    0.00149   0.00000  0.00000  0.00000  0.00000  0.00000  0.00000
2095 432270.000  -2364332.8873   4870284.8606  -3360807.3393   5  10   2.8439   4.8253   2.8839  -2.3067  -2.6212   2.0458   0.00    0.0   -0.00194   -0.00278   -0.00150   0.00000  0.00000  0.00000  0.00000  0.00000  0.00000
2095 432300.000  -2364331.4213   4870282.2140  -3360807.1114   5  10   2.8495   4.8337   2.8831  -2.3179  -2.6240   2.0487   0.00    0.0    0.00358    0.01917    0.01085   0.00000  0.00000  0.00000  0.00000  0.00000  0.00000
2095 432330.000  -2364332.2115   4870283.9703  -3360806.9457   5  10   2.8552   4.8422   2.8823  -2.3290  -2.6266   2.0516   0.00    0.0   -0.00119    0.01108   -0.00652   0.00000  0.00000  0.00000  0.00000  0.00000  0.00000
2095 432360.000  -2364332.9989   4870285.3556  -3360806.9972   5  10   2.8608   4.8506   2.8815  -2.3400  -2.6292   2.0544   0.00    0.0    0.00340   -0.01305    0.00997   0.00000  0.00000  0.00000  0.00000  0.00000  0.00000
2095 432390.000  -2364333.1837   4870285.0565  -3360806.8054   5  10   2.8665   4.8591   2.8806  -2.3509  -2.6317   2.0571   0.00    0.0    0.01086   -0.00946    0.01509   0.00000  0.00000  0.00000  0.00000  0.00000  0.00000
2095 432420.000  -2364332.4496   4870284.8594  -3360806.9979   5  10   2.8721   4.8675   2.8797  -2.3617  -2.6340   2.0598   0.00    0.0   -0.00741    0.00081   -0.00134   0.00000  0.00000  0.00000  0.00000  0.00000  0.00000
2095 432450.000  -2364332.2809   4870284.7148  -3360806.9130   5  10   2.8778   4.8758   2.8788  -2.3724  -2.6363   2.0624   0.00    0.0    0.00728    0.00723   -0.01454   0.00000  0.00000  0.00000  0.00000  0.00000  0.00000
2095 432480.000  -2364332.1470   4870284.3966  -3360807.2187   5  10   2.8834   4.8841   2.8779  -2.3830  -2.6385   2.0649   0.00    0.0    0.02511   -0.01829    0.01668   0.00000  0.00000  0.00000  0.00000  0.00000  0.00000
2095 432510.000  -2364331.9952   4870284.7996  -3360807.0974   5  10   2.8890   4.8924   2.8769  -2.3936  -2.6406   2.0674   0.00    0.0   -0.01179   -0.00998   -0.00925   0.00000  0.00000  0.00000  0.00000  0.00000  0.00000
2095 432540.000  -2364332.1934   4870284.8609  -3360806.3787   5  10   2.8946   4.9007   2.8760  -2.4040  -2.6426   2.0697   0.00    0.0   -0.00254   -0.00726   -0.00289   0.00000  0.00000  0.00000  0.00000  0.00000  0.00000
2095 432570.000  -2364332.1127   4870283.8874  -3360806.6657   5  10   2.9002   4.9089   2.8750  -2.4143  -2.6445   2.0720   0.00    0.0    0.00505   -0.00474   -0.00149   0.00000  0.00000  0.00000  0.00000  0.00000  0.00000
2095 432600.000  -2364332.0140   4870284.2369  -3360807.0152   5  10   2.9058   4.9170   2.8740  -2.4245  -2.6463   2.0743   0.00    0.0   -0.01662   -0.01489    0.00082   0.00000  0.00000  0.00000  0.00000  0.00000  0.00000
2095 432630.000  -2364331.9712   4870283.7540  -3360806.7557   5  10   2.9114   4.9251   2.8729  -2.4346  -2.6480   2.0764   0.00    0.0    0.00633    0.00145   -0.01099   0.00000  0.00000  0.00000  0.00000  0.00000  0.00000
2095 432660.000  -2364332.9324   4870285.1998  -3360807.3649   5  10   2.9170   4.9331   2.8719  -2.4446  -2.6496   2.0785   0.00    0.0   -0.00658    0.00784    0.00131   0.00000  0.00000  0.00000  0.00000  0.00000  0.00000
2095 432690.000  -2364332.6322   4870284.2718  -3360807.0315   5  10   2.9226   4.9411   2.8708  -2.4544  -2.6511   2.0805   0.00    0.0    0.00451   -0.01337    0.00545   0.00000  0.00000  0.00000  0.00000  0.00000  0.00000
2095 432720.000  -2364332.5669   4870284.5052  -3360807.0962   5  10   2.9281   4.9490   2.8697  -2.4642  -2.6525   2.0825   0.00    0.0   -0.00250    0.03433   -0.01502   0.00000  0.00000  0.00000  0.00000  0.00000  0.00000
2095 432750.000  -2364332.0327   4870283.9392  -3360807.7952   5  10   2.9337   4.9568   2.8686  -2.4739  -2.6538   2.0844   0.00    0.0    0.00519   -0.03192    0.00743   0.00000  0.00000  0.00000  0.00000  0.00000  0.00000
2095 432780.000  -2364332.4599   4870283.9298  -3360807.3516   5  10   2.9392   4.9646   2.8675  -2.4835  -2.6550   2.0862   0.00    0.0   -0.00162   -0.04159    0.00167   0.00000  0.00000  0.00000  0.00000  0.00000  0.00000
2095 432810.000  -2364332.4340   4870283.6585  -3360807.0719   5  10   2.9447   4.9723   2.8664  -2.4930  -2.6561   2.0879   0.00    0.0   -0.00703   -0.00218   -0.00211   0.00000  0.00000  0.00000  0.00000  0.00000  0.00000
2095 432840.000  -2364333.1169   4870285.3246  -3360807.1773   5  10   2.9502   4.9799   2.8652  -2.5023  -2.6571   2.0896   0.00    0.0    0.00377    0.00792   -0.00847   0.00000  0.00000  0.00000  0.00000  0.00000  0.00000
2095 432870.000  -2364331.9731   4870283.1739  -3360807.0967   5  10   2.9557   4.9875   2.8641  -2.5116  -2.6580   2.0912   0.00    0.0    0.01367   -0.02642    0.01456   0.00000  0.00000  0.00000  0.00000  0.00000  0.00000
2095 432900.000  -2364332.1546   4870283.3401  -3360807.4288   5  10   2.9612   4.9950   2.8629  -2.5207  -2.6588   2.0927   0.00    0.0   -0.00282    0.01942   -0.01296   0.00000  0.00000  0.00000  0.00000  0.00000  0.00000
2095 432930.000  -2364332.1682   4870284.0822  -3360807.1498   5  10   2.9667   5.0023   2.8617  -2.5298  -2.6595   2.0941   0.00    0.0   -0.02397   -0.00901   -0.00042   0.00000  0.00000  0.00000  0.00000  0.00000  0.00000
2095 432960.000  -2364332.2052   4870283.6708  -3360807.2489   5  10   2.9721   5.0096   2.8605  -2.5387  -2.6600   2.0955   0.00    0.0    0.00369   -0.01396    0.01201   0.00000  0.00000  0.00000  0.00000  0.00000  0.00000
2095 432990.000  -2364332.0585   4870283.8066  -3360807.5880   5  10   2.9776   5.0168   2.8593  -2.5476  -2.6605   2.0968   0.00    0.0    0.02916   -0.01118    0.00655   0.00000  0.00000  0.00000  0.00000  0.00000  0.00000
2095 433020.000  -2364332.0624   4870283.2989  -3360807.3285   5  10   2.9830   5.0240   2.8581  -2.5563  -2.6608   2.0981   0.00    0.0    0.01105    0.01200   -0.00140   0.00000  0.00000  0.00000  0.00000  0.00000  0.00000
2095 433050.000  -2364332.3933   4870284.1687  -3360807.0949   5  10   2.9884   5.0310   2.8569  -2.5649  -2.6611   2.0993   0.00    0.0   -0.01174    0.01294   -0.00662   0.00000  0.00000  0.00000  0.00000  0.00000  0.00000
2095 433080.000  -2364331.7886   4870283.7023  -3360807.3861   5  10   2.9939   5.0379   2.8557  -2.5734  -2.6612   2.1004   0.00    0.0    0.00409   -0.01553   -0.00110   0.00000  0.00000  0.00000  0.00000  0.00000  0.00000
2095 433110.000  -2364331.7130   4870283.1067  -3360807.0770   5  10   2.9993   5.0447   2.8544  -2.5818  -2.6613   2.1014   0.00    0.0    0.00050    0.00968   -0.00985   0.00000  0.00000  0.00000  0.00000  0.00000  0.00000
2095 433140.000  -2364331.3991   4870282.0888  -3360806.7865   5  10   3.0046   5.0514   2.8532  -2.5902  -2.6612   2.1024   0.00    0.0    0.00563    0.01119   -0.00657   0.00000  0.00000  0.00000  0.00000  0.00000  0.00000
2095 433170.000  -2364332.0121   4870283.8490  -3360806.9918   5  10   3.0100   5.0580   2.8520  -2.5984  -2.6610   2.1033   0.00    0.0    0.00696   -0.03095    0.01003   0.00000  0.00000  0.00000  0.00000  0.00000  0.00000
2095 433200.000  -2364331.6403   4870283.3881  -3360806.7428   5  10   3.0154   5.0645   2.8507  -2.6065  -2.6608   2.1042   0.00    0.0    0.00521   -0.00852    0.00815   0.00000  0.00000  0.00000  0.00000  0.00000  0.00000
2095 433230.000  -2364331.8362   4870284.2342  -3360806.7553   5  10   3.0207   5.0709   2.8495  -2.6145  -2.6604   2.1050   0.00    0.0   -0.00514   -0.00075    0.00791   0.00000  0.00000  0.00000  0.00000  0.00000  0.00000
2095 433260.000  -2364332.1937   4870284.2746  -3360807.2163   5  10   3.0260   5.0772   2.8483  -2.6223  -2.6599   2.1057   0.00    0.0    0.00951    0.01802   -0.01531   0.00000  0.00000  0.00000  0.00000  0.00000  0.00000
2095 433290.000  -2364331.6264   4870283.2836  -3360806.5462   5  10   3.0314   5.0834   2.8470  -2.6301  -2.6593   2.1064   0.00    0.0   -0.00315    0.00154    0.00195   0.00000  0.00000  0.00000  0.00000  0.00000  0.00000
2095 433320.000  -2364331.9677   4870283.5406  -3360807.0713   5  10   3.0367   5.0894   2.8458  -2.6378  -2.6586   2.1070   0.00    0.0   -0.01024    0.01289   -0.00186   0.00000  0.00000  0.00000  0.00000  0.00000  0.00000
2095 433350.000  -2364332.1028   4870284.1934  -3360806.7283   5  10   3.0420   5.0953   2.8446  -2.6454  -2.6578   2.1075   0.00    0.0    0.01900   -0.01745   -0.00271   0.00000  0.00000  0.00000  0.00000  0.00000  0.00000
2095 433380.000  -2364333.1898   4870284.1187  -3360806.9025   5  10   3.0472   5.1011   2.8434  -2.6529  -2.6569   2.1080   0.00    0.0    0.00446   -0.00695    0.00380   0.00000  0.00000  0.00000  0.00000  0.00000  0.00000
2095 433410.000  -2364331.8928   4870284.2112  -3360806.4730   5  10   3.0525   5.1068   2.8422  -2.6603  -2.6559   2.1084   0.00    0.0    0.00101    0.01038   -0.00807   0.00000  0.00000  0.00000  0.00000  0.00000  0.00000
2095 433440.000  -2364331.9362   4870284.4595  -3360807.1401   5  10   3.0578   5.1124   2.8410  -2.6676  -2.6548   2.1088   0.00    0.0    0.00675   -0.00755    0.00023   0.00000  0.00000  0.00000  0.00000  0.00000  0.00000
2095 433470.000  -2364332.3248   4870284.8846  -3360806.4669   5  10   3.0630   5.1178   2.8398  -2.6748  -2.6536   2.1091   0.00    0.0   -0.00006    0.00226    0.00525   0.00000  0.00000  0.00000  0.00000  0.00000  0.00000
2095 433500.000  -2364331.6826   4870283.7474  -3360806.7272   5  10   3.0683   5.1231   2.8386  -2.6818  -2.6523   2.1094   0.00    0.0    0.01379   -0.03086    0.00704   0.00000  0.00000  0.00000  0.00000  0.00000  0.00000
2095 433530.000  -2364332.1416   4870284.7273  -3360807.0401   5  10   3.0735   5.1283   2.8374  -2.6888  -2.6509   2.1096   0.00    0.0    0.00263   -0.00240    0.00146   0.00000  0.00000  0.00000  0.00000  0.00000  0.00000
2095 433560.000  -2364332.1928   4870284.9766  -3360806.6225   5  10   3.0787   5.1334   2.8363  -2.6957  -2.6495   2.1098   0.00    0.0   -0.00414    0.00460   -0.00178   0.00000  0.00000  0.00000  0.00000  0.00000  0.00000
2095 433590.000  -2364331.6627   4870283.9569  -3360806.5110   5  10   3.0840   5.1383   2.8352  -2.7025  -2.6479   2.1099   0.00    0.0   -0.01351    0.00413   -0.00700   0.00000  0.00000  0.00000  0.00000  0.00000  0.00000
2095 433620.000  -2364332.3585   4870284.4050  -3360806.7055   5  10   3.0892   5.1431   2.8341  -2.7092  -2.6462   2.1099   0.00    0.0    0.00342   -0.01401   -0.00394   0.00000  0.00000  0.00000  0.00000  0.00000  0.00000
2095 433650.000  -2364332.0321   4870283.7429  -3360806.6639   5  10   3.0944   5.1477   2.8330  -2.7159  -2.6444   2.1099   0.00    0.0    0.00058    0.00602   -0.00991   0.00000  0.00000  0.00000  0.00000  0.00000  0.00000
2095 433680.000  -2364332.0053   4870284.5075  -3360806.6903   5  10   3.0996   5.1522   2.8319  -2.7224  -2.6426   2.1099   0.00    0.0    0.00031   -0.02341    0.00850   0.00000  0.00000  0.00000  0.00000  0.00000  0.00000
2095 433710.000  -2364332.0639   4870283.9286  -3360806.7621   5  10   3.1048   5.1566   2.8308  -2.7288  -2.6406   2.1098   0.00    0.0    0.01475   -0.01246    0.00185   0.00000  0.00000  0.00000  0.00000  0.00000  0.00000
2095 433740.000  -2364331.9022   4870284.3482  -3360806.9112   5  10   3.1100   5.1608   2.8298  -2.7352  -2.6386   2.1097   0.00    0.0   -0.00371    0.01229   -0.01228   0.00000  0.00000  0.00000  0.00000  0.00000  0.00000
2095 433770.000  -2364331.6538   4870284.4838  -3360806.6344   5  10   3.1152   5.1649   2.8288  -2.7414  -2.6364   2.1095   0.00    0.0   -0.00409    0.01350   -0.01614   0.00000  0.00000  0.00000  0.00000  0.00000  0.00000
2095 433800.000  -2364332.2337   4870285.3790  -3360806.7740   5  10   3.1203   5.1689   2.8279  -2.7476  -2.6342   2.1093   0.00    0.0   -0.00723    0.01484   -0.00561   0.00000  0.00000  0.00000  0.00000  0.00000  0.00000
2095 433830.000  -2364332.1999   4870284.8989  -3360806.6930   5  10   3.1255   5.1727   2.8269  -2.7537  -2.6319   2.1090   0.00    0.0    0.00180   -0.00550   -0.00121   0.00000  0.00000  0.00000  0.00000  0.00000  0.00000
2095 433860.000  -2364331.4342   4870282.6096  -3360806.3746   5  10   3.1307   5.1764   2.8260  -2.7597  -2.6295   2.1087   0.00    0.0   -0.00928    0.02172   -0.00614   0.00000  0.00000  0.00000  0.00000  0.00000  0.00000
2095 433890.000  -2364331.9216   4870283.3880  -3360806.5793   5  10   3.1359   5.1799   2.8251  -2.7656  -2.6271   2.1083   0.00    0.0    0.00565   -0.01809   -0.00261   0.00000  0.00000  0.00000  0.00000  0.00000  0.00000
2095 433920.000  -2364331.9271   4870283.1133  -3360806.1129   5  10   3.1411   5.1834   2.8243  -2.7715  -2.6245   2.1080   0.00    0.0   -0.00176   -0.01350   -0.01825   0.00000  0.00000  0.00000  0.00000  0.00000  0.00000
2095 433950.000  -2364331.2601   4870283.3488  -3360806.2511   5  10   3.1462   5.1866   2.8235  -2.7773  -2.6219   2.1075   0.00    0.0    0.01534   -0.01456    0.00020   0.00000  0.00000  0.00000  0.00000  0.00000  0.00000
2095 433980.000  -2364331.8899   4870283.1419  -3360806.2973   5  10   3.1514   5.1897   2.8227  -2.7830  -2.6192   2.1071   0.00    0.0    0.01416   -0.00579    0.01658   0.00000  0.00000  0.00000  0.00000  0.00000  0.00000
2095 434010.000  -2364331.1871   4870283.2413  -3360806.1489   5  10   3.1566   5.1927   2.8219  -2.7886  -2.6165   2.1066   0.00    0.0   -0.00448    0.02014   -0.00666   0.00000  0.00000  0.00000  0.00000  0.00000  0.00000
2095 434040.000  -2364331.9967   4870283.4373  -3360806.4494   5  10   3.1618   5.1955   2.8212  -2.7941  -2.6136   2.1060   0.00    0.0   -0.01165    0.02584   -0.01526   0.00000  0.00000  0.00000  0.00000  0.00000  0.00000
2095 434070.000  -2364332.0959   4870283.3066  -3360807.0336   5  10   3.1670   5.1982   2.8206  -2.7996  -2.6107   2.1055   0.00    0.0    0.00343    0.00481   -0.00310   0.00000  0.00000  0.00000  0.00000  0.00000  0.00000
2095 434100.000  -2364331.9228   4870282.5728  -3360806.6040   5  10   3.1722   5.2008   2.8199  -2.8050  -2.6078   2.1049   0.00    0.0    0.00177   -0.00106    0.00561   0.00000  0.00000  0.00000  0.00000  0.00000  0.00000
2095 434130.000  -2364331.5276   4870282.7271  -3360806.4439   5  10   3.1774   5.2032   2.8194  -2.8103  -2.6047   2.1043   0.00    0.0   -0.01501    0.00901    0.00318   0.00000  0.00000  0.00000  0.00000  0.00000  0.00000
2095 434160.000  -2364331.4171   4870282.8742  -3360806.3328   5  10   3.1826   5.2055   2.8188  -2.8156  -2.6016   2.1036   0.00    0.0   -0.00502    0.01585   -0.00173   0.00000  0.00000  0.00000  0.00000  0.00000  0.00000
2095 434190.000  -2364331.8521   4870284.1600  -3360807.1866   5   9   3.2686   5.9074   3.0903  -3.1578  -3.2073   2.3104   0.00    0.0    0.01003   -0.03811    0.00928   0.00000  0.00000  0.00000  0.00000  0.00000  0.00000
2095 434220.000  -2364332.6495   4870284.3594  -3360807.0456   5   9   3.2738   5.9066   3.0872  -3.1619  -3.2009   2.3088   0.00    0.0    0.00755   -0.01176    0.01103   0.00000  0.00000  0.00000  0.00000  0.00000  0.00000
2095 434250.000  -2364331.7783   4870284.0744  -3360806.7650   5   9   3.2790   5.9055   3.0843  -3.1659  -3.1943   2.3072   0.00    0.0   -0.01062   -0.00135   -0.00144   0.00000  0.00000  0.00000  0.00000  0.00000  0.00000
2095 434280.000  -2364332.6819   4870283.4744  -3360806.3890   5   9   3.2842   5.9042   3.0813  -3.1698  -3.1876   2.3056   0.00    0.0   -0.01530    0.01755    0.00636   0.00000  0.00000  0.00000  0.00000  0.00000  0.00000
2095 434310.000  -2364332.3237   4870283.3891  -3360806.8178   5   9   3.2894   5.9027   3.0784  -3.1737  -3.1807   2.3039   0.00    0.0    0.00717    0.00911   -0.01967   0.00000  0.00000  0.00000  0.00000  0.00000  0.00000
2095 434340.000  -2364332.2004   4870283.4145  -3360806.7509   5   9   3.2945   5.9009   3.0756  -3.1774  -3.1738   2.3022   0.00    0.0   -0.00092   -0.01795   -0.00408   0.00000  0.00000  0.00000  0.00000  0.00000  0.00000
2095 434370.000  -2364332.5277   4870283.3695  -3360806.6682   5   9   3.2997   5.8989   3.0728  -3.1810  -3.1668   2.3004   0.00    0.0   -0.01275   -0.00614    0.00493   0.00000  0.00000  0.00000  0.00000  0.00000  0.00000
2095 434400.000  -2364332.5520   4870283.8940  -3360807.0930   5   9   3.3049   5.8967   3.0700  -3.1845  -3.1597   2.2986   0.00    0.0    0.00054   -0.01346    0.01306   0.00000  0.00000  0.00000  0.00000  0.00000  0.00000
2095 434430.000  -2364332.3332   4870282.9295  -3360806.2797   5   9   3.3101   5.8942   3.0673  -3.1879  -3.1525   2.2967   0.00    0.0   -0.00760    0.02489   -0.00614   0.00000  0.00000  0.00000  0.00000  0.00000  0.00000
2095 434460.000  -2364331.0915   4870282.3240  -3360806.1813   5   9   3.3152   5.8916   3.0647  -3.1912  -3.1453   2.2948   0.00    0.0    0.01032   -0.00453   -0.00129   0.00000  0.00000  0.00000  0.00000  0.00000  0.00000
2095 434490.000  -2364331.9237   4870284.4091  -3360807.2012   5   9   3.3204   5.8887   3.0621  -3.1944  -3.1379   2.2929   0.00    0.0    0.00121   -0.00002   -0.00487   0.00000  0.00000  0.00000  0.00000  0.00000  0.00000
2095 434520.000  -2364332.0314   4870283.6198  -3360806.9117   5   9   3.3256   5.8856   3.0596  -3.1975  -3.1305   2.2909   0.00    0.0    0.00265   -0.01661    0.01577   0.00000  0.00000  0.00000  0.00000  0.00000  0.00000
2095 434550.000  -2364332.1128   4870284.0124  -3360807.4007   5  10   2.5564   5.0973   2.8799  -1.9938  -2.5964   1.7461   0.00    0.0    0.00377   -0.00710   -0.01167   0.00000  0.00000  0.00000  0.00000  0.00000  0.00000
2095 434580.000  -2364331.9012   4870283.9212  -3360806.4417   5  10   2.5589   5.0929   2.8798  -1.9945  -2.5910   1.7461   0.00    0.0   -0.00700    0.01863   -0.00114   0.00000  0.00000  0.00000  0.00000  0.00000  0.00000
2095 434610.000  -2364331.6258   4870284.1944  -3360806.9337   5  10   2.5614   5.0884   2.8798  -1.9951  -2.5856   1.7461   0.00    0.0    0.01118   -0.01537   -0.00063   0.00000  0.00000  0.00000  0.00000  0.00000  0.00000
2095 434640.000  -2364331.7537   4870283.4372  -3360806.9171   5  10   2.5639   5.0837   2.8798  -1.9958  -2.5802   1.7461   0.00    0.0   -0.00695    0.00460   -0.01160   0.00000  0.00000  0.00000  0.00000  0.00000  0.00000
2095 434670.000  -2364332.0905   4870283.5774  -3360806.8031   5  10   2.5665   5.0790   2.8799  -1.9964  -2.5748   1.7461   0.00    0.0   -0.00909    0.02160    0.00480   0.00000  0.00000  0.00000  0.00000  0.00000  0.00000
2095 434700.000  -2364331.9642   4870284.0040  -3360806.5631   5  10   2.5691   5.0740   2.8801  -1.9970  -2.5694   1.7462   0.00    0.0   -0.02793    0.01048   -0.02637   0.00000  0.00000  0.00000  0.00000  0.00000  0.00000
2095 434730.000  -2364331.8994   4870283.4943  -3360806.3214   5  10   2.5717   5.0690   2.8804  -1.9976  -2.5640   1.7463   0.00    0.0    0.00095   -0.00577   -0.00769   0.00000  0.00000  0.00000  0.00000  0.00000  0.00000
2095 434760.000  -2364332.5272   4870284.8698  -3360806.7313   5  10   2.5743   5.0638   2.8807  -1.9982  -2.5586   1.7464   0.00    0.0   -0.00833    0.03060   -0.00678   0.00000  0.00000  0.00000  0.00000  0.00000  0.00000
2095 434790.000  -2364332.5604   4870284.2009  -3360806.8444   5  10   2.5770   5.0584   2.8811  -1.9988  -2.5532   1.7465   0.00    0.0    0.00771    0.01527   -0.01245   0.00000  0.00000  0.00000  0.00000  0.00000  0.00000
2095 434820.000  -2364332.2130   4870284.0054  -3360806.5267   5  10   2.5797   5.0530   2.8816  -1.9994  -2.5479   1.7467   0.00    0.0    0.01329   -0.00204   -0.01211   0.00000  0.00000  0.00000  0.00000  0.00000  0.00000
2095 434850.000  -2364331.8366   4870283.1648  -3360806.0277   5  10   2.5824   5.0474   2.8822  -1.9999  -2.5425   1.7469   0.00    0.0    0.00659   -0.00890   -0.00783   0.00000  0.00000  0.00000  0.00000  0.00000  0.00000
2095 434880.000  -2364332.6711   4870284.0127  -3360806.9050   5  10   2.5851   5.0417   2.8829  -2.0005  -2.5371   1.7471   0.00    0.0   -0.01807   -0.01137    0.00758   0.00000  0.00000  0.00000  0.00000  0.00000  0.00000
2095 434910.000  -2364332.4205   4870283.8937  -3360806.9896   5  10   2.5879   5.0359   2.8836  -2.0011  -2.5318   1.7473   0.00    0.0    0.00255   -0.01928   -0.00346   0.00000  0.00000  0.00000  0.00000  0.00000  0.00000
2095 434940.000  -2364331.6233   4870282.4680  -3360805.7753   5  10   2.5907   5.0300   2.8845  -2.0016  -2.5265   1.7476   0.00    0.0   -0.00431   -0.03698    0.01229   0.00000  0.00000  0.00000  0.00000  0.00000  0.00000
2095 434970.000  -2364331.7797   4870283.6413  -3360806.2948   5  10   2.5935   5.0240   2.8854  -2.0022  -2.5212   1.7478   0.00    0.0    0.00526    0.00732   -0.01845   0.00000  0.00000  0.00000  0.00000  0.00000  0.00000
2095 435000.000  -2364331.2606   4870283.7548  -3360806.2386   5  10   2.5964   5.0178   2.8864  -2.0028  -2.5159   1.7482   0.00    0.0    0.00266    0.00149   -0.00450   0.00000  0.00000  0.00000  0.00000  0.00000  0.00000
2095 435030.000  -2364331.6245   4870283.2935  -3360806.4133   5  10   2.5993   5.0116   2.8875  -2.0033  -2.5107   1.7485   0.00    0.0    0.00696    0.00309   -0.01185   0.00000  0.00000  0.00000  0.00000  0.00000  0.00000
2095 435060.000  -2364331.7950   4870283.9791  -3360807.0180   5  10   2.6022   5.0052   2.8887  -2.0039  -2.5055   1.7489   0.00    0.0    0.00916   -0.00166    0.01078   0.00000  0.00000  0.00000  0.00000  0.00000  0.00000
2095 435090.000  -2364331.3470   4870282.7538  -3360806.3558   5  10   2.6051   4.9987   2.8899  -2.0045  -2.5004   1.7493   0.00    0.0   -0.01083   -0.00728    0.00021   0.00000  0.00000  0.00000  0.00000  0.00000  0.00000
2095 435120.000  -2364331.2740   4870283.1107  -3360806.0976   5  10   2.6081   4.9922   2.8913  -2.0052  -2.4952   1.7497   0.00    0.0    0.01998   -0.05578    0.01384   0.00000  0.00000  0.00000  0.00000  0.00000  0.00000
2095 435150.000  -2364331.3587   4870283.1872  -3360805.7367   5  10   2.6111   4.9855   2.8927  -2.0058  -2.4902   1.7502   0.00    0.0    0.00079    0.02653   -0.00531   0.00000  0.00000  0.00000  0.00000  0.00000  0.00000
2095 435180.000  -2364331.7108   4870283.6688  -3360806.7629   5  10   2.6141   4.9788   2.8943  -2.0065  -2.4851   1.7507   0.00    0.0    0.01885   -0.01438   -0.00420   0.00000  0.00000  0.00000  0.00000  0.00000  0.00000
2095 435210.000  -2364331.1092   4870281.8255  -3360805.5220   5  10   2.6172   4.9720   2.8959  -2.0072  -2.4801   1.7513   0.00    0.0    0.01011    0.00884    0.01706   0.00000  0.00000  0.00000  0.00000  0.00000  0.00000
2095 435240.000  -2364331.2659   4870283.1552  -3360805.7236   5  10   2.6203   4.9650   2.8976  -2.0079  -2.4752   1.7518   0.00    0.0    0.02038   -0.01822    0.00990   0.00000  0.00000  0.00000  0.00000  0.00000  0.00000
2095 435270.000  -2364331.4404   4870283.4353  -3360805.8836   5  10   2.6234   4.9581   2.8994  -2.0086  -2.4703   1.7524   0.00    0.0    0.00289    0.00966   -0.00196   0.00000  0.00000  0.00000  0.00000  0.00000  0.00000
2095 435300.000  -2364331.9720   4870283.5933  -3360806.1790   5  10   2.6266   4.9510   2.9013  -2.0094  -2.4655   1.7531   0.00    0.0    0.01215   -0.02638    0.00688   0.00000  0.00000  0.00000  0.00000  0.00000  0.00000
2095 435330.000  -2364332.6350   4870284.2020  -3360806.7395   5  10   2.6298   4.9438   2.9033  -2.0102  -2.4607   1.7538   0.00    0.0    0.01472   -0.01307   -0.00091   0.00000  0.00000  0.00000  0.00000  0.00000  0.00000
2095 435360.000  -2364331.9133   4870284.1170  -3360806.2136   5  10   2.6330   4.9366   2.9054  -2.0110  -2.4560   1.7545   0.00    0.0   -0.00494   -0.03196    0.02141   0.00000  0.00000  0.00000  0.00000  0.00000  0.00000
2095 435390.000  -2364331.8252   4870284.5034  -3360806.2282   5  10   2.6363   4.9293   2.9076  -2.0119  -2.4514   1.7553   0.00    0.0    0.00094   -0.00219    0.00341   0.00000  0.00000  0.00000  0.00000  0.00000  0.00000
2095 435420.000  -2364331.6034   4870283.8029  -3360805.5888   5  10   2.6396   4.9220   2.9099  -2.0128  -2.4468   1.7561   0.00    0.0    0.00417    0.00862   -0.00401   0.00000  0.00000  0.00000  0.00000  0.00000  0.00000
2095 435450.000  -2364332.1001   4870284.7512  -3360806.3143   5  10   2.6430   4.9146   2.9122  -2.0138  -2.4423   1.7569   0.00    0.0    0.00444    0.02186   -0.01139   0.00000  0.00000  0.00000  0.00000  0.00000  0.00000
2095 435480.000  -2364332.3933   4870285.1097  -3360806.7180   5  10   2.6464   4.9071   2.9147  -2.0148  -2.4379   1.7578   0.00    0.0    0.00232   -0.02444    0.00587   0.00000  0.00000  0.00000  0.00000  0.00000  0.00000
2095 435510.000  -2364331.6638   4870283.9725  -3360806.0797   5  10   2.6498   4.8996   2.9173  -2.0158  -2.4335   1.7587   0.00    0.0   -0.01508    0.01786   -0.01990   0.00000  0.00000  0.00000  0.00000  0.00000  0.00000
2095 435540.000  -2364331.7908   4870284.3537  -3360806.2518   5  10   2.6532   4.8920   2.9199  -2.0169  -2.4292   1.7597   0.00    0.0    0.00442    0.03254   -0.03079   0.00000  0.00000  0.00000  0.00000  0.00000  0.00000
2095 435570.000  -2364331.7855   4870284.5585  -3360806.6625   5  10   2.6567   4.8844   2.9227  -2.0180  -2.4250   1.7607   0.00    0.0   -0.00268   -0.01218   -0.01188   0.00000  0.00000  0.00000  0.00000  0.00000  0.00000
2095 435600.000  -2364331.7968   4870284.3779  -3360806.1709   5  10   2.6603   4.8768   2.9255  -2.0192  -2.4209   1.7618   0.00    0.0   -0.00603    0.01115   -0.00051   0.00000  0.00000  0.00000  0.00000  0.00000  0.00000
2095 435630.000  -2364332.7163   4870284.7853  -3360806.7821   5  10   2.6638   4.8691   2.9285  -2.0205  -2.4169   1.7629   0.00    0.0   -0.02526    0.02916   -0.02348   0.00000  0.00000  0.00000  0.00000  0.00000  0.00000
2095 435660.000  -2364331.9556   4870285.2291  -3360806.1988   5  10   2.6674   4.8614   2.9315  -2.0217  -2.4130   1.7640   0.00    0.0   -0.00915    0.04909   -0.03767   0.00000  0.00000  0.00000  0.00000  0.00000  0.00000
2095 435690.000  -2364332.2418   4870284.5767  -3360806.7009   5   9   2.6725   5.2030   3.4354  -2.0629  -3.0252   1.8086   0.00    0.0    0.00005    0.01442   -0.01166   0.00000  0.00000  0.00000  0.00000  0.00000  0.00000
2095 435720.000  -2364332.1817   4870284.7367  -3360806.7426   5   9   2.6764   5.1957   3.4397  -2.0672  -3.0231   1.8129   0.00    0.0    0.00762    0.00361    0.01011   0.00000  0.00000  0.00000  0.00000  0.00000  0.00000
2095 435750.000  -2364332.6094   4870285.2508  -3360806.7995   5   9   2.6803   5.1882   3.4441  -2.0714  -3.0210   1.8173   0.00    0.0   -0.00368    0.01565   -0.00244   0.00000  0.00000  0.00000  0.00000  0.00000  0.00000
2095 435780.000  -2364332.4803   4870285.9246  -3360807.2418   5   9   2.6844   5.1807   3.4486  -2.0757  -3.0189   1.8218   0.00    0.0   -0.01309    0.01587   -0.01129   0.00000  0.00000  0.00000  0.00000  0.00000  0.00000
2095 435810.000  -2364332.0884   4870284.3411  -3360806.4324   5   9   2.6884   5.1732   3.4531  -2.0800  -3.0169   1.8262   0.00    0.0    0.00463   -0.01452    0.00133   0.00000  0.00000  0.00000  0.00000  0.00000  0.00000
2095 435840.000  -2364331.9913   4870283.9229  -3360806.6650   5  10   2.5411   4.6812   3.4490  -1.5495  -3.1025   1.8894   0.00    0.0   -0.00831    0.00444   -0.02216   0.00000  0.00000  0.00000  0.00000  0.00000  0.00000
2095 435870.000  -2364332.6997   4870285.3723  -3360806.4384   5  10   2.5460   4.6822   3.4527  -1.5621  -3.1047   1.8970   0.00    0.0    0.00109   -0.00188   -0.01417   0.00000  0.00000  0.00000  0.00000  0.00000  0.00000
2095 435900.000  -2364331.8166   4870283.9721  -3360806.0061   5  10   2.5509   4.6831   3.4564  -1.5746  -3.1068   1.9045   0.00    0.0    0.01614   -0.00925    0.00466   0.00000  0.00000  0.00000  0.00000  0.00000  0.00000
2095 435930.000  -2364331.5885   4870283.2044  -3360806.0558   5  10   2.5559   4.6840   3.4600  -1.5872  -3.1089   1.9121   0.00    0.0    0.00536   -0.00622   -0.00116   0.00000  0.00000  0.00000  0.00000  0.00000  0.00000
2095 435960.000  -2364332.1764   4870284.2560  -3360806.4320   5  10   2.5609   4.6847   3.4637  -1.5997  -3.1109   1.9196   0.00    0.0   -0.00069   -0.00518   -0.01189   0.00000  0.00000  0.00000  0.00000  0.00000  0.00000
2095 435990.000  -2364332.0549   4870284.6001  -3360806.1162   5  10   2.5660   4.6853   3.4674  -1.6122  -3.1129   1.9272   0.00    0.0   -0.00203   -0.00064   -0.00317   0.00000  0.00000  0.00000  0.00000  0.00000  0.00000
2095 436020.000  -2364331.8203   4870284.4313  -3360806.9170   5  10   2.5712   4.6859   3.4711  -1.6247  -3.1149   1.9348   0.00    0.0    0.01165    0.01411    0.01204   0.00000  0.00000  0.00000  0.00000  0.00000  0.00000
2095 436050.000  -2364331.6426   4870283.9839  -3360806.1791   5  10   2.5764   4.6863   3.4748  -1.6372  -3.1168   1.9424   0.00    0.0    0.00786   -0.01673    0.02237   0.00000  0.00000  0.00000  0.00000  0.00000  0.00000
2095 436080.000  -2364331.5411   4870284.1736  -3360806.0987   5  10   2.5817   4.6867   3.4785  -1.6496  -3.1187   1.9500   0.00    0.0    0.00569    0.00558   -0.00790   0.00000  0.00000  0.00000  0.00000  0.00000  0.00000
2095 436110.000  -2364332.2712   4870283.9593  -3360807.0966   5  10   2.5870   4.6870   3.4822  -1.6620  -3.1205   1.9575   0.00    0.0   -0.01136    0.01858   -0.00389   0.00000  0.00000  0.00000  0.00000  0.00000  0.00000
2095 436140.000  -2364331.8510   4870284.3640  -3360805.8656   5  10   2.5924   4.6872   3.4860  -1.6744  -3.1224   1.9651   0.00    0.0    0.00737    0.02706   -0.01265   0.00000  0.00000  0.00000  0.00000  0.00000  0.00000
2095 436170.000  -2364331.6924   4870284.2786  -3360806.5757   5  10   2.5979   4.6873   3.4897  -1.6868  -3.1241   1.9727   0.00    0.0    0.00197   -0.00849    0.00962   0.00000  0.00000  0.00000  0.00000  0.00000  0.00000
2095 436200.000  -2364331.5882   4870283.7253  -3360805.7423   5  10   2.6034   4.6873   3.4934  -1.6992  -3.1259   1.9803   0.00    0.0    0.01901   -0.02431   -0.00388   0.00000  0.00000  0.00000  0.00000  0.00000  0.00000
2095 436230.000  -2364331.2760   4870283.5909  -3360805.6460   5  10   2.6090   4.6873   3.4972  -1.7115  -3.1276   1.9879   0.00    0.0    0.01456   -0.01020   -0.00459   0.00000  0.00000  0.00000  0.00000  0.00000  0.00000
2095 436260.000  -2364332.2392   4870284.8879  -3360806.6496   5  11   2.6055   3.7152   3.3155  -1.8961  -2.5652   2.0560   0.00    0.0    0.01055   -0.00567   -0.00236   0.00000  0.00000  0.00000  0.00000  0.00000  0.00000
2095 436290.000  -2364332.2438   4870284.5965  -3360806.5863   5  11   2.6115   3.7159   3.3203  -1.9042  -2.5689   2.0621   0.00    0.0   -0.00932   -0.00796   -0.00586   0.00000  0.00000  0.00000  0.00000  0.00000  0.00000
2095 436320.000  -2364331.8161   4870284.5721  -3360806.9454   5  11   2.6176   3.7166   3.3251  -1.9124  -2.5725   2.0683   0.00    0.0   -0.00180    0.01281   -0.00224   0.00000  0.00000  0.00000  0.00000  0.00000  0.00000
2095 436350.000  -2364332.6242   4870284.9837  -3360805.9525   5  11   2.6238   3.7172   3.3299  -1.9205  -2.5761   2.0745   0.00    0.0   -0.01264    0.01389    0.00145   0.00000  0.00000  0.00000  0.00000  0.00000  0.00000
2095 436380.000  -2364332.7134   4870284.3665  -3360806.4035   5  11   2.6300   3.7179   3.3347  -1.9287  -2.5798   2.0806   0.00    0.0    0.00372   -0.00316    0.00549   0.00000  0.00000  0.00000  0.00000  0.00000  0.00000
2095 436410.000  -2364332.6981   4870284.6623  -3360806.2672   5  11   2.6362   3.7186   3.3395  -1.9369  -2.5834   2.0868   0.00    0.0    0.00711    0.00010   -0.00979   0.00000  0.00000  0.00000  0.00000  0.00000  0.00000
2095 436440.000  -2364332.5162   4870284.3939  -3360805.6602   5  11   2.6426   3.7192   3.3443  -1.9451  -2.5870   2.0930   0.00    0.0   -0.00097   -0.01597   -0.00349   0.00000  0.00000  0.00000  0.00000  0.00000  0.00000
2095 436470.000  -2364331.8437   4870284.6014  -3360806.3204   5  11   2.6489   3.7198   3.3491  -1.9533  -2.5906   2.0991   0.00    0.0   -0.00789   -0.00298    0.01323   0.00000  0.00000  0.00000  0.00000  0.00000  0.00000
2095 436500.000  -2364332.1613   4870283.4920  -3360806.4282   5  10   3.2371   3.9543   4.4931  -2.5154  -3.2764   3.1572   0.00    0.0    0.00767   -0.02939    0.01331   0.00000  0.00000  0.00000  0.00000  0.00000  0.00000
2095 436530.000  -2364333.1745   4870284.6375  -3360806.0786   5  10   3.2477   3.9608   4.5070  -2.5308  -3.2905   3.1703   0.00    0.0    0.01670    0.07559   -0.04322   0.00000  0.00000  0.00000  0.00000  0.00000  0.00000
2095 436560.000  -2364331.5521   4870283.9181  -3360805.7121   5  10   3.2584   3.9674   4.5208  -2.5461  -3.3045   3.1833   0.00    0.0    0.00407   -0.01316    0.01294   0.00000  0.00000  0.00000  0.00000  0.00000  0.00000
2095 436590.000  -2364331.9652   4870284.2070  -3360805.9714   5  10   3.2692   3.9740   4.5346  -2.5614  -3.3184   3.1963   0.00    0.0    0.01336   -0.03931    0.01228   0.00000  0.00000  0.00000  0.00000  0.00000  0.00000
2095 436620.000  -2364332.2816   4870284.4313  -3360806.2873   5  10   3.2799   3.9806   4.5483  -2.5766  -3.3323   3.2092   0.00    0.0    0.00524    0.00271   -0.00328   0.00000  0.00000  0.00000  0.00000  0.00000  0.00000
2095 436650.000  -2364331.9908   4870284.4323  -3360806.3545   5  10   3.2907   3.9873   4.5618  -2.5918  -3.3460   3.2220   0.00    0.0    0.00777   -0.00549   -0.00262   0.00000  0.00000  0.00000  0.00000  0.00000  0.00000
2095 436680.000  -2364332.1459   4870282.7462  -3360806.3700   5  10   3.3015   3.9939   4.5753  -2.6069  -3.3598   3.2348   0.00    0.0    0.01714    0.01354   -0.01346   0.00000  0.00000  0.00000  0.00000  0.00000  0.00000
2095 436710.000  -2364331.8684   4870283.3289  -3360805.7888   5  10   3.3123   4.0006   4.5886  -2.6219  -3.3734   3.2475   0.00    0.0   -0.00830    0.00977   -0.01824   0.00000  0.00000  0.00000  0.00000  0.00000  0.00000
2095 436740.000  -2364331.6616   4870284.1832  -3360805.8672   5  10   3.3232   4.0072   4.6018  -2.6369  -3.3869   3.2601   0.00    0.0    0.00995   -0.03670    0.02650   0.00000  0.00000  0.00000  0.00000  0.00000  0.00000
2095 436770.000  -2364332.0397   4870283.5931  -3360806.9338   5  10   3.3340   4.0139   4.6149  -2.6518  -3.4003   3.2727   0.00    0.0   -0.01577    0.03625   -0.01801   0.00000  0.00000  0.00000  0.00000  0.00000  0.00000
2095 436800.000  -2364331.6798   4870283.5384  -3360805.7634   5  10   3.3449   4.0206   4.6278  -2.6667  -3.4137   3.2851   0.00    0.0   -0.01583    0.00541   -0.00446   0.00000  0.00000  0.00000  0.00000  0.00000  0.00000
2095 436830.000  -2364331.6985   4870284.1957  -3360806.1084   5  10   3.3558   4.0273   4.6406  -2.6815  -3.4269   3.2974   0.00    0.0   -0.02094   -0.00906   -0.00738   0.00000  0.00000  0.00000  0.00000  0.00000  0.00000
2095 436860.000  -2364330.9394   4870282.6818  -3360804.6969   5  10   3.3666   4.0339   4.6532  -2.6962  -3.4400   3.3096   0.00    0.0    0.00384    0.00549   -0.00375   0.00000  0.00000  0.00000  0.00000  0.00000  0.00000
2095 436890.000  -2364331.0843   4870283.8388  -3360805.5739   5  10   3.3775   4.0406   4.6657  -2.7109  -3.4530   3.3218   0.00    0.0    0.00125   -0.00795    0.02200   0.00000  0.00000  0.00000  0.00000  0.00000  0.00000
2095 436920.000  -2364331.7358   4870283.8364  -3360805.6116   5  10   3.3884   4.0472   4.6780  -2.7254  -3.4659   3.3338   0.00    0.0    0.00000   -0.01145   -0.00494   0.00000  0.00000  0.00000  0.00000  0.00000  0.00000
2095 436950.000  -2364331.9822   4870285.3687  -3360807.3123   5  10   3.3993   4.0538   4.6901  -2.7399  -3.4786   3.3456   0.00    0.0   -0.00684    0.01017   -0.01113   0.00000  0.00000  0.00000  0.00000  0.00000  0.00000
2095 436980.000  -2364331.5027   4870285.3006  -3360806.6040   5  10   3.4101   4.0605   4.7021  -2.7543  -3.4912   3.3574   0.00    0.0   -0.00106   -0.00082   -0.01202   0.00000  0.00000  0.00000  0.00000  0.00000  0.00000
2095 437010.000  -2364331.7076   4870284.6081  -3360805.8332   5  10   3.4210   4.0670   4.7138  -2.7686  -3.5036   3.3690   0.00    0.0   -0.00531    0.00219    0.00074   0.00000  0.00000  0.00000  0.00000  0.00000  0.00000
2095 437040.000  -2364331.7100   4870283.8818  -3360805.4934   5  10   3.4318   4.0736   4.7254  -2.7828  -3.5159   3.3805   0.00    0.0    0.00229    0.01330    0.00862   0.00000  0.00000  0.00000  0.00000  0.00000  0.00000
2095 437070.000  -2364330.7880   4870283.1572  -3360805.7671   5  10   3.4426   4.0801   4.7368  -2.7969  -3.5281   3.3918   0.00    0.0    0.00242    0.02406   -0.01360   0.00000  0.00000  0.00000  0.00000  0.00000  0.00000
2095 437100.000  -2364331.1414   4870284.0145  -3360805.7175   5  10   3.4534   4.0866   4.7479  -2.8109  -3.5401   3.4030   0.00    0.0    0.00123   -0.00557    0.00751   0.00000  0.00000  0.00000  0.00000  0.00000  0.00000
2095 437130.000  -2364331.5454   4870283.7370  -3360805.8373   5  10   3.4642   4.0931   4.7588  -2.8248  -3.5519   3.4140   0.00    0.0    0.02952   -0.02661    0.00325   0.00000  0.00000  0.00000  0.00000  0.00000  0.00000
2095 437160.000  -2364332.2351   4870284.8251  -3360807.1723   5  10   3.4749   4.0996   4.7695  -2.8386  -3.5635   3.4249   0.00    0.0    0.00560   -0.01101    0.01389   0.00000  0.00000  0.00000  0.00000  0.00000  0.00000
2095 437190.000  -2364331.8890   4870284.3977  -3360806.7337   5  10   3.4857   4.1059   4.7800  -2.8523  -3.5750   3.4356   0.00    0.0   -0.00351    0.01166   -0.00346   0.00000  0.00000  0.00000  0.00000  0.00000  0.00000
2095 437220.000  -2364331.8080   4870284.0937  -3360806.1369   5  10   3.4963   4.1123   4.7902  -2.8658  -3.5863   3.4461   0.00    0.0   -0.00371    0.00443   -0.00315   0.00000  0.00000  0.00000  0.00000  0.00000  0.00000
2095 437250.000  -2364331.5799   4870283.8260  -3360806.9075   5  10   3.5070   4.1186   4.8002  -2.8793  -3.5974   3.4564   0.00    0.0   -0.01048   -0.00297   -0.01057   0.00000  0.00000  0.00000  0.00000  0.00000  0.00000
2095 437280.000  -2364331.7742   4870284.7446  -3360806.4572   5  10   3.5176   4.1248   4.8099  -2.8926  -3.6083   3.4666   0.00    0.0   -0.00189    0.00325   -0.00159   0.00000  0.00000  0.00000  0.00000  0.00000  0.00000
2095 437310.000  -2364331.8633   4870284.3274  -3360806.9196   5  10   3.5281   4.1310   4.8194  -2.9058  -3.6190   3.4765   0.00    0.0   -0.00718   -0.00630    0.00257   0.00000  0.00000  0.00000  0.00000  0.00000  0.00000
2095 437340.000  -2364331.9391   4870284.9259  -3360806.7613   5  10   3.5386   4.1372   4.8285  -2.9189  -3.6294   3.4863   0.00    0.0   -0.00182   -0.01673   -0.00974   0.00000  0.00000  0.00000  0.00000  0.00000  0.00000
2095 437370.000  -2364331.9217   4870284.8279  -3360806.6864   5  10   3.5491   4.1432   4.8374  -2.9318  -3.6397   3.4958   0.00    0.0   -0.00439   -0.00372    0.00266   0.00000  0.00000  0.00000  0.00000  0.00000  0.00000
2095 437400.000  -2364332.2941   4870284.9691  -3360805.9882   5  10   3.5595   4.1492   4.8461  -2.9446  -3.6498   3.5052   0.00    0.0    0.00500   -0.00892    0.01299   0.00000  0.00000  0.00000  0.00000  0.00000  0.00000
2095 437430.000  -2364331.7674   4870284.6318  -3360806.0102   5  10   3.5698   4.1552   4.8544  -2.9573  -3.6596   3.5143   0.00    0.0   -0.01947    0.01193   -0.01732   0.00000  0.00000  0.00000  0.00000  0.00000  0.00000
2095 437460.000  -2364332.2553   4870283.5821  -3360805.6511   5  10   3.5801   4.1610   4.8624  -2.9698  -3.6692   3.5232   0.00    0.0    0.00311    0.01217    0.00290   0.00000  0.00000  0.00000  0.00000  0.00000  0.00000
2095 437490.000  -2364332.7832   4870285.1339  -3360807.0757   5  10   3.5903   4.1668   4.8701  -2.9822  -3.6786   3.5319   0.00    0.0    0.01647    0.00251    0.00693   0.00000  0.00000  0.00000  0.00000  0.00000  0.00000
2095 437520.000  -2364332.1051   4870283.9618  -3360805.6537   5  10   3.6005   4.1725   4.8775  -2.9944  -3.6877   3.5404   0.00    0.0    0.01694   -0.01142    0.00348   0.00000  0.00000  0.00000  0.00000  0.00000  0.00000
2095 437550.000  -2364332.4372   4870284.5934  -3360806.7502   5  10   3.6106   4.1782   4.8846  -3.0065  -3.6966   3.5486   0.00    0.0    0.02542    0.00487   -0.01038   0.00000  0.00000  0.00000  0.00000  0.00000  0.00000
2095 437580.000  -2364332.1112   4870285.1775  -3360806.9478   5  10   3.6206   4.1837   4.8914  -3.0185  -3.7052   3.5566   0.00    0.0   -0.00520   -0.00655   -0.00303   0.00000  0.00000  0.00000  0.00000  0.00000  0.00000
2095 437610.000  -2364332.1381   4870285.2193  -3360806.3286   5  10   3.6305   4.1892   4.8978  -3.0302  -3.7136   3.5643   0.00    0.0   -0.00822    0.00294   -0.01565   0.00000  0.00000  0.00000  0.00000  0.00000  0.00000
2095 437640.000  -2364331.8241   4870283.8615  -3360805.7470   5  10   3.6404   4.1945   4.9039  -3.0419  -3.7217   3.5718   0.00    0.0    0.00912   -0.00352    0.00873   0.00000  0.00000  0.00000  0.00000  0.00000  0.00000
2095 437670.000  -2364331.8444   4870284.6252  -3360806.7735   5  10   3.6502   4.1998   4.9097  -3.0533  -3.7295   3.5791   0.00    0.0    0.01136   -0.01745    0.00752   0.00000  0.00000  0.00000  0.00000  0.00000  0.00000
2095 437700.000  -2364332.1866   4870284.9567  -3360806.4453   5  10   3.6599   4.2050   4.9151  -3.0646  -3.7371   3.5861   0.00    0.0   -0.00044   -0.00066   -0.01378   0.00000  0.00000  0.00000  0.00000  0.00000  0.00000
2095 437730.000  -2364332.4151   4870285.0863  -3360806.7892   5  10   3.6695   4.2101   4.9202  -3.0758  -3.7444   3.5928   0.00    0.0   -0.04723    0.02969   -0.03671   0.00000  0.00000  0.00000  0.00000  0.00000  0.00000
2095 437760.000  -2364332.0759   4870284.0471  -3360806.6670   5  10   3.6790   4.2150   4.9249  -3.0867  -3.7515   3.5993   0.00    0.0    0.01860    0.00773   -0.00295   0.00000  0.00000  0.00000  0.00000  0.00000  0.00000
2095 437790.000  -2364332.0471   4870284.3204  -3360806.2780   5  10   3.6885   4.2199   4.9293  -3.0975  -3.7583   3.6055   0.00    0.0    0.00932   -0.01335   -0.00430   0.00000  0.00000  0.00000  0.00000  0.00000  0.00000
2095 437820.000  -2364331.6082   4870283.9378  -3360805.7650   5  10   3.6978   4.2247   4.9333  -3.1082  -3.7647   3.6114   0.00    0.0   -0.00946    0.01833   -0.00870   0.00000  0.00000  0.00000  0.00000  0.00000  0.00000
2095 437850.000  -2364331.8798   4870284.4710  -3360806.4364   5  10   3.7071   4.2294   4.9369  -3.1186  -3.7709   3.6170   0.00    0.0    0.00207   -0.00201    0.00868   0.00000  0.00000  0.00000  0.00000  0.00000  0.00000
2095 437880.000  -2364332.0855   4870284.7298  -3360806.1401   5  10   3.7163   4.2339   4.9402  -3.1289  -3.7768   3.6224   0.00    0.0    0.02399    0.01812    0.00341   0.00000  0.00000  0.00000  0.00000  0.00000  0.00000
2095 437910.000  -2364332.0268   4870284.8547  -3360805.8626   5  10   3.7254   4.2384   4.9431  -3.1390  -3.7825   3.6275   0.00    0.0    0.02425   -0.02384    0.00719   0.00000  0.00000  0.00000  0.00000  0.00000  0.00000
2095 437940.000  -2364332.0452   4870284.6738  -3360806.7561   5  10   3.7344   4.2427   4.9456  -3.1490  -3.7878   3.6323   0.00    0.0    0.00647    0.02602   -0.01906   0.00000  0.00000  0.00000  0.00000  0.00000  0.00000
2095 437970.000  -2364331.5600   4870284.3759  -3360806.2298   5  10   3.7433   4.2469   4.9478  -3.1588  -3.7928   3.6369   0.00    0.0   -0.00329   -0.01241   -0.00666   0.00000  0.00000  0.00000  0.00000  0.00000  0.00000
2095 438000.000  -2364332.3215   4870285.3658  -3360806.3210   5  10   3.7521   4.2510   4.9496  -3.1684  -3.7976   3.6411   0.00    0.0    0.01996    0.00021   -0.01180   0.00000  0.00000  0.00000  0.00000  0.00000  0.00000
2095 438030.000  -2364331.7482   4870283.8711  -3360805.8098   5  10   3.7608   4.2550   4.9510  -3.1778  -3.8020   3.6451   0.00    0.0    0.00186   -0.01153    0.00276   0.00000  0.00000  0.00000  0.00000  0.00000  0.00000
2095 438060.000  -2364331.9696   4870284.4929  -3360805.6484   5  10   3.7694   4.2589   4.9520  -3.1870  -3.8062   3.6487   0.00    0.0    0.01360    0.01136   -0.01257   0.00000  0.00000  0.00000  0.00000  0.00000  0.00000
2095 438090.000  -2364331.5713   4870283.2055  -3360805.4682   5  10   3.7779   4.2626   4.9526  -3.1961  -3.8100   3.6521   0.00    0.0    0.00632   -0.01913    0.02260   0.00000  0.00000  0.00000  0.00000  0.00000  0.00000
2095 438120.000  -2364331.2841   4870283.4305  -3360805.4248   5  10   3.7864   4.2663   4.9529  -3.2050  -3.8136   3.6552   0.00    0.0    0.00046   -0.00205    0.01103   0.00000  0.00000  0.00000  0.00000  0.00000  0.00000
2095 438150.000  -2364332.0412   4870284.6192  -3360806.4041   5  10   3.7947   4.2698   4.9527  -3.2138  -3.8168   3.6580   0.00    0.0    0.00592   -0.02952    0.00489   0.00000  0.00000  0.00000  0.00000  0.00000  0.00000
2095 438180.000  -2364331.8074   4870284.4894  -3360806.3582   5  10   3.8029   4.2732   4.9522  -3.2223  -3.8197   3.6605   0.00    0.0   -0.02166    0.01183   -0.01250   0.00000  0.00000  0.00000  0.00000  0.00000  0.00000
2095 438210.000  -2364331.7888   4870284.1609  -3360806.2439   5  10   3.8111   4.2765   4.9513  -3.2307  -3.8224   3.6627   0.00    0.0   -0.00107   -0.00398   -0.00746   0.00000  0.00000  0.00000  0.00000  0.00000  0.00000
2095 438240.000  -2364332.2987   4870284.5222  -3360806.6333   5  10   3.8191   4.2796   4.9501  -3.2389  -3.8247   3.6646   0.00    0.0   -0.00239   -0.00250   -0.02292   0.00000  0.00000  0.00000  0.00000  0.00000  0.00000
2095 438270.000  -2364331.7976   4870284.0553  -3360806.2594   5  10   3.8271   4.2827   4.9484  -3.2470  -3.8268   3.6662   0.00    0.0   -0.00799   -0.00993   -0.00229   0.00000  0.00000  0.00000  0.00000  0.00000  0.00000
2095 438300.000  -2364332.5439   4870285.0080  -3360806.5952   5  10   3.8350   4.2856   4.9464  -3.2548  -3.8285   3.6676   0.00    0.0   -0.01382    0.00544    0.00202   0.00000  0.00000  0.00000  0.00000  0.00000  0.00000
2095 438330.000  -2364331.7156   4870283.5209  -3360805.5997   5  10   3.8428   4.2884   4.9440  -3.2625  -3.8300   3.6686   0.00    0.0    0.01889    0.00462    0.00814   0.00000  0.00000  0.00000  0.00000  0.00000  0.00000
2095 438360.000  -2364331.2401   4870284.0480  -3360806.0595   5  10   3.8505   4.2911   4.9412  -3.2701  -3.8311   3.6694   0.00    0.0    0.00118    0.01143   -0.01017   0.00000  0.00000  0.00000  0.00000  0.00000  0.00000
2095 438390.000  -2364331.5308   4870284.2055  -3360806.5430   5  10   3.8581   4.2937   4.9380  -3.2775  -3.8320   3.6698   0.00    0.0    0.01039   -0.02374    0.01455   0.00000  0.00000  0.00000  0.00000  0.00000  0.00000
2095 438420.000  -2364331.9207   4870284.9197  -3360806.7114   5  10   3.8656   4.2961   4.9345  -3.2847  -3.8325   3.6700   0.00    0.0   -0.01226    0.02643   -0.02389   0.00000  0.00000  0.00000  0.00000  0.00000  0.00000
2095 438450.000  -2364332.4089   4870284.8409  -3360806.8775   5  10   3.8730   4.2984   4.9306  -3.2918  -3.8328   3.6699   0.00    0.0    0.00472   -0.00753    0.00272   0.00000  0.00000  0.00000  0.00000  0.00000  0.00000
2095 438480.000  -2364331.4204   4870283.6719  -3360806.0883   5  10   3.8804   4.3007   4.9264  -3.2987  -3.8328   3.6695   0.00    0.0   -0.01862    0.02427   -0.03078   0.00000  0.00000  0.00000  0.00000  0.00000  0.00000
2095 438510.000  -2364331.9959   4870284.4835  -3360806.7821   5  10   3.8877   4.3028   4.9218  -3.3054  -3.8325   3.6689   0.00    0.0   -0.00191   -0.00617   -0.01525   0.00000  0.00000  0.00000  0.00000  0.00000  0.00000
2095 438540.000  -2364332.1735   4870284.5590  -3360806.6016   5  10   3.8949   4.3048   4.9168  -3.3120  -3.8319   3.6679   0.00    0.0   -0.00774    0.02433   -0.01327   0.00000  0.00000  0.00000  0.00000  0.00000  0.00000
2095 438570.000  -2364331.8448   4870284.2414  -3360806.1624   5  10   3.9020   4.3067   4.9115  -3.3185  -3.8310   3.6667   0.00    0.0    0.01607    0.01978   -0.00476   0.00000  0.00000  0.00000  0.00000  0.00000  0.00000
2095 438600.000  -2364333.0757   4870284.8681  -3360806.7906   5  10   3.9091   4.3085   4.9059  -3.3248  -3.8298   3.6653   0.00    0.0    0.01062    0.02034    0.01193   0.00000  0.00000  0.00000  0.00000  0.00000  0.00000
2095 438630.000  -2364332.9657   4870285.2739  -3360807.4393   5  10   3.9161   4.3101   4.8999  -3.3310  -3.8284   3.6635   0.00    0.0    0.00620    0.00276   -0.00522   0.00000  0.00000  0.00000  0.00000  0.00000  0.00000
2095 438660.000  -2364332.0461   4870284.2151  -3360806.0922   5  10   3.9231   4.3117   4.8935  -3.3371  -3.8267   3.6615   0.00    0.0    0.01664   -0.00006    0.00598   0.00000  0.00000  0.00000  0.00000  0.00000  0.00000
2095 438690.000  -2364332.4926   4870284.7370  -3360806.9457   5  10   3.9299   4.3132   4.8869  -3.3430  -3.8247   3.6592   0.00    0.0   -0.00763   -0.00181   -0.00756   0.00000  0.00000  0.00000  0.00000  0.00000  0.00000
2095 438720.000  -2364332.5222   4870284.3820  -3360806.3975   5  10   3.9368   4.3146   4.8799  -3.3488  -3.8225   3.6567   0.00    0.0    0.00812    0.00099   -0.00065   0.00000  0.00000  0.00000  0.00000  0.00000  0.00000
2095 438750.000  -2364331.9852   4870284.6063  -3360806.3097   5  10   3.9435   4.3159   4.8726  -3.3544  -3.8200   3.6539   0.00    0.0   -0.00560    0.00505   -0.01383   0.00000  0.00000  0.00000  0.00000  0.00000  0.00000
2095 438780.000  -2364332.8639   4870285.1492  -3360806.9649   5  10   3.9503   4.3171   4.8650  -3.3600  -3.8173   3.6509   0.00    0.0    0.00958    0.00300   -0.00696   0.00000  0.00000  0.00000  0.00000  0.00000  0.00000
2095 438810.000  -2364332.1720   4870284.3600  -3360806.5012   5  10   3.9570   4.3182   4.8571  -3.3654  -3.8143   3.6476   0.00    0.0   -0.00249    0.02527   -0.02037   0.00000  0.00000  0.00000  0.00000  0.00000  0.00000
2095 438840.000  -2364332.0621   4870284.5266  -3360806.6364   5  10   3.9636   4.3192   4.8489  -3.3707  -3.8111   3.6441   0.00    0.0    0.01876    0.00797   -0.01839   0.00000  0.00000  0.00000  0.00000  0.00000  0.00000
2095 438870.000  -2364332.3312   4870285.1505  -3360806.9927   5  10   3.9702   4.3201   4.8404  -3.3759  -3.8076   3.6403   0.00    0.0   -0.00768   -0.00304    0.00609   0.00000  0.00000  0.00000  0.00000  0.00000  0.00000
2095 438900.000  -2364332.6520   4870285.0331  -3360806.9341   5  10   3.9768   4.3210   4.8316  -3.3810  -3.8039   3.6364   0.00    0.0    0.01994   -0.01445    0.01378   0.00000  0.00000  0.00000  0.00000  0.00000  0.00000
2095 438930.000  -2364333.1391   4870285.6425  -3360807.5069   5  10   3.9833   4.3218   4.8225  -3.3860  -3.8000   3.6322   0.00    0.0   -0.00488   -0.02546   -0.00868   0.00000  0.00000  0.00000  0.00000  0.00000  0.00000
2095 438960.000  -2364332.1929   4870284.0808  -3360806.0229   5  10   3.9898   4.3225   4.8131  -3.3910  -3.7958   3.6277   0.00    0.0   -0.00093    0.02075   -0.00606   0.00000  0.00000  0.00000  0.00000  0.00000  0.00000
2095 438990.000  -2364332.5618   4870283.9963  -3360806.3259   5  10   3.9963   4.3231   4.8035  -3.3958  -3.7914   3.6231   0.00    0.0    0.00067    0.02922   -0.00969   0.00000  0.00000  0.00000  0.00000  0.00000  0.00000
2095 439020.000  -2364332.2388   4870284.9187  -3360806.9642   5  10   4.0028   4.3237   4.7937  -3.4005  -3.7868   3.6182   0.00    0.0    0.00198   -0.00503   -0.01282   0.00000  0.00000  0.00000  0.00000  0.00000  0.00000
2095 439050.000  -2364332.2770   4870284.4089  -3360806.6369   5  10   4.0093   4.3241   4.7836  -3.4052  -3.7820   3.6132   0.00    0.0    0.01190    0.01306    0.02006   0.00000  0.00000  0.00000  0.00000  0.00000  0.00000
2095 439080.000  -2364332.0419   4870283.9708  -3360805.9260   5  10   4.0157   4.3246   4.7732  -3.4098  -3.7770   3.6079   0.00    0.0   -0.00571   -0.00068   -0.00908   0.00000  0.00000  0.00000  0.00000  0.00000  0.00000
2095 439110.000  -2364332.6164   4870284.4990  -3360807.0868   5  10   4.0222   4.3250   4.7626  -3.4143  -3.7718   3.6025   0.00    0.0    0.01043    0.02246   -0.00838   0.00000  0.00000  0.00000  0.00000  0.00000  0.00000
2095 439140.000  -2364332.1914   4870285.0216  -3360806.2921   5  10   4.0286   4.3253   4.7518  -3.4188  -3.7664   3.5968   0.00    0.0    0.00339    0.01466   -0.00426   0.00000  0.00000  0.00000  0.00000  0.00000  0.00000
2095 439170.000  -2364332.1222   4870284.6304  -3360805.6884   5  10   4.0351   4.3256   4.7407  -3.4232  -3.7608   3.5910   0.00    0.0    0.01487    0.00826   -0.01076   0.00000  0.00000  0.00000  0.00000  0.00000  0.00000
2095 439200.000  -2364332.2904   4870283.9822  -3360805.5850   5  10   4.0912   4.3342   4.7295  -3.4025  -3.7558   3.5830   0.00    0.0    0.00130   -0.01138   -0.01135   0.00000  0.00000  0.00000  0.00000  0.00000  0.00000
2095 439230.000  -2364332.0815   4870284.4460  -3360805.7666   5  10   4.0982   4.3343   4.7180  -3.4068  -3.7497   3.5774   0.00    0.0    0.00763    0.00030   -0.01179   0.00000  0.00000  0.00000  0.00000  0.00000  0.00000
2095 439260.000  -2364332.3037   4870284.2252  -3360806.1303   5  10   4.1051   4.3344   4.7064  -3.4110  -3.7433   3.5716   0.00    0.0   -0.00532   -0.01310    0.00148   0.00000  0.00000  0.00000  0.00000  0.00000  0.00000
2095 439290.000  -2364332.1808   4870284.8198  -3360806.6125   5  10   4.1121   4.3345   4.6945  -3.4152  -3.7368   3.5656   0.00    0.0    0.00589   -0.00565    0.02765   0.00000  0.00000  0.00000  0.00000  0.00000  0.00000
2095 439320.000  -2364332.3083   4870284.5097  -3360805.5687   5  10   4.1191   4.3345   4.6825  -3.4193  -3.7302   3.5595   0.00    0.0    0.00918   -0.02375    0.01799   0.00000  0.00000  0.00000  0.00000  0.00000  0.00000
2095 439350.000  -2364332.0073   4870283.3205  -3360805.3310   5  10   4.1262   4.3345   4.6703  -3.4234  -3.7233   3.5532   0.00    0.0   -0.00829    0.00479    0.00817   0.00000  0.00000  0.00000  0.00000  0.00000  0.00000
2095 439380.000  -2364332.4055   4870285.2091  -3360806.9815   5  10   4.1333   4.3345   4.6579  -3.4276  -3.7164   3.5468   0.00    0.0    0.00545    0.00087    0.00554   0.00000  0.00000  0.00000  0.00000  0.00000  0.00000
2095 439410.000  -2364332.3234   4870285.0007  -3360806.5076   5  10   4.1404   4.3344   4.6454  -3.4316  -3.7093   3.5403   0.00    0.0   -0.00201    0.00895   -0.00411   0.00000  0.00000  0.00000  0.00000  0.00000  0.00000
2095 439440.000  -2364332.4348   4870284.7425  -3360806.7956   5  10   4.1476   4.3344   4.6327  -3.4357  -3.7020   3.5337   0.00    0.0   -0.00261    0.00377    0.00501   0.00000  0.00000  0.00000  0.00000  0.00000  0.00000
2095 439470.000  -2364331.9714   4870284.1221  -3360806.0154   5  10   4.1548   4.3343   4.6199  -3.4398  -3.6947   3.5269   0.00    0.0   -0.00560    0.00170   -0.00069   0.00000  0.00000  0.00000  0.00000  0.00000  0.00000
2095 439500.000  -2364332.3115   4870285.6288  -3360807.5713   5  10   4.1621   4.3342   4.6070  -3.4438  -3.6872   3.5200   0.00    0.0    0.00947   -0.00510   -0.00597   0.00000  0.00000  0.00000  0.00000  0.00000  0.00000
2095 439530.000  -2364332.3981   4870284.4134  -3360806.2792   5  10   4.1695   4.3341   4.5940  -3.4479  -3.6795   3.5130   0.00    0.0   -0.01412    0.00598   -0.01722   0.00000  0.00000  0.00000  0.00000  0.00000  0.00000
2095 439560.000  -2364333.0216   4870285.3411  -3360807.4050   5  10   4.1769   4.3340   4.5808  -3.4520  -3.6718   3.5059   0.00    0.0   -0.00799   -0.00006    0.00629   0.00000  0.00000  0.00000  0.00000  0.00000  0.00000
2095 439590.000  -2364332.5941   4870284.4025  -3360806.4519   5  10   4.1844   4.3339   4.5675  -3.4561  -3.6640   3.4987   0.00    0.0   -0.00531   -0.00803   -0.01643   0.00000  0.00000  0.00000  0.00000  0.00000  0.00000
2095 439620.000  -2364331.6461   4870284.0789  -3360806.4703   5  10   4.1920   4.3338   4.5542  -3.4602  -3.6560   3.4914   0.00    0.0    0.00210   -0.00964    0.01308   0.00000  0.00000  0.00000  0.00000  0.00000  0.00000
2095 439650.000  -2364332.2993   4870284.2109  -3360806.3021   5  10   4.1996   4.3337   4.5407  -3.4643  -3.6479   3.4840   0.00    0.0    0.01003   -0.00818    0.03095   0.00000  0.00000  0.00000  0.00000  0.00000  0.00000
2095 439680.000  -2364332.6514   4870284.8061  -3360806.9210   5  10   4.2073   4.3337   4.5272  -3.4684  -3.6398   3.4765   0.00    0.0    0.00042   -0.00134    0.01736   0.00000  0.00000  0.00000  0.00000  0.00000  0.00000
2095 439710.000  -2364332.1087   4870284.4527  -3360806.6311   5  10   4.2151   4.3336   4.5136  -3.4726  -3.6316   3.4689   0.00    0.0   -0.02286    0.01183   -0.01709   0.00000  0.00000  0.00000  0.00000  0.00000  0.00000
2095 439740.000  -2364332.4883   4870284.5178  -3360806.4112   5  10   4.2230   4.3335   4.4999  -3.4768  -3.6232   3.4612   0.00    0.0    0.00439   -0.01215    0.00457   0.00000  0.00000  0.00000  0.00000  0.00000  0.00000
2095 439770.000  -2364332.7175   4870285.0118  -3360806.5623   5  10   4.2310   4.3335   4.4861  -3.4811  -3.6148   3.4535   0.00    0.0    0.00454    0.00185   -0.01930   0.00000  0.00000  0.00000  0.00000  0.00000  0.00000
2095 439800.000  -2364332.5724   4870284.2226  -3360806.9370   5  10   4.2391   4.3335   4.4723  -3.4853  -3.6064   3.4457   0.00    0.0   -0.01157    0.02225   -0.02012   0.00000  0.00000  0.00000  0.00000  0.00000  0.00000
2095 439830.000  -2364332.2307   4870284.8268  -3360807.0258   5  10   4.2473   4.3335   4.4584  -3.4897  -3.5978   3.4379   0.00    0.0   -0.02328    0.01680   -0.00856   0.00000  0.00000  0.00000  0.00000  0.00000  0.00000
2095 439860.000  -2364332.4528   4870284.3338  -3360806.5703   5  10   4.2556   4.3336   4.4445  -3.4941  -3.5892   3.4299   0.00    0.0   -0.01477   -0.00176   -0.00031   0.00000  0.00000  0.00000  0.00000  0.00000  0.00000
2095 439890.000  -2364332.4595   4870283.6797  -3360805.8945   5  10   4.2640   4.3336   4.4305  -3.4985  -3.5805   3.4219   0.00    0.0   -0.00076   -0.00575   -0.00250   0.00000  0.00000  0.00000  0.00000  0.00000  0.00000
