% program   : GINav v0.1.0
% obs start : 2019/12/01 00:00:00.0
% obs end   : 2019/12/01 23:59:30.0
% mode      : PPP Static
% system    : GPS GLONASS GALILEO BDS QZSS
% nfreqs    : 2
% elev mask : 10.0 deg
% ephemeris : precise
% ionos opt : iono-free LC
% trops opt : ZTD estimation
%
%  GPST              x-ecef(m)      y-ecef(m)      z-ecef(m)   Q  ns   sdx(m)   sdy(m)   sdz(m)  sdxy(m)  sdyz(m)  sdzx(m) age(s)  ratio    vx(m/s)    vy(m/s)    vz(m/s)      sdvx     sdvy     sdvz    sdvxy    sdvyz    sdvzx
2082      0.000   5084656.9815   2670325.0367  -2768480.7290   6  28   1.5280   1.1163   0.9711   0.9654  -0.6644  -0.8380   0.00    0.0    0.00067   -0.00055    0.00069   0.00000  0.00000  0.00000  0.00000  0.00000  0.00000
2082     30.000   5084657.2097   2670325.0675  -2768480.8002   6  28   1.0487   0.7723   0.6696   0.6533  -0.4629  -0.5793   0.00    0.0    0.00380   -0.00186    0.00477   0.00000  0.00000  0.00000  0.00000  0.00000  0.00000
2082     60.000   5084657.2593   2670325.0431  -2768480.8137   6  28   0.8189   0.6098   0.5262   0.4984  -0.3692  -0.4571   0.00    0.0    0.01612    0.00525    0.00235   0.00000  0.00000  0.00000  0.00000  0.00000  0.00000
2082     90.000   5084657.3908   2670325.0693  -2768480.8436   6  28   0.6747   0.5083   0.4363   0.3988  -0.3124  -0.3823   0.00    0.0   -0.01184   -0.00065    0.00352   0.00000  0.00000  0.00000  0.00000  0.00000  0.00000
2082    120.000   5084657.4320   2670325.1598  -2768480.7742   6  28   0.5728   0.4366   0.3723   0.3273  -0.2725  -0.3297   0.00    0.0    0.00051    0.00336   -0.01013   0.00000  0.00000  0.00000  0.00000  0.00000  0.00000
2082    150.000   5084657.4277   2670325.2215  -2768480.7548   6  28   0.4952   0.3821   0.3232   0.2720  -0.2413  -0.2887   0.00    0.0    0.00071    0.00112   -0.00411   0.00000  0.00000  0.00000  0.00000  0.00000  0.00000
2082    180.000   5084657.4178   2670325.2315  -2768480.7420   6  28   0.4332   0.3387   0.2835   0.2273  -0.2152  -0.2546   0.00    0.0    0.01377   -0.00421   -0.00020   0.00000  0.00000  0.00000  0.00000  0.00000  0.00000
2082    210.000   5084657.4281   2670325.2418  -2768480.7410   6  28   0.3825   0.3032   0.2505   0.1903  -0.1929  -0.2254   0.00    0.0   -0.00018   -0.00338    0.00837   0.00000  0.00000  0.00000  0.00000  0.00000  0.00000
2082    240.000   5084657.4474   2670325.2529  -2768480.7684   6  28   0.3403   0.2737   0.2227   0.1593  -0.1736  -0.2003   0.00    0.0   -0.00660   -0.00770    0.00198   0.00000  0.00000  0.00000  0.00000  0.00000  0.00000
2082    270.000   5084657.4362   2670325.2697  -2768480.7878   6  28   0.3048   0.2487   0.1991   0.1332  -0.1569  -0.1786   0.00    0.0    0.01768    0.00239    0.00141   0.00000  0.00000  0.00000  0.00000  0.00000  0.00000
2082    300.000   5084657.4482   2670325.2938  -2768480.7994   6  27   0.2749   0.2275   0.1790   0.1107  -0.1424  -0.1601   0.00    0.0    0.00305   -0.01020   -0.00654   0.00000  0.00000  0.00000  0.00000  0.00000  0.00000
2082    330.000   5084657.4545   2670325.3255  -2768480.8137   6  28   0.2492   0.2090   0.1617   0.0918  -0.1298  -0.1439   0.00    0.0    0.00108    0.00020   -0.00457   0.00000  0.00000  0.00000  0.00000  0.00000  0.00000
2082    360.000   5084657.4575   2670325.3629  -2768480.8300   6  28   0.2272   0.1930   0.1468   0.0754  -0.1188  -0.1300   0.00    0.0    0.00062   -0.00954    0.00055   0.00000  0.00000  0.00000  0.00000  0.00000  0.00000
2082    390.000   5084657.4671   2670325.3696  -2768480.8398   6  28   0.2081   0.1789   0.1338   0.0612  -0.1093  -0.1180   0.00    0.0   -0.00519   -0.01671    0.00579   0.00000  0.00000  0.00000  0.00000  0.00000  0.00000
2082    420.000   5084657.4876   2670325.3816  -2768480.8482   6  28   0.1915   0.1665   0.1226   0.0485  -0.1008  -0.1075   0.00    0.0    0.00127    0.00483   -0.00676   0.00000  0.00000  0.00000  0.00000  0.00000  0.00000
2082    450.000   5084657.5108   2670325.3742  -2768480.8564   6  28   0.1769   0.1554   0.1128   0.0368  -0.0934  -0.0983   0.00    0.0    0.00210   -0.00752    0.00148   0.00000  0.00000  0.00000  0.00000  0.00000  0.00000
2082    480.000   5084657.5418   2670325.3676  -2768480.8637   6  28   0.1641   0.1455   0.1041   0.0254  -0.0868  -0.0903   0.00    0.0    0.01422    0.00069   -0.01390   0.00000  0.00000  0.00000  0.00000  0.00000  0.00000
2082    510.000   5084657.5770   2670325.3675  -2768480.8797   6  29   0.1527   0.1365   0.0964   0.0122  -0.0809  -0.0832   0.00    0.0    0.00567   -0.00315   -0.01145   0.00000  0.00000  0.00000  0.00000  0.00000  0.00000
2082    540.000   5084657.5937   2670325.3554  -2768480.8833   6  29   0.1425   0.1284   0.0896  -0.0142  -0.0757  -0.0770   0.00    0.0    0.00362   -0.00030    0.00257   0.00000  0.00000  0.00000  0.00000  0.00000  0.00000
2082    570.000   5084657.5928   2670325.3607  -2768480.8863   6  29   0.1334   0.1210   0.0836  -0.0211  -0.0709  -0.0714   0.00    0.0   -0.00743   -0.01976   -0.00494   0.00000  0.00000  0.00000  0.00000  0.00000  0.00000
2082    600.000   5084657.5917   2670325.3719  -2768480.8915   6  29   0.1251   0.1143   0.0781  -0.0248  -0.0666  -0.0665   0.00    0.0    0.01827    0.00163   -0.00449   0.00000  0.00000  0.00000  0.00000  0.00000  0.00000
2082    630.000   5084657.5914   2670325.3774  -2768480.8949   6  29   0.1177   0.1082   0.0732  -0.0269  -0.0627  -0.0620   0.00    0.0   -0.00128   -0.00849   -0.00718   0.00000  0.00000  0.00000  0.00000  0.00000  0.00000
2082    660.000   5084657.5986   2670325.3809  -2768480.8959   6  29   0.1109   0.1026   0.0687  -0.0281  -0.0592  -0.0580   0.00    0.0   -0.01521   -0.00450    0.00286   0.00000  0.00000  0.00000  0.00000  0.00000  0.00000
2082    690.000   5084657.5994   2670325.3764  -2768480.8942   6  29   0.1048   0.0974   0.0647  -0.0288  -0.0559  -0.0543   0.00    0.0    0.00142   -0.00221   -0.00853   0.00000  0.00000  0.00000  0.00000  0.00000  0.00000
2082    720.000   5084657.5994   2670325.3732  -2768480.8935   6  29   0.0992   0.0926   0.0610  -0.0291  -0.0530  -0.0511   0.00    0.0    0.00641   -0.00017   -0.00811   0.00000  0.00000  0.00000  0.00000  0.00000  0.00000
2082    750.000   5084657.6008   2670325.3661  -2768480.8955   6  29   0.0940   0.0882   0.0577  -0.0291  -0.0502  -0.0481   0.00    0.0   -0.00622   -0.00879   -0.00347   0.00000  0.00000  0.00000  0.00000  0.00000  0.00000
2082    780.000   5084657.6004   2670325.3642  -2768480.8975   6  29   0.0893   0.0841   0.0546  -0.0289  -0.0477  -0.0453   0.00    0.0    0.00320    0.00083   -0.00539   0.00000  0.00000  0.00000  0.00000  0.00000  0.00000
2082    810.000   5084657.6036   2670325.3636  -2768480.9002   6  29   0.0849   0.0803   0.0518  -0.0286  -0.0454  -0.0428   0.00    0.0    0.01947    0.00382   -0.00097   0.00000  0.00000  0.00000  0.00000  0.00000  0.00000
2082    840.000   5084657.6061   2670325.3613  -2768480.9019   6  29   0.0809   0.0768   0.0492  -0.0282  -0.0432  -0.0405   0.00    0.0    0.00679   -0.00978   -0.00701   0.00000  0.00000  0.00000  0.00000  0.00000  0.00000
2082    870.000   5084657.6100   2670325.3560  -2768480.9024   6  29   0.0771   0.0735   0.0468  -0.0277  -0.0412  -0.0384   0.00    0.0    0.00306   -0.00222    0.00576   0.00000  0.00000  0.00000  0.00000  0.00000  0.00000
2082    900.000   5084657.6137   2670325.3475  -2768480.9006   6  29   0.0737   0.0704   0.0446  -0.0272  -0.0394  -0.0365   0.00    0.0   -0.00123   -0.01105    0.00022   0.00000  0.00000  0.00000  0.00000  0.00000  0.00000
2082    930.000   5084657.6144   2670325.3443  -2768480.8989   6  29   0.0704   0.0675   0.0425  -0.0266  -0.0376  -0.0347   0.00    0.0   -0.00906   -0.01034    0.00213   0.00000  0.00000  0.00000  0.00000  0.00000  0.00000
2082    960.000   5084657.6165   2670325.3424  -2768480.8985   6  29   0.0674   0.0648   0.0406  -0.0261  -0.0360  -0.0330   0.00    0.0   -0.00550   -0.00299   -0.00306   0.00000  0.00000  0.00000  0.00000  0.00000  0.00000
2082    990.000   5084657.6147   2670325.3448  -2768480.8982   6  29   0.0646   0.0623   0.0388  -0.0255  -0.0345  -0.0315   0.00    0.0    0.00447    0.00788    0.00024   0.00000  0.00000  0.00000  0.00000  0.00000  0.00000
2082   1020.000   5084657.6150   2670325.3446  -2768480.8976   6  29   0.0620   0.0599   0.0372  -0.0249  -0.0331  -0.0301   0.00    0.0    0.01108   -0.00443    0.00285   0.00000  0.00000  0.00000  0.00000  0.00000  0.00000
2082   1050.000   5084657.6161   2670325.3422  -2768480.8960   6  29   0.0596   0.0576   0.0356  -0.0243  -0.0317  -0.0287   0.00    0.0   -0.01451   -0.00742   -0.00477   0.00000  0.00000  0.00000  0.00000  0.00000  0.00000
2082   1080.000   5084657.6144   2670325.3429  -2768480.8954   6  29   0.0573   0.0555   0.0342  -0.0237  -0.0305  -0.0275   0.00    0.0    0.00806   -0.00228   -0.00693   0.00000  0.00000  0.00000  0.00000  0.00000  0.00000
2082   1110.000   5084657.6150   2670325.3417  -2768480.8948   6  29   0.0551   0.0535   0.0328  -0.0232  -0.0293  -0.0263   0.00    0.0    0.00027    0.00656   -0.01212   0.00000  0.00000  0.00000  0.00000  0.00000  0.00000
2082   1140.000   5084657.6182   2670325.3374  -2768480.8944   6  29   0.0531   0.0517   0.0315  -0.0226  -0.0282  -0.0252   0.00    0.0    0.00462    0.00196   -0.00028   0.00000  0.00000  0.00000  0.00000  0.00000  0.00000
2082   1170.000   5084657.6210   2670325.3344  -2768480.8949   6  29   0.0512   0.0499   0.0303  -0.0221  -0.0271  -0.0242   0.00    0.0    0.00459   -0.00818   -0.00436   0.00000  0.00000  0.00000  0.00000  0.00000  0.00000
2082   1200.000   5084657.6232   2670325.3342  -2768480.8967   6  29   0.0493   0.0482   0.0292  -0.0215  -0.0262  -0.0233   0.00    0.0    0.00544   -0.00084   -0.00218   0.00000  0.00000  0.00000  0.00000  0.00000  0.00000
2082   1230.000   5084657.6230   2670325.3338  -2768480.8974   6  29   0.0476   0.0466   0.0281  -0.0210  -0.0252  -0.0224   0.00    0.0    0.00467   -0.01536   -0.00253   0.00000  0.00000  0.00000  0.00000  0.00000  0.00000
2082   1260.000   5084657.6235   2670325.3359  -2768480.8987   6  29   0.0460   0.0451   0.0271  -0.0205  -0.0243  -0.0215   0.00    0.0    0.00342    0.00079   -0.00083   0.00000  0.00000  0.00000  0.00000  0.00000  0.00000
2082   1290.000   5084657.6219   2670325.3373  -2768480.8989   6  29   0.0445   0.0436   0.0262  -0.0200  -0.0235  -0.0207   0.00    0.0   -0.00006   -0.00969    0.00413   0.00000  0.00000  0.00000  0.00000  0.00000  0.00000
2082   1320.000   5084657.6229   2670325.3369  -2768480.8989   6  28   0.0431   0.0423   0.0253  -0.0195  -0.0227  -0.0200   0.00    0.0   -0.00094    0.00222    0.00161   0.00000  0.00000  0.00000  0.00000  0.00000  0.00000
2082   1350.000   5084657.6246   2670325.3377  -2768480.9000   6  28   0.0418   0.0410   0.0245  -0.0190  -0.0220  -0.0194   0.00    0.0   -0.00271   -0.00340   -0.00405   0.00000  0.00000  0.00000  0.00000  0.00000  0.00000
2082   1380.000   5084657.6259   2670325.3402  -2768480.9015   6  28   0.0405   0.0398   0.0237  -0.0185  -0.0213  -0.0188   0.00    0.0    0.01023   -0.00755    0.00485   0.00000  0.00000  0.00000  0.00000  0.00000  0.00000
2082   1410.000   5084657.6270   2670325.3418  -2768480.9022   6  28   0.0393   0.0386   0.0230  -0.0180  -0.0207  -0.0182   0.00    0.0    0.00375   -0.00539   -0.00158   0.00000  0.00000  0.00000  0.00000  0.00000  0.00000
2082   1440.000   5084657.6286   2670325.3411  -2768480.9020   6  28   0.0382   0.0375   0.0223  -0.0176  -0.0200  -0.0177   0.00    0.0   -0.00813   -0.00651   -0.00420   0.00000  0.00000  0.00000  0.00000  0.00000  0.00000
2082   1470.000   5084657.6290   2670325.3408  -2768480.9023   6  28   0.0371   0.0364   0.0217  -0.0172  -0.0194  -0.0171   0.00    0.0   -0.01498    0.00251   -0.00744   0.00000  0.00000  0.00000  0.00000  0.00000  0.00000
2082   1500.000   5084657.6303   2670325.3404  -2768480.9018   6  28   0.0360   0.0354   0.0210  -0.0168  -0.0189  -0.0166   0.00    0.0    0.00256   -0.00006   -0.00170   0.00000  0.00000  0.00000  0.00000  0.00000  0.00000
2082   1530.000   5084657.6323   2670325.3389  -2768480.9022   6  28   0.0350   0.0344   0.0204  -0.0164  -0.0183  -0.0161   0.00    0.0    0.00645    0.00456   -0.00719   0.00000  0.00000  0.00000  0.00000  0.00000  0.00000
2082   1560.000   5084657.6346   2670325.3386  -2768480.9030   6  28   0.0341   0.0335   0.0198  -0.0160  -0.0178  -0.0157   0.00    0.0    0.00154   -0.00979    0.01104   0.00000  0.00000  0.00000  0.00000  0.00000  0.00000
2082   1590.000   5084657.6360   2670325.3398  -2768480.9038   6  28   0.0332   0.0326   0.0193  -0.0156  -0.0173  -0.0152   0.00    0.0   -0.00902   -0.00312   -0.00181   0.00000  0.00000  0.00000  0.00000  0.00000  0.00000
2082   1620.000   5084657.6379   2670325.3412  -2768480.9048   6  28   0.0323   0.0317   0.0187  -0.0153  -0.0168  -0.0148   0.00    0.0   -0.02241   -0.00847    0.00014   0.00000  0.00000  0.00000  0.00000  0.00000  0.00000
2082   1650.000   5084657.6404   2670325.3426  -2768480.9064   6  28   0.0314   0.0309   0.0182  -0.0149  -0.0164  -0.0144   0.00    0.0   -0.01280   -0.00198    0.00176   0.00000  0.00000  0.00000  0.00000  0.00000  0.00000
2082   1680.000   5084657.6425   2670325.3432  -2768480.9070   6  27   0.0307   0.0301   0.0178  -0.0146  -0.0159  -0.0141   0.00    0.0   -0.01832   -0.00007    0.00509   0.00000  0.00000  0.00000  0.00000  0.00000  0.00000
2082   1710.000   5084657.6435   2670325.3444  -2768480.9080   6  27   0.0299   0.0294   0.0173  -0.0142  -0.0156  -0.0137   0.00    0.0    0.00275    0.00388   -0.00807   0.00000  0.00000  0.00000  0.00000  0.00000  0.00000
2082   1740.000   5084657.6455   2670325.3454  -2768480.9089   6  27   0.0292   0.0287   0.0169  -0.0139  -0.0152  -0.0134   0.00    0.0    0.01703    0.00082   -0.00886   0.00000  0.00000  0.00000  0.00000  0.00000  0.00000
2082   1770.000   5084657.6486   2670325.3455  -2768480.9100   6  27   0.0285   0.0280   0.0165  -0.0136  -0.0148  -0.0131   0.00    0.0    0.00145   -0.00480    0.00165   0.00000  0.00000  0.00000  0.00000  0.00000  0.00000
2082   1800.000   5084657.6508   2670325.3461  -2768480.9109   6  28   0.0279   0.0273   0.0161  -0.0133  -0.0144  -0.0128   0.00    0.0    0.01424    0.00046   -0.01216   0.00000  0.00000  0.00000  0.00000  0.00000  0.00000
2082   1830.000   5084657.6542   2670325.3471  -2768480.9126   6  28   0.0272   0.0267   0.0158  -0.0130  -0.0141  -0.0125   0.00    0.0    0.00069   -0.01298    0.00365   0.00000  0.00000  0.00000  0.00000  0.00000  0.00000
2082   1860.000   5084657.6556   2670325.3483  -2768480.9135   6  28   0.0266   0.0261   0.0154  -0.0127  -0.0138  -0.0123   0.00    0.0    0.00263    0.00086    0.00408   0.00000  0.00000  0.00000  0.00000  0.00000  0.00000
2082   1890.000   5084657.6576   2670325.3483  -2768480.9139   6  29   0.0260   0.0255   0.0150  -0.0124  -0.0135  -0.0120   0.00    0.0    0.01092   -0.00191   -0.00749   0.00000  0.00000  0.00000  0.00000  0.00000  0.00000
2082   1920.000   5084657.6593   2670325.3487  -2768480.9145   6  29   0.0255   0.0249   0.0147  -0.0121  -0.0132  -0.0118   0.00    0.0    0.00050   -0.00080   -0.00299   0.00000  0.00000  0.00000  0.00000  0.00000  0.00000
2082   1950.000   5084657.6605   2670325.3493  -2768480.9155   6  29   0.0249   0.0243   0.0144  -0.0119  -0.0129  -0.0115   0.00    0.0    0.01025   -0.00671   -0.00665   0.00000  0.00000  0.00000  0.00000  0.00000  0.00000
2082   1980.000   5084657.6614   2670325.3488  -2768480.9158   6  29   0.0244   0.0238   0.0141  -0.0116  -0.0126  -0.0113   0.00    0.0   -0.00342    0.00596   -0.00419   0.00000  0.00000  0.00000  0.00000  0.00000  0.00000
2082   2010.000   5084657.6614   2670325.3504  -2768480.9163   6  28   0.0239   0.0233   0.0138  -0.0114  -0.0123  -0.0111   0.00    0.0   -0.00057   -0.01206   -0.00134   0.00000  0.00000  0.00000  0.00000  0.00000  0.00000
2082   2040.000   5084657.6626   2670325.3517  -2768480.9169   6  28   0.0234   0.0228   0.0135  -0.0111  -0.0121  -0.0108   0.00    0.0    0.00245   -0.00545    0.00383   0.00000  0.00000  0.00000  0.00000  0.00000  0.00000
2082   2070.000   5084657.6624   2670325.3530  -2768480.9175   6  28   0.0229   0.0224   0.0132  -0.0109  -0.0118  -0.0106   0.00    0.0   -0.01064   -0.00570   -0.00271   0.00000  0.00000  0.00000  0.00000  0.00000  0.00000
2082   2100.000   5084657.6622   2670325.3547  -2768480.9182   6  28   0.0225   0.0219   0.0130  -0.0106  -0.0116  -0.0104   0.00    0.0    0.00503   -0.00509   -0.00531   0.00000  0.00000  0.00000  0.00000  0.00000  0.00000
2082   2130.000   5084657.6618   2670325.3571  -2768480.9190   6  28   0.0220   0.0215   0.0127  -0.0104  -0.0114  -0.0103   0.00    0.0    0.01835   -0.00705   -0.00532   0.00000  0.00000  0.00000  0.00000  0.00000  0.00000
2082   2160.000   5084657.6606   2670325.3597  -2768480.9197   6  27   0.0216   0.0211   0.0125  -0.0102  -0.0111  -0.0101   0.00    0.0    0.00736    0.00125   -0.00776   0.00000  0.00000  0.00000  0.00000  0.00000  0.00000
2082   2190.000   5084657.6605   2670325.3616  -2768480.9203   6  28   0.0212   0.0207   0.0122  -0.0100  -0.0109  -0.0099   0.00    0.0    0.00516   -0.00028   -0.00039   0.00000  0.00000  0.00000  0.00000  0.00000  0.00000
2082   2220.000   5084657.6611   2670325.3629  -2768480.9208   6  28   0.0208   0.0203   0.0120  -0.0098  -0.0107  -0.0097   0.00    0.0   -0.00254   -0.00399    0.00183   0.00000  0.00000  0.00000  0.00000  0.00000  0.00000
2082   2250.000   5084657.6619   2670325.3636  -2768480.9213   6  27   0.0204   0.0199   0.0118  -0.0096  -0.0105  -0.0096   0.00    0.0    0.00860   -0.01164   -0.00198   0.00000  0.00000  0.00000  0.00000  0.00000  0.00000
2082   2280.000   5084657.6630   2670325.3650  -2768480.9221   6  27   0.0201   0.0195   0.0115  -0.0094  -0.0103  -0.0094   0.00    0.0    0.01776   -0.00793   -0.00596   0.00000  0.00000  0.00000  0.00000  0.00000  0.00000
2082   2310.000   5084657.6641   2670325.3657  -2768480.9227   6  27   0.0197   0.0191   0.0113  -0.0092  -0.0101  -0.0093   0.00    0.0    0.00284    0.00106   -0.00879   0.00000  0.00000  0.00000  0.00000  0.00000  0.00000
2082   2340.000   5084657.6645   2670325.3661  -2768480.9229   6  27   0.0194   0.0188   0.0111  -0.0090  -0.0099  -0.0091   0.00    0.0   -0.00990   -0.00164    0.01180   0.00000  0.00000  0.00000  0.00000  0.00000  0.00000
2082   2370.000   5084657.6646   2670325.3672  -2768480.9232   6  27   0.0191   0.0184   0.0109  -0.0088  -0.0098  -0.0090   0.00    0.0   -0.00691   -0.00485    0.00798   0.00000  0.00000  0.00000  0.00000  0.00000  0.00000
2082   2400.000   5084657.6640   2670325.3680  -2768480.9233   6  27   0.0188   0.0181   0.0107  -0.0087  -0.0096  -0.0088   0.00    0.0    0.00870   -0.00391   -0.00044   0.00000  0.00000  0.00000  0.00000  0.00000  0.00000
2082   2430.000   5084657.6636   2670325.3686  -2768480.9236   6  27   0.0184   0.0178   0.0106  -0.0085  -0.0094  -0.0087   0.00    0.0    0.01324    0.00204   -0.00908   0.00000  0.00000  0.00000  0.00000  0.00000  0.00000
2082   2460.000   5084657.6623   2670325.3697  -2768480.9236   6  27   0.0181   0.0175   0.0104  -0.0083  -0.0093  -0.0086   0.00    0.0   -0.00459   -0.00409   -0.00088   0.00000  0.00000  0.00000  0.00000  0.00000  0.00000
2082   2490.000   5084657.6621   2670325.3709  -2768480.9240   6  27   0.0179   0.0172   0.0102  -0.0082  -0.0091  -0.0085   0.00    0.0   -0.00095    0.00241    0.00385   0.00000  0.00000  0.00000  0.00000  0.00000  0.00000
2082   2520.000   5084657.6614   2670325.3720  -2768480.9242   6  27   0.0176   0.0169   0.0100  -0.0080  -0.0089  -0.0083   0.00    0.0   -0.00106   -0.00566    0.00053   0.00000  0.00000  0.00000  0.00000  0.00000  0.00000
2082   2550.000   5084657.6606   2670325.3729  -2768480.9244   6  26   0.0173   0.0166   0.0098  -0.0079  -0.0088  -0.0082   0.00    0.0   -0.00847   -0.01181    0.01163   0.00000  0.00000  0.00000  0.00000  0.00000  0.00000
2082   2580.000   5084657.6597   2670325.3739  -2768480.9247   6  27   0.0170   0.0163   0.0097  -0.0077  -0.0086  -0.0081   0.00    0.0   -0.00594   -0.01149    0.00274   0.00000  0.00000  0.00000  0.00000  0.00000  0.00000
2082   2610.000   5084657.6584   2670325.3754  -2768480.9250   6  27   0.0168   0.0160   0.0095  -0.0076  -0.0085  -0.0080   0.00    0.0    0.00686   -0.00488   -0.00948   0.00000  0.00000  0.00000  0.00000  0.00000  0.00000
2082   2640.000   5084657.6584   2670325.3763  -2768480.9254   6  27   0.0165   0.0158   0.0094  -0.0075  -0.0083  -0.0079   0.00    0.0   -0.00157    0.00332    0.00408   0.00000  0.00000  0.00000  0.00000  0.00000  0.00000
2082   2670.000   5084657.6575   2670325.3777  -2768480.9257   6  27   0.0163   0.0155   0.0092  -0.0073  -0.0082  -0.0077   0.00    0.0    0.00712   -0.00724   -0.00601   0.00000  0.00000  0.00000  0.00000  0.00000  0.00000
2082   2700.000   5084657.6566   2670325.3788  -2768480.9259   6  27   0.0160   0.0153   0.0091  -0.0072  -0.0081  -0.0076   0.00    0.0    0.00851    0.00229   -0.00454   0.00000  0.00000  0.00000  0.00000  0.00000  0.00000
2082   2730.000   5084657.6566   2670325.3798  -2768480.9263   6  27   0.0158   0.0150   0.0089  -0.0071  -0.0079  -0.0075   0.00    0.0    0.00181    0.00308   -0.00330   0.00000  0.00000  0.00000  0.00000  0.00000  0.00000
2082   2760.000   5084657.6572   2670325.3796  -2768480.9264   6  27   0.0156   0.0148   0.0088  -0.0070  -0.0078  -0.0074   0.00    0.0   -0.01205   -0.00833    0.00523   0.00000  0.00000  0.00000  0.00000  0.00000  0.00000
2082   2790.000   5084657.6574   2670325.3802  -2768480.9265   6  27   0.0153   0.0145   0.0086  -0.0069  -0.0077  -0.0073   0.00    0.0   -0.00601   -0.01564   -0.00066   0.00000  0.00000  0.00000  0.00000  0.00000  0.00000
2082   2820.000   5084657.6574   2670325.3803  -2768480.9264   6  27   0.0151   0.0143   0.0085  -0.0068  -0.0075  -0.0072   0.00    0.0    0.01724    0.00406   -0.01409   0.00000  0.00000  0.00000  0.00000  0.00000  0.00000
2082   2850.000   5084657.6571   2670325.3807  -2768480.9265   6  27   0.0149   0.0141   0.0084  -0.0067  -0.0074  -0.0071   0.00    0.0   -0.01116   -0.01155    0.00859   0.00000  0.00000  0.00000  0.00000  0.00000  0.00000
2082   2880.000   5084657.6564   2670325.3808  -2768480.9264   6  27   0.0147   0.0139   0.0082  -0.0066  -0.0073  -0.0070   0.00    0.0   -0.00288    0.00067   -0.00435   0.00000  0.00000  0.00000  0.00000  0.00000  0.00000
2082   2910.000   5084657.6557   2670325.3817  -2768480.9267   6  27   0.0145   0.0137   0.0081  -0.0065  -0.0072  -0.0069   0.00    0.0   -0.00173    0.00829   -0.00973   0.00000  0.00000  0.00000  0.00000  0.00000  0.00000
2082   2940.000   5084657.6547   2670325.3822  -2768480.9267   6  27   0.0143   0.0135   0.0080  -0.0064  -0.0071  -0.0068   0.00    0.0   -0.00533   -0.01134    0.00019   0.00000  0.00000  0.00000  0.00000  0.00000  0.00000
2082   2970.000   5084657.6540   2670325.3826  -2768480.9267   6  26   0.0141   0.0133   0.0079  -0.0063  -0.0070  -0.0067   0.00    0.0   -0.00476   -0.00903    0.00752   0.00000  0.00000  0.00000  0.00000  0.00000  0.00000
2082   3000.000   5084657.6532   2670325.3831  -2768480.9269   6  26   0.0139   0.0131   0.0078  -0.0062  -0.0069  -0.0067   0.00    0.0   -0.00354    0.00076   -0.00345   0.00000  0.00000  0.00000  0.00000  0.00000  0.00000
2082   3030.000   5084657.6528   2670325.3836  -2768480.9269   6  26   0.0137   0.0129   0.0077  -0.0060  -0.0068  -0.0066   0.00    0.0   -0.00699   -0.01678    0.02147   0.00000  0.00000  0.00000  0.00000  0.00000  0.00000
2082   3060.000   5084657.6524   2670325.3843  -2768480.9272   6  26   0.0136   0.0127   0.0076  -0.0059  -0.0067  -0.0065   0.00    0.0    0.00241   -0.00933   -0.00723   0.00000  0.00000  0.00000  0.00000  0.00000  0.00000
2082   3090.000   5084657.6520   2670325.3853  -2768480.9274   6  26   0.0134   0.0126   0.0075  -0.0058  -0.0066  -0.0064   0.00    0.0   -0.00321   -0.00434   -0.00155   0.00000  0.00000  0.00000  0.00000  0.00000  0.00000
2082   3120.000   5084657.6516   2670325.3859  -2768480.9274   6  26   0.0132   0.0124   0.0074  -0.0058  -0.0065  -0.0064   0.00    0.0   -0.00301   -0.00524    0.00056   0.00000  0.00000  0.00000  0.00000  0.00000  0.00000
2082   3150.000   5084657.6508   2670325.3863  -2768480.9273   6  26   0.0131   0.0122   0.0073  -0.0057  -0.0064  -0.0063   0.00    0.0   -0.00462   -0.00691   -0.01215   0.00000  0.00000  0.00000  0.00000  0.00000  0.00000
2082   3180.000   5084657.6502   2670325.3863  -2768480.9270   6  26   0.0129   0.0121   0.0072  -0.0056  -0.0064  -0.0062   0.00    0.0   -0.00555   -0.00153   -0.00272   0.00000  0.00000  0.00000  0.00000  0.00000  0.00000
2082   3210.000   5084657.6497   2670325.3864  -2768480.9269   6  26   0.0127   0.0119   0.0071  -0.0055  -0.0063  -0.0062   0.00    0.0   -0.00973   -0.00435   -0.00632   0.00000  0.00000  0.00000  0.00000  0.00000  0.00000
2082   3240.000   5084657.6490   2670325.3869  -2768480.9269   6  25   0.0126   0.0117   0.0070  -0.0054  -0.0062  -0.0061   0.00    0.0   -0.00321   -0.00739    0.00092   0.00000  0.00000  0.00000  0.00000  0.00000  0.00000
2082   3270.000   5084657.6485   2670325.3872  -2768480.9267   6  26   0.0124   0.0116   0.0069  -0.0053  -0.0061  -0.0060   0.00    0.0    0.00610    0.00445   -0.01640   0.00000  0.00000  0.00000  0.00000  0.00000  0.00000
2082   3300.000   5084657.6480   2670325.3874  -2768480.9265   6  26   0.0123   0.0115   0.0068  -0.0052  -0.0060  -0.0060   0.00    0.0    0.00058   -0.01231   -0.00016   0.00000  0.00000  0.00000  0.00000  0.00000  0.00000
2082   3330.000   5084657.6473   2670325.3877  -2768480.9262   6  26   0.0121   0.0113   0.0067  -0.0052  -0.0060  -0.0059   0.00    0.0   -0.00056   -0.01526   -0.00406   0.00000  0.00000  0.00000  0.00000  0.00000  0.00000
2082   3360.000   5084657.6464   2670325.3881  -2768480.9260   6  26   0.0120   0.0112   0.0066  -0.0051  -0.0059  -0.0058   0.00    0.0   -0.00579   -0.00724    0.00243   0.00000  0.00000  0.00000  0.00000  0.00000  0.00000
2082   3390.000   5084657.6457   2670325.3884  -2768480.9259   6  26   0.0119   0.0110   0.0065  -0.0050  -0.0058  -0.0058   0.00    0.0   -0.00814   -0.00498   -0.00755   0.00000  0.00000  0.00000  0.00000  0.00000  0.00000
2082   3420.000   5084657.6452   2670325.3889  -2768480.9260   6  26   0.0117   0.0109   0.0065  -0.0049  -0.0057  -0.0057   0.00    0.0   -0.02420   -0.01141    0.00361   0.00000  0.00000  0.00000  0.00000  0.00000  0.00000
2082   3450.000   5084657.6446   2670325.3895  -2768480.9260   6  26   0.0116   0.0108   0.0064  -0.0049  -0.0057  -0.0056   0.00    0.0    0.01068    0.00331   -0.01852   0.00000  0.00000  0.00000  0.00000  0.00000  0.00000
2082   3480.000   5084657.6441   2670325.3899  -2768480.9259   6  26   0.0115   0.0106   0.0063  -0.0048  -0.0056  -0.0056   0.00    0.0    0.00853    0.00371   -0.02146   0.00000  0.00000  0.00000  0.00000  0.00000  0.00000
2082   3510.000   5084657.6439   2670325.3901  -2768480.9259   6  26   0.0113   0.0105   0.0062  -0.0047  -0.0055  -0.0055   0.00    0.0    0.01151    0.00432   -0.00375   0.00000  0.00000  0.00000  0.00000  0.00000  0.00000
2082   3540.000   5084657.6436   2670325.3904  -2768480.9259   6  26   0.0112   0.0104   0.0062  -0.0046  -0.0055  -0.0055   0.00    0.0   -0.00902   -0.01446   -0.00384   0.00000  0.00000  0.00000  0.00000  0.00000  0.00000
2082   3570.000   5084657.6432   2670325.3904  -2768480.9259   6  26   0.0111   0.0102   0.0061  -0.0046  -0.0054  -0.0054   0.00    0.0   -0.00827   -0.01076   -0.00434   0.00000  0.00000  0.00000  0.00000  0.00000  0.00000
2082   3600.000   5084657.6429   2670325.3903  -2768480.9257   6  26   0.0110   0.0101   0.0060  -0.0045  -0.0053  -0.0054   0.00    0.0   -0.00057    0.00278   -0.00213   0.00000  0.00000  0.00000  0.00000  0.00000  0.00000
2082   3630.000   5084657.6425   2670325.3904  -2768480.9257   6  26   0.0108   0.0100   0.0059  -0.0045  -0.0053  -0.0053   0.00    0.0    0.00496   -0.00624    0.00672   0.00000  0.00000  0.00000  0.00000  0.00000  0.00000
2082   3660.000   5084657.6423   2670325.3904  -2768480.9255   6  26   0.0107   0.0099   0.0059  -0.0044  -0.0052  -0.0053   0.00    0.0   -0.00852   -0.00319    0.00000   0.00000  0.00000  0.00000  0.00000  0.00000  0.00000
2082   3690.000   5084657.6418   2670325.3904  -2768480.9255   6  25   0.0106   0.0098   0.0058  -0.0043  -0.0052  -0.0052   0.00    0.0   -0.01279   -0.00075    0.00643   0.00000  0.00000  0.00000  0.00000  0.00000  0.00000
2082   3720.000   5084657.6416   2670325.3903  -2768480.9253   6  25   0.0105   0.0097   0.0057  -0.0043  -0.0051  -0.0052   0.00    0.0    0.01605    0.00076   -0.00589   0.00000  0.00000  0.00000  0.00000  0.00000  0.00000
2082   3750.000   5084657.6412   2670325.3904  -2768480.9252   6  25   0.0104   0.0095   0.0057  -0.0042  -0.0050  -0.0051   0.00    0.0    0.01925    0.00041   -0.01322   0.00000  0.00000  0.00000  0.00000  0.00000  0.00000
2082   3780.000   5084657.6408   2670325.3908  -2768480.9252   6  25   0.0103   0.0094   0.0056  -0.0041  -0.0050  -0.0051   0.00    0.0   -0.00151   -0.01133    0.00379   0.00000  0.00000  0.00000  0.00000  0.00000  0.00000
2082   3810.000   5084657.6403   2670325.3910  -2768480.9251   6  25   0.0102   0.0093   0.0056  -0.0041  -0.0049  -0.0050   0.00    0.0    0.02994    0.00999   -0.01848   0.00000  0.00000  0.00000  0.00000  0.00000  0.00000
2082   3840.000   5084657.6400   2670325.3913  -2768480.9251   6  25   0.0101   0.0092   0.0055  -0.0040  -0.0049  -0.0050   0.00    0.0    0.00714    0.00743   -0.00586   0.00000  0.00000  0.00000  0.00000  0.00000  0.00000
2082   3870.000   5084657.6398   2670325.3914  -2768480.9250   6  24   0.0100   0.0091   0.0054  -0.0040  -0.0048  -0.0049   0.00    0.0   -0.00318    0.00318   -0.00194   0.00000  0.00000  0.00000  0.00000  0.00000  0.00000
2082   3900.000   5084657.6396   2670325.3913  -2768480.9248   6  25   0.0099   0.0090   0.0054  -0.0039  -0.0048  -0.0049   0.00    0.0   -0.01578   -0.01132    0.01015   0.00000  0.00000  0.00000  0.00000  0.00000  0.00000
2082   3930.000   5084657.6396   2670325.3911  -2768480.9247   6  25   0.0098   0.0089   0.0053  -0.0038  -0.0047  -0.0049   0.00    0.0   -0.00681    0.00128    0.00033   0.00000  0.00000  0.00000  0.00000  0.00000  0.00000
2082   3960.000   5084657.6394   2670325.3912  -2768480.9246   6  25   0.0098   0.0088   0.0053  -0.0038  -0.0047  -0.0048   0.00    0.0   -0.01130   -0.01498    0.00108   0.00000  0.00000  0.00000  0.00000  0.00000  0.00000
2082   3990.000   5084657.6391   2670325.3914  -2768480.9246   6  25   0.0097   0.0087   0.0052  -0.0037  -0.0046  -0.0048   0.00    0.0   -0.01197   -0.00188    0.00622   0.00000  0.00000  0.00000  0.00000  0.00000  0.00000
2082   4020.000   5084657.6391   2670325.3914  -2768480.9246   6  25   0.0096   0.0087   0.0052  -0.0037  -0.0046  -0.0048   0.00    0.0   -0.00116    0.00871   -0.00127   0.00000  0.00000  0.00000  0.00000  0.00000  0.00000
2082   4050.000   5084657.6391   2670325.3914  -2768480.9246   6  25   0.0095   0.0086   0.0051  -0.0036  -0.0045  -0.0047   0.00    0.0   -0.00761   -0.00495    0.00505   0.00000  0.00000  0.00000  0.00000  0.00000  0.00000
2082   4080.000   5084657.6389   2670325.3918  -2768480.9247   6  25   0.0094   0.0085   0.0051  -0.0036  -0.0045  -0.0047   0.00    0.0   -0.00122   -0.00115   -0.00699   0.00000  0.00000  0.00000  0.00000  0.00000  0.00000
2082   4110.000   5084657.6384   2670325.3921  -2768480.9246   6  25   0.0093   0.0084   0.0050  -0.0035  -0.0044  -0.0046   0.00    0.0    0.00428   -0.00585   -0.00612   0.00000  0.00000  0.00000  0.00000  0.00000  0.00000
2082   4140.000   5084657.6381   2670325.3924  -2768480.9245   6  25   0.0092   0.0083   0.0050  -0.0035  -0.0044  -0.0046   0.00    0.0   -0.00497   -0.00094    0.00827   0.00000  0.00000  0.00000  0.00000  0.00000  0.00000
2082   4170.000   5084657.6377   2670325.3925  -2768480.9243   6  25   0.0092   0.0082   0.0049  -0.0034  -0.0043  -0.0046   0.00    0.0   -0.02081   -0.01348    0.01255   0.00000  0.00000  0.00000  0.00000  0.00000  0.00000
2082   4200.000   5084657.6375   2670325.3926  -2768480.9241   6  25   0.0091   0.0081   0.0049  -0.0034  -0.0043  -0.0045   0.00    0.0   -0.00077   -0.00275    0.00304   0.00000  0.00000  0.00000  0.00000  0.00000  0.00000
2082   4230.000   5084657.6372   2670325.3926  -2768480.9240   6  25   0.0090   0.0080   0.0048  -0.0033  -0.0043  -0.0045   0.00    0.0    0.00671   -0.00134   -0.00844   0.00000  0.00000  0.00000  0.00000  0.00000  0.00000
2082   4260.000   5084657.6373   2670325.3925  -2768480.9239   6  25   0.0089   0.0080   0.0048  -0.0033  -0.0042  -0.0045   0.00    0.0   -0.01324   -0.01612    0.01388   0.00000  0.00000  0.00000  0.00000  0.00000  0.00000
2082   4290.000   5084657.6372   2670325.3924  -2768480.9238   6  25   0.0089   0.0079   0.0047  -0.0033  -0.0042  -0.0044   0.00    0.0    0.02519    0.00143   -0.01597   0.00000  0.00000  0.00000  0.00000  0.00000  0.00000
2082   4320.000   5084657.6372   2670325.3923  -2768480.9237   6  25   0.0088   0.0078   0.0047  -0.0032  -0.0041  -0.0044   0.00    0.0    0.00296    0.00230   -0.00614   0.00000  0.00000  0.00000  0.00000  0.00000  0.00000
2082   4350.000   5084657.6374   2670325.3922  -2768480.9236   6  25   0.0087   0.0077   0.0046  -0.0032  -0.0041  -0.0044   0.00    0.0    0.00301   -0.00197   -0.00149   0.00000  0.00000  0.00000  0.00000  0.00000  0.00000
2082   4380.000   5084657.6374   2670325.3919  -2768480.9234   6  25   0.0086   0.0077   0.0046  -0.0031  -0.0041  -0.0043   0.00    0.0    0.01949    0.00094   -0.01473   0.00000  0.00000  0.00000  0.00000  0.00000  0.00000
2082   4410.000   5084657.6375   2670325.3918  -2768480.9234   6  25   0.0086   0.0076   0.0045  -0.0031  -0.0040  -0.0043   0.00    0.0    0.00585   -0.00123    0.00027   0.00000  0.00000  0.00000  0.00000  0.00000  0.00000
2082   4440.000   5084657.6375   2670325.3917  -2768480.9234   6  25   0.0085   0.0075   0.0045  -0.0031  -0.0040  -0.0043   0.00    0.0    0.00840   -0.00718   -0.01330   0.00000  0.00000  0.00000  0.00000  0.00000  0.00000
2082   4470.000   5084657.6375   2670325.3917  -2768480.9233   6  25   0.0084   0.0074   0.0045  -0.0030  -0.0039  -0.0042   0.00    0.0    0.00237   -0.01663    0.00222   0.00000  0.00000  0.00000  0.00000  0.00000  0.00000
2082   4500.000   5084657.6377   2670325.3916  -2768480.9232   6  25   0.0084   0.0074   0.0044  -0.0030  -0.0039  -0.0042   0.00    0.0    0.00838   -0.00476   -0.00029   0.00000  0.00000  0.00000  0.00000  0.00000  0.00000
2082   4530.000   5084657.6377   2670325.3917  -2768480.9230   6  25   0.0083   0.0073   0.0044  -0.0030  -0.0039  -0.0042   0.00    0.0   -0.01601   -0.00818    0.00359   0.00000  0.00000  0.00000  0.00000  0.00000  0.00000
2082   4560.000   5084657.6377   2670325.3918  -2768480.9229   6  25   0.0082   0.0072   0.0043  -0.0029  -0.0038  -0.0041   0.00    0.0    0.00009    0.00522   -0.00760   0.00000  0.00000  0.00000  0.00000  0.00000  0.00000
2082   4590.000   5084657.6378   2670325.3918  -2768480.9228   6  25   0.0082   0.0072   0.0043  -0.0029  -0.0038  -0.0041   0.00    0.0   -0.00921   -0.01230    0.00085   0.00000  0.00000  0.00000  0.00000  0.00000  0.00000
2082   4620.000   5084657.6379   2670325.3920  -2768480.9228   6  25   0.0081   0.0071   0.0042  -0.0029  -0.0037  -0.0041   0.00    0.0   -0.00306   -0.01064   -0.00151   0.00000  0.00000  0.00000  0.00000  0.00000  0.00000
2082   4650.000   5084657.6378   2670325.3923  -2768480.9227   6  25   0.0080   0.0070   0.0042  -0.0028  -0.0037  -0.0040   0.00    0.0    0.00818    0.00155   -0.00845   0.00000  0.00000  0.00000  0.00000  0.00000  0.00000
2082   4680.000   5084657.6377   2670325.3926  -2768480.9227   6  25   0.0080   0.0070   0.0042  -0.0028  -0.0037  -0.0040   0.00    0.0    0.01948    0.00372   -0.01520   0.00000  0.00000  0.00000  0.00000  0.00000  0.00000
2082   4710.000   5084657.6375   2670325.3930  -2768480.9227   6  25   0.0079   0.0069   0.0041  -0.0028  -0.0036  -0.0040   0.00    0.0    0.01033    0.00342   -0.00237   0.00000  0.00000  0.00000  0.00000  0.00000  0.00000
2082   4740.000   5084657.6374   2670325.3931  -2768480.9226   6  25   0.0079   0.0068   0.0041  -0.0027  -0.0036  -0.0040   0.00    0.0   -0.01025   -0.01066    0.00364   0.00000  0.00000  0.00000  0.00000  0.00000  0.00000
2082   4770.000   5084657.6373   2670325.3932  -2768480.9226   6  24   0.0078   0.0068   0.0041  -0.0027  -0.0036  -0.0039   0.00    0.0   -0.01113    0.00004   -0.00482   0.00000  0.00000  0.00000  0.00000  0.00000  0.00000
2082   4800.000   5084657.6373   2670325.3932  -2768480.9224   6  25   0.0077   0.0067   0.0040  -0.0027  -0.0035  -0.0039   0.00    0.0    0.01344    0.00617   -0.00809   0.00000  0.00000  0.00000  0.00000  0.00000  0.00000
2082   4830.000   5084657.6373   2670325.3931  -2768480.9223   6  25   0.0077   0.0066   0.0040  -0.0027  -0.0035  -0.0039   0.00    0.0   -0.00353   -0.00317    0.00065   0.00000  0.00000  0.00000  0.00000  0.00000  0.00000
2082   4860.000   5084657.6371   2670325.3932  -2768480.9223   6  25   0.0076   0.0066   0.0040  -0.0026  -0.0035  -0.0038   0.00    0.0    0.00056    0.00605    0.00220   0.00000  0.00000  0.00000  0.00000  0.00000  0.00000
2082   4890.000   5084657.6369   2670325.3932  -2768480.9221   6  25   0.0076   0.0065   0.0039  -0.0026  -0.0034  -0.0038   0.00    0.0    0.01278    0.00354    0.00283   0.00000  0.00000  0.00000  0.00000  0.00000  0.00000
2082   4920.000   5084657.6367   2670325.3932  -2768480.9221   6  25   0.0075   0.0065   0.0039  -0.0026  -0.0034  -0.0038   0.00    0.0    0.01485   -0.00649   -0.01049   0.00000  0.00000  0.00000  0.00000  0.00000  0.00000
2082   4950.000   5084657.6365   2670325.3934  -2768480.9221   6  25   0.0074   0.0064   0.0038  -0.0026  -0.0034  -0.0038   0.00    0.0    0.01132   -0.00551   -0.00994   0.00000  0.00000  0.00000  0.00000  0.00000  0.00000
2082   4980.000   5084657.6364   2670325.3936  -2768480.9221   6  25   0.0074   0.0064   0.0038  -0.0026  -0.0033  -0.0037   0.00    0.0   -0.01870   -0.00465   -0.00033   0.00000  0.00000  0.00000  0.00000  0.00000  0.00000
2082   5010.000   5084657.6364   2670325.3936  -2768480.9220   6  25   0.0073   0.0063   0.0038  -0.0025  -0.0033  -0.0037   0.00    0.0   -0.00771   -0.00929    0.00297   0.00000  0.00000  0.00000  0.00000  0.00000  0.00000
2082   5040.000   5084657.6363   2670325.3938  -2768480.9220   6  25   0.0073   0.0062   0.0037  -0.0025  -0.0033  -0.0037   0.00    0.0    0.01174    0.00799   -0.00530   0.00000  0.00000  0.00000  0.00000  0.00000  0.00000
2082   5070.000   5084657.6363   2670325.3938  -2768480.9220   6  25   0.0072   0.0062   0.0037  -0.0025  -0.0032  -0.0036   0.00    0.0   -0.00272    0.00640    0.00128   0.00000  0.00000  0.00000  0.00000  0.00000  0.00000
2082   5100.000   5084657.6362   2670325.3940  -2768480.9220   6  25   0.0072   0.0061   0.0037  -0.0025  -0.0032  -0.0036   0.00    0.0   -0.00472   -0.00281   -0.00213   0.00000  0.00000  0.00000  0.00000  0.00000  0.00000
2082   5130.000   5084657.6360   2670325.3942  -2768480.9220   6  25   0.0071   0.0061   0.0037  -0.0025  -0.0032  -0.0036   0.00    0.0    0.00558    0.00048   -0.00665   0.00000  0.00000  0.00000  0.00000  0.00000  0.00000
2082   5160.000   5084657.6360   2670325.3942  -2768480.9221   6  25   0.0071   0.0060   0.0036  -0.0024  -0.0032  -0.0036   0.00    0.0   -0.01075    0.00601   -0.00793   0.00000  0.00000  0.00000  0.00000  0.00000  0.00000
2082   5190.000   5084657.6360   2670325.3942  -2768480.9221   6  25   0.0070   0.0060   0.0036  -0.0024  -0.0031  -0.0035   0.00    0.0    0.00274   -0.00322    0.00259   0.00000  0.00000  0.00000  0.00000  0.00000  0.00000
2082   5220.000   5084657.6359   2670325.3942  -2768480.9220   6  25   0.0070   0.0059   0.0036  -0.0024  -0.0031  -0.0035   0.00    0.0   -0.00152   -0.01070    0.00633   0.00000  0.00000  0.00000  0.00000  0.00000  0.00000
2082   5250.000   5084657.6360   2670325.3941  -2768480.9220   6  26   0.0069   0.0059   0.0035  -0.0024  -0.0031  -0.0035   0.00    0.0   -0.00352   -0.00653    0.00012   0.00000  0.00000  0.00000  0.00000  0.00000  0.00000
2082   5280.000   5084657.6362   2670325.3940  -2768480.9219   6  26   0.0069   0.0059   0.0035  -0.0023  -0.0031  -0.0035   0.00    0.0    0.01667   -0.00535   -0.00100   0.00000  0.00000  0.00000  0.00000  0.00000  0.00000
2082   5310.000   5084657.6361   2670325.3940  -2768480.9219   6  25   0.0068   0.0058   0.0035  -0.0023  -0.0030  -0.0034   0.00    0.0   -0.01635   -0.02019    0.01156   0.00000  0.00000  0.00000  0.00000  0.00000  0.00000
2082   5340.000   5084657.6362   2670325.3940  -2768480.9218   6  25   0.0068   0.0058   0.0035  -0.0023  -0.0030  -0.0034   0.00    0.0   -0.01073   -0.02755    0.02169   0.00000  0.00000  0.00000  0.00000  0.00000  0.00000
2082   5370.000   5084657.6362   2670325.3939  -2768480.9217   6  25   0.0067   0.0057   0.0034  -0.0023  -0.0030  -0.0034   0.00    0.0   -0.00525   -0.00527    0.00317   0.00000  0.00000  0.00000  0.00000  0.00000  0.00000
2082   5400.000   5084657.6361   2670325.3939  -2768480.9216   6  25   0.0067   0.0057   0.0034  -0.0022  -0.0030  -0.0034   0.00    0.0    0.01161   -0.00068   -0.01092   0.00000  0.00000  0.00000  0.00000  0.00000  0.00000
2082   5430.000   5084657.6361   2670325.3938  -2768480.9215   6  25   0.0067   0.0056   0.0034  -0.0022  -0.0030  -0.0034   0.00    0.0    0.00090   -0.00323   -0.00293   0.00000  0.00000  0.00000  0.00000  0.00000  0.00000
2082   5460.000   5084657.6361   2670325.3937  -2768480.9214   6  25   0.0066   0.0056   0.0034  -0.0022  -0.0029  -0.0033   0.00    0.0   -0.00644   -0.00526   -0.00238   0.00000  0.00000  0.00000  0.00000  0.00000  0.00000
2082   5490.000   5084657.6361   2670325.3936  -2768480.9214   6  25   0.0066   0.0056   0.0033  -0.0022  -0.0029  -0.0033   0.00    0.0    0.00153   -0.00224   -0.00714   0.00000  0.00000  0.00000  0.00000  0.00000  0.00000
2082   5520.000   5084657.6362   2670325.3935  -2768480.9214   6  25   0.0065   0.0055   0.0033  -0.0022  -0.0029  -0.0033   0.00    0.0   -0.00695   -0.01421    0.00371   0.00000  0.00000  0.00000  0.00000  0.00000  0.00000
2082   5550.000   5084657.6364   2670325.3933  -2768480.9213   6  24   0.0065   0.0055   0.0033  -0.0021  -0.0029  -0.0033   0.00    0.0   -0.00429   -0.00553   -0.00036   0.00000  0.00000  0.00000  0.00000  0.00000  0.00000
2082   5580.000   5084657.6365   2670325.3932  -2768480.9214   6  24   0.0065   0.0055   0.0033  -0.0021  -0.0029  -0.0033   0.00    0.0   -0.01948   -0.00158    0.00759   0.00000  0.00000  0.00000  0.00000  0.00000  0.00000
2082   5610.000   5084657.6364   2670325.3933  -2768480.9214   6  24   0.0064   0.0054   0.0033  -0.0021  -0.0028  -0.0033   0.00    0.0    0.00647   -0.00342   -0.00363   0.00000  0.00000  0.00000  0.00000  0.00000  0.00000
2082   5640.000   5084657.6366   2670325.3933  -2768480.9215   6  24   0.0064   0.0054   0.0032  -0.0021  -0.0028  -0.0032   0.00    0.0   -0.00371   -0.00623   -0.00186   0.00000  0.00000  0.00000  0.00000  0.00000  0.00000
2082   5670.000   5084657.6366   2670325.3934  -2768480.9216   6  24   0.0063   0.0053   0.0032  -0.0020  -0.0028  -0.0032   0.00    0.0   -0.00901   -0.01395    0.00483   0.00000  0.00000  0.00000  0.00000  0.00000  0.00000
2082   5700.000   5084657.6365   2670325.3935  -2768480.9215   6  24   0.0063   0.0053   0.0032  -0.0020  -0.0028  -0.0032   0.00    0.0    0.00902    0.00784   -0.00781   0.00000  0.00000  0.00000  0.00000  0.00000  0.00000
2082   5730.000   5084657.6365   2670325.3934  -2768480.9215   6  24   0.0063   0.0053   0.0032  -0.0020  -0.0028  -0.0032   0.00    0.0   -0.00056   -0.01280    0.00150   0.00000  0.00000  0.00000  0.00000  0.00000  0.00000
2082   5760.000   5084657.6364   2670325.3934  -2768480.9214   6  24   0.0062   0.0052   0.0031  -0.0020  -0.0028  -0.0032   0.00    0.0   -0.00318   -0.00823   -0.00554   0.00000  0.00000  0.00000  0.00000  0.00000  0.00000
2082   5790.000   5084657.6363   2670325.3933  -2768480.9213   6  24   0.0062   0.0052   0.0031  -0.0019  -0.0027  -0.0032   0.00    0.0    0.00084   -0.00515   -0.00380   0.00000  0.00000  0.00000  0.00000  0.00000  0.00000
2082   5820.000   5084657.6363   2670325.3933  -2768480.9213   6  24   0.0062   0.0052   0.0031  -0.0019  -0.0027  -0.0032   0.00    0.0   -0.00480   -0.00742   -0.00354   0.00000  0.00000  0.00000  0.00000  0.00000  0.00000
2082   5850.000   5084657.6364   2670325.3932  -2768480.9213   6  24   0.0061   0.0051   0.0031  -0.0019  -0.0027  -0.0031   0.00    0.0   -0.00397   -0.00965   -0.00029   0.00000  0.00000  0.00000  0.00000  0.00000  0.00000
2082   5880.000   5084657.6364   2670325.3932  -2768480.9212   6  24   0.0061   0.0051   0.0031  -0.0018  -0.0027  -0.0031   0.00    0.0    0.00889   -0.00009   -0.00105   0.00000  0.00000  0.00000  0.00000  0.00000  0.00000
2082   5910.000   5084657.6365   2670325.3932  -2768480.9212   6  24   0.0061   0.0051   0.0031  -0.0018  -0.0027  -0.0031   0.00    0.0    0.00395    0.00943   -0.00353   0.00000  0.00000  0.00000  0.00000  0.00000  0.00000
2082   5940.000   5084657.6365   2670325.3932  -2768480.9212   6  24   0.0061   0.0050   0.0030  -0.0018  -0.0027  -0.0031   0.00    0.0   -0.01749   -0.02004    0.01673   0.00000  0.00000  0.00000  0.00000  0.00000  0.00000
2082   5970.000   5084657.6368   2670325.3931  -2768480.9211   6  24   0.0060   0.0050   0.0030  -0.0018  -0.0027  -0.0031   0.00    0.0    0.00232   -0.00607    0.00234   0.00000  0.00000  0.00000  0.00000  0.00000  0.00000
2082   6000.000   5084657.6368   2670325.3931  -2768480.9211   6  24   0.0060   0.0050   0.0030  -0.0017  -0.0026  -0.0031   0.00    0.0   -0.00589   -0.00703    0.00187   0.00000  0.00000  0.00000  0.00000  0.00000  0.00000
2082   6030.000   5084657.6368   2670325.3931  -2768480.9210   6  24   0.0060   0.0050   0.0030  -0.0017  -0.0026  -0.0031   0.00    0.0   -0.01219   -0.01281    0.01071   0.00000  0.00000  0.00000  0.00000  0.00000  0.00000
2082   6060.000   5084657.6368   2670325.3931  -2768480.9209   6  24   0.0059   0.0049   0.0030  -0.0017  -0.0026  -0.0031   0.00    0.0    0.00852    0.00811   -0.00396   0.00000  0.00000  0.00000  0.00000  0.00000  0.00000
2082   6090.000   5084657.6367   2670325.3931  -2768480.9209   6  24   0.0059   0.0049   0.0029  -0.0017  -0.0026  -0.0030   0.00    0.0    0.01678   -0.00430   -0.00466   0.00000  0.00000  0.00000  0.00000  0.00000  0.00000
2082   6120.000   5084657.6367   2670325.3930  -2768480.9208   6  24   0.0059   0.0049   0.0029  -0.0017  -0.0026  -0.0030   0.00    0.0   -0.01716   -0.00372    0.00193   0.00000  0.00000  0.00000  0.00000  0.00000  0.00000
2082   6150.000   5084657.6367   2670325.3931  -2768480.9207   6  24   0.0058   0.0048   0.0029  -0.0016  -0.0026  -0.0030   0.00    0.0   -0.00966   -0.00466    0.00342   0.00000  0.00000  0.00000  0.00000  0.00000  0.00000
2082   6180.000   5084657.6366   2670325.3931  -2768480.9207   6  23   0.0058   0.0048   0.0029  -0.0016  -0.0026  -0.0030   0.00    0.0    0.01148    0.00399   -0.01062   0.00000  0.00000  0.00000  0.00000  0.00000  0.00000
2082   6210.000   5084657.6367   2670325.3932  -2768480.9207   6  24   0.0058   0.0048   0.0029  -0.0016  -0.0025  -0.0030   0.00    0.0    0.00980   -0.00123   -0.00806   0.00000  0.00000  0.00000  0.00000  0.00000  0.00000
2082   6240.000   5084657.6368   2670325.3932  -2768480.9206   6  24   0.0058   0.0047   0.0029  -0.0016  -0.0025  -0.0030   0.00    0.0   -0.00643    0.00190   -0.00549   0.00000  0.00000  0.00000  0.00000  0.00000  0.00000
2082   6270.000   5084657.6369   2670325.3932  -2768480.9206   6  24   0.0057   0.0047   0.0029  -0.0015  -0.0025  -0.0030   0.00    0.0   -0.01281   -0.01177    0.00607   0.00000  0.00000  0.00000  0.00000  0.00000  0.00000
2082   6300.000   5084657.6369   2670325.3932  -2768480.9205   6  24   0.0057   0.0047   0.0028  -0.0015  -0.0025  -0.0030   0.00    0.0    0.00446   -0.00425   -0.01080   0.00000  0.00000  0.00000  0.00000  0.00000  0.00000
2082   6330.000   5084657.6369   2670325.3932  -2768480.9204   6  24   0.0057   0.0047   0.0028  -0.0015  -0.0025  -0.0030   0.00    0.0    0.00788   -0.00894   -0.00776   0.00000  0.00000  0.00000  0.00000  0.00000  0.00000
2082   6360.000   5084657.6369   2670325.3932  -2768480.9204   6  24   0.0057   0.0046   0.0028  -0.0015  -0.0025  -0.0029   0.00    0.0    0.00076   -0.01009    0.00438   0.00000  0.00000  0.00000  0.00000  0.00000  0.00000
2082   6390.000   5084657.6371   2670325.3932  -2768480.9203   6  24   0.0056   0.0046   0.0028  -0.0014  -0.0025  -0.0029   0.00    0.0   -0.00533   -0.00207   -0.00651   0.00000  0.00000  0.00000  0.00000  0.00000  0.00000
2082   6420.000   5084657.6372   2670325.3932  -2768480.9203   6  24   0.0056   0.0046   0.0028  -0.0014  -0.0024  -0.0029   0.00    0.0   -0.00119    0.00334    0.00077   0.00000  0.00000  0.00000  0.00000  0.00000  0.00000
2082   6450.000   5084657.6374   2670325.3933  -2768480.9203   6  24   0.0056   0.0046   0.0028  -0.0014  -0.0024  -0.0029   0.00    0.0   -0.00015    0.00325   -0.00275   0.00000  0.00000  0.00000  0.00000  0.00000  0.00000
2082   6480.000   5084657.6374   2670325.3933  -2768480.9202   6  24   0.0056   0.0045   0.0027  -0.0014  -0.0024  -0.0029   0.00    0.0   -0.00274    0.00994   -0.01352   0.00000  0.00000  0.00000  0.00000  0.00000  0.00000
2082   6510.000   5084657.6374   2670325.3934  -2768480.9201   6  24   0.0055   0.0045   0.0027  -0.0013  -0.0024  -0.0029   0.00    0.0    0.00955   -0.00156   -0.00777   0.00000  0.00000  0.00000  0.00000  0.00000  0.00000
2082   6540.000   5084657.6375   2670325.3934  -2768480.9201   6  24   0.0055   0.0045   0.0027  -0.0013  -0.0024  -0.0029   0.00    0.0    0.00047   -0.00623   -0.00283   0.00000  0.00000  0.00000  0.00000  0.00000  0.00000
2082   6570.000   5084657.6376   2670325.3934  -2768480.9200   6  24   0.0055   0.0045   0.0027  -0.0013  -0.0024  -0.0029   0.00    0.0   -0.00452   -0.00185   -0.00315   0.00000  0.00000  0.00000  0.00000  0.00000  0.00000
2082   6600.000   5084657.6376   2670325.3935  -2768480.9200   6  24   0.0055   0.0044   0.0027  -0.0013  -0.0024  -0.0029   0.00    0.0   -0.00407    0.00453   -0.00599   0.00000  0.00000  0.00000  0.00000  0.00000  0.00000
2082   6630.000   5084657.6377   2670325.3935  -2768480.9200   6  24   0.0054   0.0044   0.0027  -0.0013  -0.0024  -0.0029   0.00    0.0   -0.01362   -0.01941    0.00211   0.00000  0.00000  0.00000  0.00000  0.00000  0.00000
2082   6660.000   5084657.6378   2670325.3936  -2768480.9200   6  25   0.0054   0.0044   0.0027  -0.0012  -0.0023  -0.0028   0.00    0.0   -0.00400    0.00165    0.00223   0.00000  0.00000  0.00000  0.00000  0.00000  0.00000
2082   6690.000   5084657.6378   2670325.3936  -2768480.9199   6  25   0.0054   0.0044   0.0026  -0.0012  -0.0023  -0.0028   0.00    0.0   -0.00136   -0.00821    0.00460   0.00000  0.00000  0.00000  0.00000  0.00000  0.00000
2082   6720.000   5084657.6377   2670325.3935  -2768480.9198   6  24   0.0054   0.0043   0.0026  -0.0012  -0.0023  -0.0028   0.00    0.0    0.00091   -0.00989    0.00137   0.00000  0.00000  0.00000  0.00000  0.00000  0.00000
2082   6750.000   5084657.6376   2670325.3933  -2768480.9197   6  25   0.0054   0.0043   0.0026  -0.0012  -0.0023  -0.0028   0.00    0.0   -0.00478   -0.00497    0.00253   0.00000  0.00000  0.00000  0.00000  0.00000  0.00000
2082   6780.000   5084657.6376   2670325.3931  -2768480.9195   6  25   0.0053   0.0043   0.0026  -0.0012  -0.0023  -0.0028   0.00    0.0   -0.00324    0.00503    0.00257   0.00000  0.00000  0.00000  0.00000  0.00000  0.00000
2082   6810.000   5084657.6376   2670325.3930  -2768480.9194   6  25   0.0053   0.0043   0.0026  -0.0011  -0.0023  -0.0028   0.00    0.0   -0.00263    0.00235   -0.00651   0.00000  0.00000  0.00000  0.00000  0.00000  0.00000
2082   6840.000   5084657.6375   2670325.3928  -2768480.9193   6  25   0.0053   0.0042   0.0026  -0.0011  -0.0023  -0.0028   0.00    0.0    0.00568   -0.00227    0.00119   0.00000  0.00000  0.00000  0.00000  0.00000  0.00000
2082   6870.000   5084657.6376   2670325.3927  -2768480.9192   6  25   0.0053   0.0042   0.0026  -0.0011  -0.0023  -0.0028   0.00    0.0    0.00397   -0.00406   -0.00302   0.00000  0.00000  0.00000  0.00000  0.00000  0.00000
2082   6900.000   5084657.6376   2670325.3926  -2768480.9191   6  25   0.0052   0.0042   0.0026  -0.0011  -0.0023  -0.0028   0.00    0.0   -0.00090    0.00574    0.00312   0.00000  0.00000  0.00000  0.00000  0.00000  0.00000
2082   6930.000   5084657.6375   2670325.3925  -2768480.9189   6  25   0.0052   0.0042   0.0025  -0.0011  -0.0022  -0.0028   0.00    0.0   -0.01800   -0.00935   -0.00032   0.00000  0.00000  0.00000  0.00000  0.00000  0.00000
2082   6960.000   5084657.6374   2670325.3923  -2768480.9188   6  25   0.0052   0.0041   0.0025  -0.0011  -0.0022  -0.0028   0.00    0.0    0.01334    0.00465   -0.01216   0.00000  0.00000  0.00000  0.00000  0.00000  0.00000
2082   6990.000   5084657.6373   2670325.3922  -2768480.9186   6  25   0.0052   0.0041   0.0025  -0.0010  -0.0022  -0.0027   0.00    0.0    0.00421    0.00074    0.00222   0.00000  0.00000  0.00000  0.00000  0.00000  0.00000
2082   7020.000   5084657.6373   2670325.3919  -2768480.9185   6  25   0.0052   0.0041   0.0025  -0.0010  -0.0022  -0.0027   0.00    0.0   -0.00553   -0.01499    0.00179   0.00000  0.00000  0.00000  0.00000  0.00000  0.00000
2082   7050.000   5084657.6372   2670325.3918  -2768480.9184   6  24   0.0051   0.0041   0.0025  -0.0010  -0.0022  -0.0027   0.00    0.0    0.01639    0.01077   -0.01827   0.00000  0.00000  0.00000  0.00000  0.00000  0.00000
2082   7080.000   5084657.6372   2670325.3917  -2768480.9183   6  25   0.0051   0.0040   0.0025  -0.0010  -0.0022  -0.0027   0.00    0.0   -0.01451   -0.00880   -0.00007   0.00000  0.00000  0.00000  0.00000  0.00000  0.00000
2082   7110.000   5084657.6372   2670325.3916  -2768480.9182   6  25   0.0051   0.0040   0.0025  -0.0010  -0.0022  -0.0027   0.00    0.0   -0.00878   -0.00126   -0.00098   0.00000  0.00000  0.00000  0.00000  0.00000  0.00000
2082   7140.000   5084657.6372   2670325.3915  -2768480.9181   6  25   0.0051   0.0040   0.0025  -0.0010  -0.0022  -0.0027   0.00    0.0   -0.00177   -0.01672   -0.00232   0.00000  0.00000  0.00000  0.00000  0.00000  0.00000
2082   7170.000   5084657.6371   2670325.3915  -2768480.9180   6  25   0.0051   0.0040   0.0024  -0.0009  -0.0021  -0.0027   0.00    0.0    0.01312    0.00073   -0.01286   0.00000  0.00000  0.00000  0.00000  0.00000  0.00000
2082   7200.000   5084657.6369   2670325.3914  -2768480.9179   6  25   0.0050   0.0040   0.0024  -0.0009  -0.0021  -0.0027   0.00    0.0    0.00310    0.00753   -0.00313   0.00000  0.00000  0.00000  0.00000  0.00000  0.00000
2082   7230.000   5084657.6368   2670325.3913  -2768480.9178   6  25   0.0050   0.0039   0.0024  -0.0009  -0.0021  -0.0027   0.00    0.0   -0.01139   -0.01348    0.01502   0.00000  0.00000  0.00000  0.00000  0.00000  0.00000
2082   7260.000   5084657.6367   2670325.3912  -2768480.9177   6  25   0.0050   0.0039   0.0024  -0.0009  -0.0021  -0.0027   0.00    0.0    0.00813    0.00158    0.00090   0.00000  0.00000  0.00000  0.00000  0.00000  0.00000
2082   7290.000   5084657.6366   2670325.3911  -2768480.9176   6  25   0.0050   0.0039   0.0024  -0.0009  -0.0021  -0.0027   0.00    0.0    0.00768    0.00025   -0.01286   0.00000  0.00000  0.00000  0.00000  0.00000  0.00000
2082   7320.000   5084657.6365   2670325.3910  -2768480.9175   6  25   0.0050   0.0039   0.0024  -0.0009  -0.0021  -0.0026   0.00    0.0   -0.00072   -0.00499    0.00012   0.00000  0.00000  0.00000  0.00000  0.00000  0.00000
2082   7350.000   5084657.6364   2670325.3909  -2768480.9174   6  24   0.0049   0.0039   0.0024  -0.0009  -0.0021  -0.0026   0.00    0.0    0.00167   -0.00521   -0.00024   0.00000  0.00000  0.00000  0.00000  0.00000  0.00000
2082   7380.000   5084657.6363   2670325.3908  -2768480.9173   6  26   0.0049   0.0038   0.0024  -0.0009  -0.0021  -0.0026   0.00    0.0   -0.01053    0.00217    0.00912   0.00000  0.00000  0.00000  0.00000  0.00000  0.00000
2082   7410.000   5084657.6362   2670325.3908  -2768480.9172   6  26   0.0049   0.0038   0.0024  -0.0008  -0.0021  -0.0026   0.00    0.0   -0.00610   -0.01264    0.00704   0.00000  0.00000  0.00000  0.00000  0.00000  0.00000
2082   7440.000   5084657.6361   2670325.3907  -2768480.9171   6  26   0.0049   0.0038   0.0023  -0.0008  -0.0020  -0.0026   0.00    0.0    0.00256   -0.00720    0.00173   0.00000  0.00000  0.00000  0.00000  0.00000  0.00000
2082   7470.000   5084657.6361   2670325.3906  -2768480.9170   6  26   0.0049   0.0038   0.0023  -0.0008  -0.0020  -0.0026   0.00    0.0    0.00290   -0.00421   -0.00379   0.00000  0.00000  0.00000  0.00000  0.00000  0.00000
2082   7500.000   5084657.6360   2670325.3906  -2768480.9169   6  26   0.0049   0.0037   0.0023  -0.0008  -0.0020  -0.0026   0.00    0.0    0.00776    0.00477   -0.00824   0.00000  0.00000  0.00000  0.00000  0.00000  0.00000
2082   7530.000   5084657.6360   2670325.3905  -2768480.9168   6  26   0.0048   0.0037   0.0023  -0.0008  -0.0020  -0.0026   0.00    0.0   -0.00770   -0.01112   -0.00224   0.00000  0.00000  0.00000  0.00000  0.00000  0.00000
2082   7560.000   5084657.6360   2670325.3904  -2768480.9167   6  26   0.0048   0.0037   0.0023  -0.0008  -0.0020  -0.0026   0.00    0.0   -0.01026   -0.00799    0.00355   0.00000  0.00000  0.00000  0.00000  0.00000  0.00000
2082   7590.000   5084657.6360   2670325.3903  -2768480.9166   6  26   0.0048   0.0037   0.0023  -0.0008  -0.0020  -0.0026   0.00    0.0    0.00315   -0.00517   -0.00173   0.00000  0.00000  0.00000  0.00000  0.00000  0.00000
2082   7620.000   5084657.6358   2670325.3901  -2768480.9165   6  26   0.0048   0.0037   0.0023  -0.0008  -0.0020  -0.0026   0.00    0.0    0.00972    0.00278   -0.00002   0.00000  0.00000  0.00000  0.00000  0.00000  0.00000
2082   7650.000   5084657.6358   2670325.3900  -2768480.9164   6  26   0.0048   0.0036   0.0023  -0.0008  -0.0020  -0.0025   0.00    0.0    0.00460   -0.00013   -0.00548   0.00000  0.00000  0.00000  0.00000  0.00000  0.00000
2082   7680.000   5084657.6358   2670325.3900  -2768480.9163   6  26   0.0047   0.0036   0.0023  -0.0008  -0.0020  -0.0025   0.00    0.0    0.00007   -0.00084   -0.00469   0.00000  0.00000  0.00000  0.00000  0.00000  0.00000
2082   7710.000   5084657.6358   2670325.3899  -2768480.9162   6  25   0.0047   0.0036   0.0022  -0.0008  -0.0019  -0.0025   0.00    0.0    0.00324   -0.00030   -0.01043   0.00000  0.00000  0.00000  0.00000  0.00000  0.00000
2082   7740.000   5084657.6357   2670325.3899  -2768480.9162   6  25   0.0047   0.0036   0.0022  -0.0008  -0.0019  -0.0025   0.00    0.0   -0.00215    0.00059   -0.00365   0.00000  0.00000  0.00000  0.00000  0.00000  0.00000
2082   7770.000   5084657.6358   2670325.3898  -2768480.9161   6  25   0.0047   0.0036   0.0022  -0.0008  -0.0019  -0.0025   0.00    0.0    0.00709    0.00355   -0.01091   0.00000  0.00000  0.00000  0.00000  0.00000  0.00000
2082   7800.000   5084657.6358   2670325.3898  -2768480.9161   6  25   0.0047   0.0036   0.0022  -0.0007  -0.0019  -0.0025   0.00    0.0    0.00819    0.00071   -0.00530   0.00000  0.00000  0.00000  0.00000  0.00000  0.00000
2082   7830.000   5084657.6358   2670325.3897  -2768480.9161   6  24   0.0047   0.0035   0.0022  -0.0007  -0.0019  -0.0025   0.00    0.0    0.00254   -0.00419    0.00241   0.00000  0.00000  0.00000  0.00000  0.00000  0.00000
2082   7860.000   5084657.6359   2670325.3896  -2768480.9160   6  25   0.0046   0.0035   0.0022  -0.0007  -0.0019  -0.0025   0.00    0.0   -0.00454   -0.00961    0.00900   0.00000  0.00000  0.00000  0.00000  0.00000  0.00000
2082   7890.000   5084657.6360   2670325.3896  -2768480.9160   6  25   0.0046   0.0035   0.0022  -0.0007  -0.0019  -0.0025   0.00    0.0    0.00212    0.00837    0.00084   0.00000  0.00000  0.00000  0.00000  0.00000  0.00000
