% program   : GINav v0.1.0
% obs start : 2019/12/01 00:00:00.0
% obs end   : 2019/12/01 23:59:30.0
% mode      : PPP Static
% system    : BDS 
% nfreqs    : 2
% elev mask : 10.0 deg
% ephemeris : precise
% ionos opt : iono-free LC
% trops opt : ZTD estimation
%
%  GPST              x-ecef(m)      y-ecef(m)      z-ecef(m)   Q  ns   sdx(m)   sdy(m)   sdz(m)  sdxy(m)  sdyz(m)  sdzx(m) age(s)  ratio    vx(m/s)    vy(m/s)    vz(m/s)      sdvx     sdvy     sdvz    sdvxy    sdvyz    sdvzx
2082      0.000  -2279829.5859   5004707.4247   3219777.0088   6  13   1.4066   2.3153   1.5441  -1.2682   1.6214  -1.0106   0.00    0.0    0.01878   -0.03669   -0.02916   0.00000  0.00000  0.00000  0.00000  0.00000  0.00000
2082     30.000  -2279829.9274   5004708.1862   3219777.6215   6  13   0.9854   1.5864   1.0631  -0.8696   1.1048  -0.6986   0.00    0.0   -0.01778    0.00559    0.01082   0.00000  0.00000  0.00000  0.00000  0.00000  0.00000
2082     60.000  -2279829.5633   5004707.3836   3219777.4387   6  13   0.7926   1.2341   0.8327  -0.6761   0.8513  -0.5509   0.00    0.0    0.00543   -0.01954    0.00925   0.00000  0.00000  0.00000  0.00000  0.00000  0.00000
2082     90.000  -2279829.3336   5004707.1943   3219777.2179   6  13   0.6741   1.0087   0.6861  -0.5518   0.6873  -0.4587   0.00    0.0   -0.00629   -0.00434    0.01398   0.00000  0.00000  0.00000  0.00000  0.00000  0.00000
2082    120.000  -2279829.4452   5004707.5196   3219777.5044   6  13   0.5914   0.8490   0.5822  -0.4632   0.5706  -0.3952   0.00    0.0    0.00874   -0.00607    0.00126   0.00000  0.00000  0.00000  0.00000  0.00000  0.00000
2082    150.000  -2279829.4593   5004707.5216   3219777.4469   6  13   0.5295   0.7308   0.5046  -0.3973   0.4842  -0.3495   0.00    0.0    0.00151    0.00843    0.01279   0.00000  0.00000  0.00000  0.00000  0.00000  0.00000
2082    180.000  -2279829.3647   5004707.3182   3219777.4132   6  13   0.4812   0.6411   0.4450  -0.3471   0.4190  -0.3157   0.00    0.0   -0.01031    0.01031    0.00430   0.00000  0.00000  0.00000  0.00000  0.00000  0.00000
2082    210.000  -2279829.2787   5004707.3822   3219777.4083   6  13   0.4422   0.5721   0.3981  -0.3082   0.3695  -0.2900   0.00    0.0   -0.00634    0.01075    0.01092   0.00000  0.00000  0.00000  0.00000  0.00000  0.00000
2082    240.000  -2279829.4335   5004707.3356   3219777.4888   6  13   0.4100   0.5183   0.3607  -0.2779   0.3314  -0.2700   0.00    0.0    0.00293    0.00258    0.01461   0.00000  0.00000  0.00000  0.00000  0.00000  0.00000
2082    270.000  -2279829.4100   5004707.3483   3219777.4549   6  13   0.3829   0.4760   0.3303  -0.2539   0.3021  -0.2541   0.00    0.0   -0.02764    0.01527    0.01257   0.00000  0.00000  0.00000  0.00000  0.00000  0.00000
2082    300.000  -2279829.2989   5004707.3087   3219777.3974   6  13   0.3596   0.4423   0.3052  -0.2348   0.2791  -0.2410   0.00    0.0   -0.00175    0.00945    0.01755   0.00000  0.00000  0.00000  0.00000  0.00000  0.00000
2082    330.000  -2279829.2627   5004707.2488   3219777.3560   6  13   0.3394   0.4152   0.2842  -0.2194   0.2611  -0.2299   0.00    0.0    0.01391   -0.00113    0.00937   0.00000  0.00000  0.00000  0.00000  0.00000  0.00000
2082    360.000  -2279829.2477   5004707.1005   3219777.3321   6  13   0.3215   0.3931   0.2664  -0.2067   0.2466  -0.2202   0.00    0.0    0.02271   -0.03167   -0.01901   0.00000  0.00000  0.00000  0.00000  0.00000  0.00000
2082    390.000  -2279829.2603   5004707.0860   3219777.3348   6  13   0.3055   0.3749   0.2511  -0.1962   0.2349  -0.2117   0.00    0.0   -0.01181    0.01080    0.01380   0.00000  0.00000  0.00000  0.00000  0.00000  0.00000
2082    420.000  -2279829.2430   5004707.0780   3219777.3412   6  13   0.2911   0.3597   0.2378  -0.1872   0.2251  -0.2038   0.00    0.0   -0.00773   -0.00954   -0.00344   0.00000  0.00000  0.00000  0.00000  0.00000  0.00000
2082    450.000  -2279829.2752   5004707.0737   3219777.3743   6  13   0.2779   0.3468   0.2260  -0.1793   0.2169  -0.1966   0.00    0.0   -0.01275    0.01926    0.01749   0.00000  0.00000  0.00000  0.00000  0.00000  0.00000
2082    480.000  -2279829.2402   5004707.0705   3219777.3843   6  13   0.2658   0.3356   0.2155  -0.1723   0.2097  -0.1898   0.00    0.0   -0.02082    0.01481    0.01678   0.00000  0.00000  0.00000  0.00000  0.00000  0.00000
2082    510.000  -2279829.1923   5004707.0549   3219777.3905   6  13   0.2546   0.3259   0.2059  -0.1659   0.2033  -0.1833   0.00    0.0   -0.00263    0.00094    0.01916   0.00000  0.00000  0.00000  0.00000  0.00000  0.00000
2082    540.000  -2279829.1733   5004707.0178   3219777.3784   6  13   0.2442   0.3172   0.1973  -0.1602   0.1976  -0.1772   0.00    0.0    0.00938    0.00576   -0.00884   0.00000  0.00000  0.00000  0.00000  0.00000  0.00000
2082    570.000  -2279829.1830   5004706.9975   3219777.3988   6  13   0.2345   0.3094   0.1893  -0.1547   0.1924  -0.1713   0.00    0.0   -0.01232   -0.01925    0.01547   0.00000  0.00000  0.00000  0.00000  0.00000  0.00000
2082    600.000  -2279829.1536   5004707.0041   3219777.3959   6  13   0.2253   0.3022   0.1818  -0.1494   0.1874  -0.1655   0.00    0.0    0.01975   -0.01057   -0.01253   0.00000  0.00000  0.00000  0.00000  0.00000  0.00000
2082    630.000  -2279829.1526   5004706.9897   3219777.4033   6  13   0.2166   0.2954   0.1749  -0.1441   0.1826  -0.1599   0.00    0.0   -0.01020    0.01533    0.01890   0.00000  0.00000  0.00000  0.00000  0.00000  0.00000
2082    660.000  -2279829.1561   5004706.9756   3219777.4085   6  13   0.2084   0.2890   0.1683  -0.1390   0.1780  -0.1544   0.00    0.0   -0.01114   -0.00787    0.00211   0.00000  0.00000  0.00000  0.00000  0.00000  0.00000
2082    690.000  -2279829.1259   5004706.9662   3219777.4043   6  13   0.2005   0.2828   0.1620  -0.1339   0.1735  -0.1491   0.00    0.0   -0.02804    0.00264    0.01077   0.00000  0.00000  0.00000  0.00000  0.00000  0.00000
2082    720.000  -2279829.1152   5004706.9457   3219777.3968   6  13   0.1930   0.2769   0.1561  -0.1288   0.1690  -0.1439   0.00    0.0   -0.01743    0.00155    0.01486   0.00000  0.00000  0.00000  0.00000  0.00000  0.00000
2082    750.000  -2279829.1016   5004706.9277   3219777.4044   6  13   0.1859   0.2710   0.1504  -0.1237   0.1646  -0.1388   0.00    0.0   -0.00582    0.01481   -0.00259   0.00000  0.00000  0.00000  0.00000  0.00000  0.00000
2082    780.000  -2279829.1189   5004706.9086   3219777.4242   6  13   0.1791   0.2653   0.1449  -0.1186   0.1603  -0.1338   0.00    0.0   -0.00422   -0.02746   -0.00767   0.00000  0.00000  0.00000  0.00000  0.00000  0.00000
2082    810.000  -2279829.1351   5004706.8681   3219777.4319   6  13   0.1726   0.2597   0.1396  -0.1135   0.1559  -0.1290   0.00    0.0    0.02032   -0.01520    0.00220   0.00000  0.00000  0.00000  0.00000  0.00000  0.00000
2082    840.000  -2279829.1156   5004706.8476   3219777.4227   6  13   0.1665   0.2542   0.1346  -0.1084   0.1517  -0.1243   0.00    0.0    0.01634    0.00039   -0.00564   0.00000  0.00000  0.00000  0.00000  0.00000  0.00000
2082    870.000  -2279829.1163   5004706.8383   3219777.4248   6  13   0.1606   0.2488   0.1297  -0.1033   0.1474  -0.1197   0.00    0.0   -0.00203    0.01197    0.01043   0.00000  0.00000  0.00000  0.00000  0.00000  0.00000
2082    900.000  -2279829.1135   5004706.8249   3219777.4240   6  13   0.1549   0.2434   0.1251  -0.0983   0.1432  -0.1153   0.00    0.0    0.00911   -0.02813   -0.00314   0.00000  0.00000  0.00000  0.00000  0.00000  0.00000
2082    930.000  -2279829.0847   5004706.8222   3219777.4172   6  13   0.1496   0.2380   0.1206  -0.0932   0.1390  -0.1110   0.00    0.0   -0.00165    0.00992    0.01686   0.00000  0.00000  0.00000  0.00000  0.00000  0.00000
2082    960.000  -2279829.0836   5004706.7858   3219777.4127   6  13   0.1445   0.2327   0.1162  -0.0881   0.1349  -0.1069   0.00    0.0    0.00642    0.00575    0.00023   0.00000  0.00000  0.00000  0.00000  0.00000  0.00000
2082    990.000  -2279829.0907   5004706.7627   3219777.4135   6  13   0.1396   0.2275   0.1120  -0.0830   0.1309  -0.1029   0.00    0.0    0.00246   -0.01063    0.00085   0.00000  0.00000  0.00000  0.00000  0.00000  0.00000
2082   1020.000  -2279829.0942   5004706.7317   3219777.4105   6  13   0.1350   0.2224   0.1080  -0.0780   0.1269  -0.0990   0.00    0.0    0.01231   -0.01386   -0.01367   0.00000  0.00000  0.00000  0.00000  0.00000  0.00000
2082   1050.000  -2279829.1091   5004706.7132   3219777.4134   6  13   0.1305   0.2173   0.1041  -0.0730   0.1229  -0.0953   0.00    0.0    0.00223    0.00455    0.01369   0.00000  0.00000  0.00000  0.00000  0.00000  0.00000
2082   1080.000  -2279829.1140   5004706.7347   3219777.4184   6  13   0.1264   0.2122   0.1004  -0.0680   0.1191  -0.0917   0.00    0.0    0.00508    0.01393    0.01684   0.00000  0.00000  0.00000  0.00000  0.00000  0.00000
2082   1110.000  -2279829.1176   5004706.7066   3219777.4117   6  13   0.1224   0.2073   0.0968  -0.0629   0.1153  -0.0883   0.00    0.0    0.00106    0.00473   -0.00426   0.00000  0.00000  0.00000  0.00000  0.00000  0.00000
2082   1140.000  -2279829.1183   5004706.7081   3219777.4102   6  13   0.1186   0.2024   0.0934  -0.0579   0.1116  -0.0850   0.00    0.0   -0.00837   -0.00490   -0.00507   0.00000  0.00000  0.00000  0.00000  0.00000  0.00000
2082   1170.000  -2279829.1202   5004706.6924   3219777.4033   6  13   0.1150   0.1977   0.0901  -0.0528   0.1080  -0.0818   0.00    0.0   -0.01972   -0.01439    0.01209   0.00000  0.00000  0.00000  0.00000  0.00000  0.00000
2082   1200.000  -2279829.1164   5004706.6968   3219777.4046   6  13   0.1116   0.1930   0.0869  -0.0477   0.1045  -0.0788   0.00    0.0    0.00999    0.01189    0.01224   0.00000  0.00000  0.00000  0.00000  0.00000  0.00000
2082   1230.000  -2279829.1122   5004706.6820   3219777.4047   6  13   0.1084   0.1884   0.0839  -0.0425   0.1011  -0.0759   0.00    0.0   -0.01621    0.01314    0.02635   0.00000  0.00000  0.00000  0.00000  0.00000  0.00000
2082   1260.000  -2279829.1061   5004706.6807   3219777.4039   6  13   0.1053   0.1839   0.0809  -0.0370   0.0977  -0.0732   0.00    0.0   -0.00752    0.00184    0.00613   0.00000  0.00000  0.00000  0.00000  0.00000  0.00000
2082   1290.000  -2279829.0954   5004706.6887   3219777.4036   6  13   0.1024   0.1795   0.0781  -0.0312   0.0945  -0.0706   0.00    0.0    0.01767   -0.02456   -0.02231   0.00000  0.00000  0.00000  0.00000  0.00000  0.00000
2082   1320.000  -2279829.0884   5004706.6912   3219777.4025   6  13   0.0997   0.1752   0.0754  -0.0249   0.0913  -0.0681   0.00    0.0   -0.00345   -0.00419   -0.00903   0.00000  0.00000  0.00000  0.00000  0.00000  0.00000
2082   1350.000  -2279829.0826   5004706.6859   3219777.3996   6  13   0.0970   0.1710   0.0729  -0.0171   0.0883  -0.0657   0.00    0.0   -0.00999    0.00377    0.00910   0.00000  0.00000  0.00000  0.00000  0.00000  0.00000
2082   1380.000  -2279829.0831   5004706.6929   3219777.4059   6  13   0.0946   0.1669   0.0704   0.0008   0.0853  -0.0634   0.00    0.0    0.00108    0.00076    0.01782   0.00000  0.00000  0.00000  0.00000  0.00000  0.00000
2082   1410.000  -2279829.0814   5004706.6934   3219777.4096   6  13   0.0922   0.1628   0.0680   0.0163   0.0824  -0.0613   0.00    0.0    0.02229   -0.00709    0.00211   0.00000  0.00000  0.00000  0.00000  0.00000  0.00000
2082   1440.000  -2279829.0809   5004706.6903   3219777.4110   6  13   0.0900   0.1589   0.0658   0.0224   0.0797  -0.0592   0.00    0.0    0.00973   -0.00863    0.00016   0.00000  0.00000  0.00000  0.00000  0.00000  0.00000
2082   1470.000  -2279829.0730   5004706.6946   3219777.4089   6  13   0.0878   0.1551   0.0636   0.0267   0.0770  -0.0573   0.00    0.0   -0.00037   -0.01284   -0.01544   0.00000  0.00000  0.00000  0.00000  0.00000  0.00000
2082   1500.000  -2279829.0655   5004706.6970   3219777.4068   6  13   0.0858   0.1514   0.0615   0.0301   0.0744  -0.0554   0.00    0.0   -0.01073    0.01903    0.00839   0.00000  0.00000  0.00000  0.00000  0.00000  0.00000
2082   1530.000  -2279829.0666   5004706.6820   3219777.4045   6  13   0.0839   0.1477   0.0595   0.0327   0.0718  -0.0537   0.00    0.0    0.02098   -0.02191   -0.00853   0.00000  0.00000  0.00000  0.00000  0.00000  0.00000
2082   1560.000  -2279829.0651   5004706.6586   3219777.3997   6  13   0.0820   0.1442   0.0576   0.0349   0.0694  -0.0520   0.00    0.0    0.00945   -0.01392   -0.00772   0.00000  0.00000  0.00000  0.00000  0.00000  0.00000
2082   1590.000  -2279829.0644   5004706.6362   3219777.3937   6  13   0.0803   0.1407   0.0558   0.0367   0.0670  -0.0504   0.00    0.0    0.01832   -0.02323   -0.01727   0.00000  0.00000  0.00000  0.00000  0.00000  0.00000
2082   1620.000  -2279829.0609   5004706.6296   3219777.3912   6  13   0.0786   0.1374   0.0541   0.0382   0.0648  -0.0489   0.00    0.0    0.01564   -0.00928   -0.00047   0.00000  0.00000  0.00000  0.00000  0.00000  0.00000
2082   1650.000  -2279829.0587   5004706.6253   3219777.3895   6  13   0.0770   0.1341   0.0524   0.0395   0.0625  -0.0474   0.00    0.0   -0.01504   -0.00103    0.00880   0.00000  0.00000  0.00000  0.00000  0.00000  0.00000
2082   1680.000  -2279829.0573   5004706.6213   3219777.3887   6  13   0.0755   0.1309   0.0508   0.0406   0.0604  -0.0461   0.00    0.0   -0.01465    0.03200    0.01780   0.00000  0.00000  0.00000  0.00000  0.00000  0.00000
2082   1710.000  -2279829.0558   5004706.6160   3219777.3896   6  13   0.0740   0.1278   0.0493   0.0414   0.0584  -0.0448   0.00    0.0    0.00341   -0.00382    0.00205   0.00000  0.00000  0.00000  0.00000  0.00000  0.00000
2082   1740.000  -2279829.0542   5004706.6193   3219777.3895   6  13   0.0726   0.1248   0.0478   0.0422   0.0564  -0.0436   0.00    0.0    0.01818   -0.01288    0.00721   0.00000  0.00000  0.00000  0.00000  0.00000  0.00000
2082   1770.000  -2279829.0572   5004706.6198   3219777.3893   6  13   0.0712   0.1219   0.0464   0.0427   0.0545  -0.0424   0.00    0.0    0.02184   -0.04822   -0.01893   0.00000  0.00000  0.00000  0.00000  0.00000  0.00000
2082   1800.000  -2279829.0593   5004706.6259   3219777.3934   6  13   0.0700   0.1191   0.0451   0.0432   0.0526  -0.0413   0.00    0.0    0.00847    0.01420    0.01153   0.00000  0.00000  0.00000  0.00000  0.00000  0.00000
2082   1830.000  -2279829.0609   5004706.6257   3219777.3965   6  13   0.0687   0.1163   0.0438   0.0436   0.0508  -0.0402   0.00    0.0   -0.01207    0.01765    0.00862   0.00000  0.00000  0.00000  0.00000  0.00000  0.00000
2082   1860.000  -2279829.0604   5004706.6243   3219777.3958   6  13   0.0675   0.1136   0.0426   0.0439   0.0491  -0.0392   0.00    0.0    0.01766    0.00236   -0.00366   0.00000  0.00000  0.00000  0.00000  0.00000  0.00000
2082   1890.000  -2279829.0592   5004706.6121   3219777.3928   6  13   0.0664   0.1110   0.0414   0.0441   0.0474  -0.0383   0.00    0.0   -0.00209   -0.00462   -0.00207   0.00000  0.00000  0.00000  0.00000  0.00000  0.00000
2082   1920.000  -2279829.0580   5004706.6136   3219777.3925   6  13   0.0653   0.1085   0.0402   0.0442   0.0458  -0.0373   0.00    0.0    0.01158   -0.01665   -0.00979   0.00000  0.00000  0.00000  0.00000  0.00000  0.00000
2082   1950.000  -2279829.0583   5004706.6108   3219777.3916   6  13   0.0642   0.1060   0.0391   0.0443   0.0443  -0.0365   0.00    0.0    0.00086    0.01049    0.01799   0.00000  0.00000  0.00000  0.00000  0.00000  0.00000
2082   1980.000  -2279829.0554   5004706.6052   3219777.3877   6  13   0.0632   0.1036   0.0381   0.0443   0.0428  -0.0357   0.00    0.0    0.00730   -0.01624   -0.00226   0.00000  0.00000  0.00000  0.00000  0.00000  0.00000
2082   2010.000  -2279829.0589   5004706.6033   3219777.3869   6  13   0.0622   0.1013   0.0371   0.0442   0.0413  -0.0349   0.00    0.0    0.02454   -0.02046   -0.00147   0.00000  0.00000  0.00000  0.00000  0.00000  0.00000
2082   2040.000  -2279829.0579   5004706.5942   3219777.3839   6  13   0.0612   0.0990   0.0361   0.0441   0.0400  -0.0341   0.00    0.0   -0.00917    0.02030    0.00244   0.00000  0.00000  0.00000  0.00000  0.00000  0.00000
2082   2070.000  -2279829.0594   5004706.5953   3219777.3850   6  13   0.0603   0.0968   0.0352   0.0440   0.0386  -0.0334   0.00    0.0    0.01005   -0.01424    0.00293   0.00000  0.00000  0.00000  0.00000  0.00000  0.00000
2082   2100.000  -2279829.0599   5004706.5910   3219777.3837   6  13   0.0594   0.0946   0.0343   0.0438   0.0373  -0.0327   0.00    0.0    0.00708   -0.01018   -0.01876   0.00000  0.00000  0.00000  0.00000  0.00000  0.00000
2082   2130.000  -2279829.0606   5004706.5881   3219777.3815   6  13   0.0585   0.0926   0.0335   0.0437   0.0361  -0.0321   0.00    0.0   -0.01987    0.00939    0.01424   0.00000  0.00000  0.00000  0.00000  0.00000  0.00000
2082   2160.000  -2279829.0591   5004706.5834   3219777.3789   6  13   0.0577   0.0905   0.0327   0.0434   0.0348  -0.0314   0.00    0.0   -0.00653    0.01080    0.00868   0.00000  0.00000  0.00000  0.00000  0.00000  0.00000
2082   2190.000  -2279829.0598   5004706.5864   3219777.3794   6  13   0.0568   0.0886   0.0319   0.0432   0.0337  -0.0308   0.00    0.0    0.00884   -0.02168   -0.00207   0.00000  0.00000  0.00000  0.00000  0.00000  0.00000
2082   2220.000  -2279829.0625   5004706.5879   3219777.3808   6  13   0.0560   0.0866   0.0311   0.0429   0.0325  -0.0303   0.00    0.0   -0.00979    0.02187    0.01542   0.00000  0.00000  0.00000  0.00000  0.00000  0.00000
2082   2250.000  -2279829.0629   5004706.5888   3219777.3808   6  13   0.0553   0.0848   0.0304   0.0426   0.0315  -0.0297   0.00    0.0   -0.01002    0.01231    0.00769   0.00000  0.00000  0.00000  0.00000  0.00000  0.00000
2082   2280.000  -2279829.0645   5004706.5834   3219777.3795   6  13   0.0545   0.0830   0.0297   0.0423   0.0304  -0.0292   0.00    0.0    0.00788    0.01657    0.01222   0.00000  0.00000  0.00000  0.00000  0.00000  0.00000
2082   2310.000  -2279829.0659   5004706.5788   3219777.3790   6  13   0.0538   0.0812   0.0290   0.0420   0.0294  -0.0287   0.00    0.0    0.01631   -0.03140   -0.01201   0.00000  0.00000  0.00000  0.00000  0.00000  0.00000
2082   2340.000  -2279829.0654   5004706.5678   3219777.3754   6  13   0.0530   0.0795   0.0284   0.0417   0.0284  -0.0282   0.00    0.0   -0.02479    0.02463    0.02194   0.00000  0.00000  0.00000  0.00000  0.00000  0.00000
2082   2370.000  -2279829.0667   5004706.5649   3219777.3746   6  13   0.0523   0.0778   0.0278   0.0413   0.0275  -0.0277   0.00    0.0    0.00314    0.03330    0.00317   0.00000  0.00000  0.00000  0.00000  0.00000  0.00000
2082   2400.000  -2279829.0674   5004706.5682   3219777.3755   6  13   0.0516   0.0762   0.0272   0.0410   0.0265  -0.0273   0.00    0.0   -0.00088   -0.00033    0.01091   0.00000  0.00000  0.00000  0.00000  0.00000  0.00000
2082   2430.000  -2279829.0667   5004706.5687   3219777.3747   6  13   0.0510   0.0746   0.0266   0.0406   0.0256  -0.0268   0.00    0.0   -0.00082   -0.03296   -0.00156   0.00000  0.00000  0.00000  0.00000  0.00000  0.00000
2082   2460.000  -2279829.0674   5004706.5691   3219777.3752   6  13   0.0503   0.0731   0.0260   0.0402   0.0248  -0.0264   0.00    0.0    0.00283    0.00959    0.03043   0.00000  0.00000  0.00000  0.00000  0.00000  0.00000
2082   2490.000  -2279829.0681   5004706.5647   3219777.3745   6  13   0.0497   0.0716   0.0255   0.0398   0.0240  -0.0260   0.00    0.0    0.01920   -0.01336    0.00336   0.00000  0.00000  0.00000  0.00000  0.00000  0.00000
2082   2520.000  -2279829.0734   5004706.5560   3219777.3752   6  13   0.0491   0.0702   0.0250   0.0395   0.0232  -0.0256   0.00    0.0   -0.00437    0.01677    0.00629   0.00000  0.00000  0.00000  0.00000  0.00000  0.00000
2082   2550.000  -2279829.0760   5004706.5529   3219777.3761   6  13   0.0484   0.0687   0.0245   0.0391   0.0224  -0.0252   0.00    0.0   -0.00787   -0.01993   -0.00762   0.00000  0.00000  0.00000  0.00000  0.00000  0.00000
2082   2580.000  -2279829.0749   5004706.5534   3219777.3766   6  13   0.0478   0.0674   0.0240   0.0387   0.0216  -0.0249   0.00    0.0   -0.00549    0.00259    0.00042   0.00000  0.00000  0.00000  0.00000  0.00000  0.00000
2082   2610.000  -2279829.0762   5004706.5483   3219777.3766   6  13   0.0473   0.0660   0.0235   0.0383   0.0209  -0.0245   0.00    0.0   -0.01707    0.01711    0.00503   0.00000  0.00000  0.00000  0.00000  0.00000  0.00000
2082   2640.000  -2279829.0746   5004706.5488   3219777.3759   6  13   0.0467   0.0647   0.0230   0.0379   0.0202  -0.0242   0.00    0.0   -0.01468   -0.00736    0.00437   0.00000  0.00000  0.00000  0.00000  0.00000  0.00000
2082   2670.000  -2279829.0728   5004706.5485   3219777.3750   6  13   0.0461   0.0635   0.0226   0.0375   0.0195  -0.0238   0.00    0.0   -0.02194    0.00691    0.00988   0.00000  0.00000  0.00000  0.00000  0.00000  0.00000
2082   2700.000  -2279829.0712   5004706.5487   3219777.3740   6  13   0.0456   0.0622   0.0222   0.0371   0.0189  -0.0235   0.00    0.0   -0.00956    0.00749    0.01220   0.00000  0.00000  0.00000  0.00000  0.00000  0.00000
2082   2730.000  -2279829.0698   5004706.5476   3219777.3726   6  13   0.0450   0.0610   0.0218   0.0367   0.0182  -0.0232   0.00    0.0   -0.01580    0.01836    0.00364   0.00000  0.00000  0.00000  0.00000  0.00000  0.00000
2082   2760.000  -2279829.0699   5004706.5484   3219777.3733   6  13   0.0445   0.0598   0.0214   0.0363   0.0176  -0.0229   0.00    0.0    0.00029    0.00543    0.00900   0.00000  0.00000  0.00000  0.00000  0.00000  0.00000
2082   2790.000  -2279829.0700   5004706.5455   3219777.3721   6  13   0.0440   0.0590   0.0210   0.0360   0.0173  -0.0226   0.00    0.0    0.00114   -0.01448    0.00660   0.00000  0.00000  0.00000  0.00000  0.00000  0.00000
2082   2820.000  -2279829.0722   5004706.5450   3219777.3726   6  13   0.0435   0.0583   0.0207   0.0356   0.0170  -0.0223   0.00    0.0    0.00678   -0.00653   -0.00773   0.00000  0.00000  0.00000  0.00000  0.00000  0.00000
2082   2850.000  -2279829.0747   5004706.5459   3219777.3734   6  13   0.0430   0.0575   0.0204   0.0353   0.0167  -0.0219   0.00    0.0   -0.01029    0.00927    0.03043   0.00000  0.00000  0.00000  0.00000  0.00000  0.00000
2082   2880.000  -2279829.0762   5004706.5489   3219777.3743   6  13   0.0425   0.0568   0.0201   0.0349   0.0164  -0.0217   0.00    0.0    0.01906   -0.00377   -0.00535   0.00000  0.00000  0.00000  0.00000  0.00000  0.00000
2082   2910.000  -2279829.0785   5004706.5510   3219777.3753   6  13   0.0420   0.0560   0.0198   0.0346   0.0161  -0.0214   0.00    0.0    0.01834   -0.05018   -0.01707   0.00000  0.00000  0.00000  0.00000  0.00000  0.00000
2082   2940.000  -2279829.0819   5004706.5525   3219777.3766   6  13   0.0416   0.0553   0.0195   0.0343   0.0159  -0.0211   0.00    0.0    0.00994   -0.04599   -0.00204   0.00000  0.00000  0.00000  0.00000  0.00000  0.00000
2082   2970.000  -2279829.0819   5004706.5517   3219777.3762   6  13   0.0411   0.0546   0.0193   0.0340   0.0156  -0.0208   0.00    0.0   -0.00075    0.02527    0.01711   0.00000  0.00000  0.00000  0.00000  0.00000  0.00000
2082   3000.000  -2279829.0818   5004706.5504   3219777.3761   6  13   0.0407   0.0539   0.0190   0.0336   0.0154  -0.0205   0.00    0.0    0.02095    0.01092   -0.01982   0.00000  0.00000  0.00000  0.00000  0.00000  0.00000
2082   3030.000  -2279829.0824   5004706.5481   3219777.3761   6  13   0.0402   0.0532   0.0187   0.0333   0.0151  -0.0203   0.00    0.0    0.02982   -0.02856   -0.01828   0.00000  0.00000  0.00000  0.00000  0.00000  0.00000
2082   3060.000  -2279829.0827   5004706.5486   3219777.3762   6  13   0.0398   0.0525   0.0185   0.0330   0.0149  -0.0200   0.00    0.0    0.00872   -0.01384   -0.01976   0.00000  0.00000  0.00000  0.00000  0.00000  0.00000
2082   3090.000  -2279829.0810   5004706.5486   3219777.3753   6  13   0.0394   0.0518   0.0182   0.0327   0.0147  -0.0198   0.00    0.0   -0.01285    0.01634    0.00011   0.00000  0.00000  0.00000  0.00000  0.00000  0.00000
2082   3120.000  -2279829.0809   5004706.5466   3219777.3748   6  13   0.0389   0.0512   0.0180   0.0323   0.0144  -0.0195   0.00    0.0    0.00402   -0.01188    0.00174   0.00000  0.00000  0.00000  0.00000  0.00000  0.00000
2082   3150.000  -2279829.0817   5004706.5439   3219777.3748   6  13   0.0385   0.0505   0.0177   0.0320   0.0142  -0.0193   0.00    0.0   -0.01012   -0.00611    0.00965   0.00000  0.00000  0.00000  0.00000  0.00000  0.00000
2082   3180.000  -2279829.0822   5004706.5421   3219777.3747   6  13   0.0381   0.0499   0.0175   0.0317   0.0140  -0.0191   0.00    0.0    0.00161   -0.02572   -0.00462   0.00000  0.00000  0.00000  0.00000  0.00000  0.00000
2082   3210.000  -2279829.0821   5004706.5440   3219777.3756   6  13   0.0377   0.0492   0.0173   0.0314   0.0138  -0.0188   0.00    0.0   -0.00687   -0.00336    0.01248   0.00000  0.00000  0.00000  0.00000  0.00000  0.00000
2082   3240.000  -2279829.0823   5004706.5421   3219777.3757   6  13   0.0373   0.0486   0.0170   0.0310   0.0135  -0.0186   0.00    0.0   -0.00035    0.00774    0.00671   0.00000  0.00000  0.00000  0.00000  0.00000  0.00000
2082   3270.000  -2279829.0832   5004706.5391   3219777.3759   6  13   0.0370   0.0479   0.0168   0.0307   0.0133  -0.0184   0.00    0.0    0.01065   -0.01028   -0.00797   0.00000  0.00000  0.00000  0.00000  0.00000  0.00000
2082   3300.000  -2279829.0865   5004706.5352   3219777.3769   6  13   0.0366   0.0474   0.0166   0.0304   0.0132  -0.0182   0.00    0.0    0.00133   -0.00885   -0.00671   0.00000  0.00000  0.00000  0.00000  0.00000  0.00000
2082   3330.000  -2279829.0861   5004706.5343   3219777.3771   6  13   0.0362   0.0468   0.0164   0.0302   0.0130  -0.0180   0.00    0.0   -0.00654    0.00110    0.00240   0.00000  0.00000  0.00000  0.00000  0.00000  0.00000
2082   3360.000  -2279829.0873   5004706.5330   3219777.3773   6  13   0.0359   0.0463   0.0162   0.0299   0.0129  -0.0178   0.00    0.0   -0.02035   -0.01820   -0.00385   0.00000  0.00000  0.00000  0.00000  0.00000  0.00000
2082   3390.000  -2279829.0872   5004706.5335   3219777.3771   6  13   0.0355   0.0458   0.0160   0.0296   0.0127  -0.0176   0.00    0.0    0.01152   -0.00218   -0.00551   0.00000  0.00000  0.00000  0.00000  0.00000  0.00000
2082   3420.000  -2279829.0880   5004706.5310   3219777.3768   6  13   0.0352   0.0453   0.0158   0.0293   0.0126  -0.0173   0.00    0.0    0.00528   -0.00983   -0.00606   0.00000  0.00000  0.00000  0.00000  0.00000  0.00000
2082   3450.000  -2279829.0877   5004706.5283   3219777.3760   6  13   0.0348   0.0448   0.0156   0.0291   0.0125  -0.0172   0.00    0.0    0.00623    0.00001   -0.00737   0.00000  0.00000  0.00000  0.00000  0.00000  0.00000
2082   3480.000  -2279829.0873   5004706.5272   3219777.3757   6  13   0.0345   0.0443   0.0154   0.0288   0.0123  -0.0170   0.00    0.0    0.01225   -0.01899   -0.00330   0.00000  0.00000  0.00000  0.00000  0.00000  0.00000
2082   3510.000  -2279829.0870   5004706.5254   3219777.3751   6  13   0.0341   0.0438   0.0153   0.0285   0.0122  -0.0168   0.00    0.0    0.00561   -0.01905    0.00824   0.00000  0.00000  0.00000  0.00000  0.00000  0.00000
2082   3540.000  -2279829.0853   5004706.5259   3219777.3744   6  13   0.0338   0.0433   0.0151   0.0282   0.0121  -0.0166   0.00    0.0   -0.00942    0.03682    0.01861   0.00000  0.00000  0.00000  0.00000  0.00000  0.00000
2082   3570.000  -2279829.0851   5004706.5250   3219777.3748   6  13   0.0335   0.0428   0.0149   0.0280   0.0119  -0.0164   0.00    0.0   -0.02607    0.01542    0.01233   0.00000  0.00000  0.00000  0.00000  0.00000  0.00000
2082   3600.000  -2279829.0854   5004706.5243   3219777.3752   6  13   0.0332   0.0424   0.0148   0.0277   0.0118  -0.0162   0.00    0.0    0.01095   -0.01582   -0.00207   0.00000  0.00000  0.00000  0.00000  0.00000  0.00000
2082   3630.000  -2279829.0858   5004706.5235   3219777.3754   6  13   0.0329   0.0419   0.0146   0.0275   0.0117  -0.0160   0.00    0.0   -0.01245   -0.00101    0.00584   0.00000  0.00000  0.00000  0.00000  0.00000  0.00000
2082   3660.000  -2279829.0855   5004706.5240   3219777.3760   6  13   0.0326   0.0415   0.0144   0.0272   0.0116  -0.0159   0.00    0.0    0.00548   -0.01349   -0.00582   0.00000  0.00000  0.00000  0.00000  0.00000  0.00000
2082   3690.000  -2279829.0843   5004706.5257   3219777.3765   6  13   0.0323   0.0411   0.0143   0.0270   0.0115  -0.0157   0.00    0.0    0.01016    0.01031    0.01034   0.00000  0.00000  0.00000  0.00000  0.00000  0.00000
2082   3720.000  -2279829.0847   5004706.5235   3219777.3766   6  13   0.0320   0.0407   0.0141   0.0267   0.0115  -0.0155   0.00    0.0    0.00950   -0.03270    0.01253   0.00000  0.00000  0.00000  0.00000  0.00000  0.00000
2082   3750.000  -2279829.0820   5004706.5246   3219777.3762   6  13   0.0317   0.0403   0.0140   0.0265   0.0114  -0.0154   0.00    0.0    0.01349   -0.01618    0.00141   0.00000  0.00000  0.00000  0.00000  0.00000  0.00000
2082   3780.000  -2279829.0825   5004706.5244   3219777.3771   6  13   0.0314   0.0399   0.0139   0.0262   0.0113  -0.0152   0.00    0.0    0.01850   -0.07649   -0.00548   0.00000  0.00000  0.00000  0.00000  0.00000  0.00000
2082   3810.000  -2279829.0825   5004706.5228   3219777.3776   6  13   0.0311   0.0395   0.0137   0.0260   0.0112  -0.0150   0.00    0.0   -0.00052   -0.00845   -0.01635   0.00000  0.00000  0.00000  0.00000  0.00000  0.00000
2082   3840.000  -2279829.0819   5004706.5224   3219777.3777   6  13   0.0308   0.0391   0.0136   0.0258   0.0112  -0.0149   0.00    0.0   -0.00647    0.01689    0.01104   0.00000  0.00000  0.00000  0.00000  0.00000  0.00000
2082   3870.000  -2279829.0809   5004706.5238   3219777.3777   6  13   0.0306   0.0387   0.0134   0.0255   0.0111  -0.0147   0.00    0.0   -0.02447    0.03772    0.00954   0.00000  0.00000  0.00000  0.00000  0.00000  0.00000
2082   3900.000  -2279829.0822   5004706.5241   3219777.3783   6  13   0.0303   0.0383   0.0133   0.0253   0.0110  -0.0146   0.00    0.0   -0.00354    0.00582    0.01681   0.00000  0.00000  0.00000  0.00000  0.00000  0.00000
2082   3930.000  -2279829.0824   5004706.5238   3219777.3781   6  13   0.0300   0.0380   0.0132   0.0251   0.0109  -0.0144   0.00    0.0    0.02076   -0.05453    0.01062   0.00000  0.00000  0.00000  0.00000  0.00000  0.00000
2082   3960.000  -2279829.0832   5004706.5219   3219777.3782   6  14   0.0298   0.0376   0.0131   0.0249   0.0109  -0.0143   0.00    0.0   -0.01289   -0.00791    0.00370   0.00000  0.00000  0.00000  0.00000  0.00000  0.00000
2082   3990.000  -2279829.0842   5004706.5213   3219777.3784   6  14   0.0295   0.0373   0.0129   0.0247   0.0108  -0.0141   0.00    0.0    0.02551   -0.00724    0.00967   0.00000  0.00000  0.00000  0.00000  0.00000  0.00000
2082   4020.000  -2279829.0844   5004706.5194   3219777.3782   6  14   0.0293   0.0369   0.0128   0.0244   0.0108  -0.0140   0.00    0.0   -0.02335    0.01628    0.01117   0.00000  0.00000  0.00000  0.00000  0.00000  0.00000
2082   4050.000  -2279829.0846   5004706.5190   3219777.3785   6  14   0.0290   0.0366   0.0127   0.0242   0.0107  -0.0139   0.00    0.0   -0.00793    0.01295    0.01859   0.00000  0.00000  0.00000  0.00000  0.00000  0.00000
2082   4080.000  -2279829.0850   5004706.5190   3219777.3790   6  14   0.0288   0.0362   0.0126   0.0240   0.0107  -0.0137   0.00    0.0    0.00204   -0.01496   -0.00890   0.00000  0.00000  0.00000  0.00000  0.00000  0.00000
2082   4110.000  -2279829.0848   5004706.5186   3219777.3791   6  14   0.0285   0.0359   0.0125   0.0238   0.0106  -0.0136   0.00    0.0   -0.01124   -0.00426    0.00210   0.00000  0.00000  0.00000  0.00000  0.00000  0.00000
2082   4140.000  -2279829.0854   5004706.5175   3219777.3792   6  14   0.0283   0.0355   0.0124   0.0236   0.0106  -0.0135   0.00    0.0   -0.02440    0.01750   -0.00791   0.00000  0.00000  0.00000  0.00000  0.00000  0.00000
2082   4170.000  -2279829.0854   5004706.5170   3219777.3792   6  14   0.0280   0.0352   0.0123   0.0233   0.0105  -0.0134   0.00    0.0    0.00149   -0.01612   -0.00596   0.00000  0.00000  0.00000  0.00000  0.00000  0.00000
2082   4200.000  -2279829.0858   5004706.5158   3219777.3794   6  13   0.0278   0.0349   0.0122   0.0231   0.0104  -0.0132   0.00    0.0   -0.01481    0.01621    0.00869   0.00000  0.00000  0.00000  0.00000  0.00000  0.00000
2082   4230.000  -2279829.0867   5004706.5145   3219777.3799   6  13   0.0276   0.0345   0.0121   0.0229   0.0104  -0.0131   0.00    0.0   -0.00476   -0.01245    0.00973   0.00000  0.00000  0.00000  0.00000  0.00000  0.00000
2082   4260.000  -2279829.0872   5004706.5138   3219777.3802   6  13   0.0273   0.0342   0.0120   0.0227   0.0103  -0.0130   0.00    0.0   -0.01416   -0.01547    0.00651   0.00000  0.00000  0.00000  0.00000  0.00000  0.00000
2082   4290.000  -2279829.0887   5004706.5126   3219777.3808   6  13   0.0271   0.0338   0.0119   0.0224   0.0102  -0.0129   0.00    0.0    0.00924   -0.00881    0.00199   0.00000  0.00000  0.00000  0.00000  0.00000  0.00000
2082   4320.000  -2279829.0892   5004706.5110   3219777.3805   6  14   0.0269   0.0334   0.0118   0.0222   0.0102  -0.0128   0.00    0.0    0.00088   -0.02684   -0.00145   0.00000  0.00000  0.00000  0.00000  0.00000  0.00000
2082   4350.000  -2279829.0894   5004706.5076   3219777.3798   6  13   0.0266   0.0331   0.0117   0.0220   0.0101  -0.0127   0.00    0.0   -0.00627    0.01150    0.00632   0.00000  0.00000  0.00000  0.00000  0.00000  0.00000
2082   4380.000  -2279829.0890   5004706.5050   3219777.3789   6  13   0.0264   0.0327   0.0116   0.0217   0.0100  -0.0126   0.00    0.0   -0.02854    0.02405    0.00825   0.00000  0.00000  0.00000  0.00000  0.00000  0.00000
2082   4410.000  -2279829.0891   5004706.5018   3219777.3782   6  13   0.0262   0.0323   0.0115   0.0215   0.0100  -0.0125   0.00    0.0    0.01932   -0.01410   -0.01408   0.00000  0.00000  0.00000  0.00000  0.00000  0.00000
2082   4440.000  -2279829.0898   5004706.4991   3219777.3781   6  13   0.0259   0.0320   0.0114   0.0212   0.0099  -0.0124   0.00    0.0    0.02164   -0.03586   -0.00145   0.00000  0.00000  0.00000  0.00000  0.00000  0.00000
2082   4470.000  -2279829.0898   5004706.4967   3219777.3777   6  13   0.0257   0.0316   0.0113   0.0210   0.0098  -0.0123   0.00    0.0    0.01368    0.00157   -0.00939   0.00000  0.00000  0.00000  0.00000  0.00000  0.00000
2082   4500.000  -2279829.0890   5004706.4960   3219777.3775   6  13   0.0255   0.0312   0.0112   0.0208   0.0097  -0.0122   0.00    0.0    0.01721   -0.05163   -0.01315   0.00000  0.00000  0.00000  0.00000  0.00000  0.00000
2082   4530.000  -2279829.0887   5004706.4959   3219777.3776   6  14   0.0253   0.0309   0.0111   0.0205   0.0096  -0.0121   0.00    0.0    0.00142   -0.01000    0.00263   0.00000  0.00000  0.00000  0.00000  0.00000  0.00000
2082   4560.000  -2279829.0889   5004706.4956   3219777.3777   6  14   0.0251   0.0305   0.0110   0.0203   0.0095  -0.0120   0.00    0.0    0.01702   -0.02009    0.00514   0.00000  0.00000  0.00000  0.00000  0.00000  0.00000
2082   4590.000  -2279829.0902   5004706.4930   3219777.3778   6  14   0.0249   0.0301   0.0109   0.0200   0.0095  -0.0119   0.00    0.0   -0.00075    0.03239    0.00395   0.00000  0.00000  0.00000  0.00000  0.00000  0.00000
2082   4620.000  -2279829.0913   5004706.4913   3219777.3780   6  14   0.0247   0.0298   0.0108   0.0198   0.0094  -0.0119   0.00    0.0   -0.00570   -0.02015   -0.00808   0.00000  0.00000  0.00000  0.00000  0.00000  0.00000
2082   4650.000  -2279829.0919   5004706.4902   3219777.3780   6  14   0.0245   0.0294   0.0108   0.0196   0.0093  -0.0118   0.00    0.0    0.01567   -0.00900   -0.03594   0.00000  0.00000  0.00000  0.00000  0.00000  0.00000
2082   4680.000  -2279829.0923   5004706.4893   3219777.3780   6  14   0.0243   0.0290   0.0107   0.0193   0.0092  -0.0117   0.00    0.0    0.00165    0.01045    0.01905   0.00000  0.00000  0.00000  0.00000  0.00000  0.00000
2082   4710.000  -2279829.0939   5004706.4862   3219777.3778   6  14   0.0240   0.0286   0.0106   0.0191   0.0091  -0.0116   0.00    0.0    0.00219   -0.01365   -0.01461   0.00000  0.00000  0.00000  0.00000  0.00000  0.00000
2082   4740.000  -2279829.0940   5004706.4852   3219777.3780   6  14   0.0239   0.0283   0.0105   0.0188   0.0090  -0.0116   0.00    0.0    0.00808   -0.00292   -0.01071   0.00000  0.00000  0.00000  0.00000  0.00000  0.00000
2082   4770.000  -2279829.0936   5004706.4852   3219777.3780   6  14   0.0237   0.0279   0.0104   0.0186   0.0089  -0.0115   0.00    0.0    0.00819   -0.02090    0.00629   0.00000  0.00000  0.00000  0.00000  0.00000  0.00000
2082   4800.000  -2279829.0929   5004706.4864   3219777.3783   6  14   0.0235   0.0275   0.0103   0.0184   0.0088  -0.0114   0.00    0.0   -0.00050    0.01982   -0.00363   0.00000  0.00000  0.00000  0.00000  0.00000  0.00000
2082   4830.000  -2279829.0934   5004706.4841   3219777.3780   6  14   0.0233   0.0272   0.0103   0.0182   0.0087  -0.0114   0.00    0.0   -0.00025   -0.00069    0.00756   0.00000  0.00000  0.00000  0.00000  0.00000  0.00000
2082   4860.000  -2279829.0942   5004706.4835   3219777.3785   6  14   0.0231   0.0268   0.0102   0.0179   0.0086  -0.0113   0.00    0.0   -0.00891    0.00512    0.00897   0.00000  0.00000  0.00000  0.00000  0.00000  0.00000
2082   4890.000  -2279829.0947   5004706.4829   3219777.3785   6  14   0.0229   0.0265   0.0101   0.0177   0.0085  -0.0112   0.00    0.0   -0.01038   -0.02770   -0.00294   0.00000  0.00000  0.00000  0.00000  0.00000  0.00000
2082   4920.000  -2279829.0951   5004706.4820   3219777.3786   6  14   0.0227   0.0261   0.0100   0.0175   0.0084  -0.0112   0.00    0.0   -0.00674   -0.00316    0.00502   0.00000  0.00000  0.00000  0.00000  0.00000  0.00000
2082   4950.000  -2279829.0959   5004706.4779   3219777.3778   6  14   0.0225   0.0258   0.0099   0.0173   0.0083  -0.0111   0.00    0.0   -0.01549   -0.00527   -0.00054   0.00000  0.00000  0.00000  0.00000  0.00000  0.00000
2082   4980.000  -2279829.0953   5004706.4753   3219777.3765   6  14   0.0224   0.0254   0.0099   0.0170   0.0082  -0.0111   0.00    0.0   -0.00819    0.00129    0.01003   0.00000  0.00000  0.00000  0.00000  0.00000  0.00000
2082   5010.000  -2279829.0953   5004706.4739   3219777.3763   6  14   0.0222   0.0251   0.0098   0.0168   0.0081  -0.0110   0.00    0.0    0.00106   -0.00037    0.00367   0.00000  0.00000  0.00000  0.00000  0.00000  0.00000
2082   5040.000  -2279829.0960   5004706.4703   3219777.3754   6  14   0.0220   0.0248   0.0097   0.0166   0.0080  -0.0109   0.00    0.0    0.00210    0.01080   -0.00525   0.00000  0.00000  0.00000  0.00000  0.00000  0.00000
2082   5070.000  -2279829.0970   5004706.4659   3219777.3747   6  14   0.0219   0.0244   0.0097   0.0164   0.0079  -0.0109   0.00    0.0    0.00278   -0.00100   -0.01023   0.00000  0.00000  0.00000  0.00000  0.00000  0.00000
2082   5100.000  -2279829.0973   5004706.4636   3219777.3744   6  14   0.0217   0.0241   0.0096   0.0162   0.0078  -0.0108   0.00    0.0    0.00222   -0.00485    0.00895   0.00000  0.00000  0.00000  0.00000  0.00000  0.00000
2082   5130.000  -2279829.0976   5004706.4615   3219777.3742   6  14   0.0215   0.0238   0.0095   0.0160   0.0077  -0.0108   0.00    0.0   -0.01931   -0.02217    0.01039   0.00000  0.00000  0.00000  0.00000  0.00000  0.00000
2082   5160.000  -2279829.0975   5004706.4617   3219777.3742   6  14   0.0214   0.0235   0.0094   0.0158   0.0076  -0.0107   0.00    0.0   -0.00246    0.00194    0.01409   0.00000  0.00000  0.00000  0.00000  0.00000  0.00000
2082   5190.000  -2279829.0979   5004706.4604   3219777.3741   6  14   0.0212   0.0232   0.0094   0.0157   0.0075  -0.0107   0.00    0.0   -0.00816    0.01617    0.00908   0.00000  0.00000  0.00000  0.00000  0.00000  0.00000
2082   5220.000  -2279829.0972   5004706.4604   3219777.3740   6  14   0.0211   0.0229   0.0093   0.0155   0.0074  -0.0106   0.00    0.0    0.00581   -0.02099    0.00379   0.00000  0.00000  0.00000  0.00000  0.00000  0.00000
2082   5250.000  -2279829.0964   5004706.4624   3219777.3742   6  14   0.0209   0.0226   0.0092   0.0153   0.0073  -0.0105   0.00    0.0   -0.02969    0.00420    0.02785   0.00000  0.00000  0.00000  0.00000  0.00000  0.00000
2082   5280.000  -2279829.0962   5004706.4615   3219777.3740   6  14   0.0208   0.0223   0.0092   0.0151   0.0073  -0.0105   0.00    0.0   -0.01268    0.01208    0.02706   0.00000  0.00000  0.00000  0.00000  0.00000  0.00000
2082   5310.000  -2279829.0954   5004706.4611   3219777.3735   6  14   0.0206   0.0221   0.0091   0.0150   0.0072  -0.0104   0.00    0.0    0.01079   -0.01278   -0.01686   0.00000  0.00000  0.00000  0.00000  0.00000  0.00000
2082   5340.000  -2279829.0952   5004706.4607   3219777.3734   6  14   0.0205   0.0218   0.0090   0.0148   0.0071  -0.0104   0.00    0.0    0.01097    0.02306    0.00501   0.00000  0.00000  0.00000  0.00000  0.00000  0.00000
2082   5370.000  -2279829.0949   5004706.4594   3219777.3729   6  14   0.0204   0.0216   0.0090   0.0146   0.0070  -0.0103   0.00    0.0   -0.01344    0.01702   -0.00017   0.00000  0.00000  0.00000  0.00000  0.00000  0.00000
2082   5400.000  -2279829.0955   5004706.4574   3219777.3725   6  14   0.0202   0.0213   0.0089   0.0145   0.0069  -0.0103   0.00    0.0    0.00191   -0.00028   -0.01190   0.00000  0.00000  0.00000  0.00000  0.00000  0.00000
2082   5430.000  -2279829.0960   5004706.4556   3219777.3722   6  14   0.0201   0.0211   0.0089   0.0143   0.0069  -0.0102   0.00    0.0    0.00801   -0.00804   -0.00265   0.00000  0.00000  0.00000  0.00000  0.00000  0.00000
2082   5460.000  -2279829.0962   5004706.4542   3219777.3721   6  14   0.0199   0.0208   0.0088   0.0142   0.0068  -0.0102   0.00    0.0   -0.01116    0.01178   -0.00414   0.00000  0.00000  0.00000  0.00000  0.00000  0.00000
2082   5490.000  -2279829.0964   5004706.4538   3219777.3722   6  14   0.0198   0.0206   0.0087   0.0140   0.0067  -0.0101   0.00    0.0    0.00641   -0.01206    0.00355   0.00000  0.00000  0.00000  0.00000  0.00000  0.00000
2082   5520.000  -2279829.0957   5004706.4557   3219777.3727   6  14   0.0197   0.0203   0.0087   0.0139   0.0067  -0.0101   0.00    0.0    0.00889   -0.01429    0.00250   0.00000  0.00000  0.00000  0.00000  0.00000  0.00000
2082   5550.000  -2279829.0955   5004706.4572   3219777.3731   6  13   0.0196   0.0201   0.0086   0.0137   0.0066  -0.0100   0.00    0.0    0.24039   -0.13261   -0.21199   0.00000  0.00000  0.00000  0.00000  0.00000  0.00000
2082   5580.000  -2279829.0947   5004706.4592   3219777.3737   6  14   0.0194   0.0199   0.0086   0.0136   0.0065  -0.0100   0.00    0.0   -0.01229   -0.00868    0.00786   0.00000  0.00000  0.00000  0.00000  0.00000  0.00000
2082   5610.000  -2279829.0948   5004706.4594   3219777.3741   6  14   0.0193   0.0197   0.0085   0.0134   0.0065  -0.0099   0.00    0.0    0.02326   -0.01008   -0.02111   0.00000  0.00000  0.00000  0.00000  0.00000  0.00000
2082   5640.000  -2279829.0943   5004706.4598   3219777.3742   6  14   0.0192   0.0195   0.0085   0.0133   0.0064  -0.0099   0.00    0.0    0.01603   -0.01005   -0.01626   0.00000  0.00000  0.00000  0.00000  0.00000  0.00000
2082   5670.000  -2279829.0939   5004706.4605   3219777.3745   6  14   0.0191   0.0193   0.0084   0.0132   0.0064  -0.0098   0.00    0.0   -0.00119   -0.00656   -0.00249   0.00000  0.00000  0.00000  0.00000  0.00000  0.00000
2082   5700.000  -2279829.0932   5004706.4617   3219777.3745   6  14   0.0190   0.0191   0.0084   0.0130   0.0063  -0.0098   0.00    0.0    0.00816   -0.01472   -0.00612   0.00000  0.00000  0.00000  0.00000  0.00000  0.00000
2082   5730.000  -2279829.0924   5004706.4624   3219777.3744   6  14   0.0188   0.0189   0.0083   0.0129   0.0063  -0.0097   0.00    0.0    0.00222    0.00314    0.00398   0.00000  0.00000  0.00000  0.00000  0.00000  0.00000
2082   5760.000  -2279829.0923   5004706.4619   3219777.3741   6  14   0.0187   0.0187   0.0083   0.0128   0.0062  -0.0097   0.00    0.0    0.00385   -0.00998   -0.00438   0.00000  0.00000  0.00000  0.00000  0.00000  0.00000
2082   5790.000  -2279829.0924   5004706.4614   3219777.3739   6  14   0.0186   0.0185   0.0082   0.0127   0.0062  -0.0096   0.00    0.0    0.00603   -0.00719    0.00060   0.00000  0.00000  0.00000  0.00000  0.00000  0.00000
2082   5820.000  -2279829.0920   5004706.4620   3219777.3741   6  14   0.0185   0.0183   0.0082   0.0125   0.0061  -0.0096   0.00    0.0    0.00895    0.00742    0.00439   0.00000  0.00000  0.00000  0.00000  0.00000  0.00000
2082   5850.000  -2279829.0911   5004706.4636   3219777.3745   6  14   0.0184   0.0182   0.0081   0.0124   0.0061  -0.0096   0.00    0.0   -0.00265    0.01580    0.00346   0.00000  0.00000  0.00000  0.00000  0.00000  0.00000
2082   5880.000  -2279829.0911   5004706.4641   3219777.3749   6  14   0.0183   0.0180   0.0081   0.0123   0.0060  -0.0095   0.00    0.0    0.00940   -0.01016   -0.01184   0.00000  0.00000  0.00000  0.00000  0.00000  0.00000
2082   5910.000  -2279829.0913   5004706.4638   3219777.3751   6  14   0.0182   0.0178   0.0080   0.0122   0.0060  -0.0095   0.00    0.0    0.00230   -0.01425   -0.00058   0.00000  0.00000  0.00000  0.00000  0.00000  0.00000
2082   5940.000  -2279829.0911   5004706.4635   3219777.3750   6  14   0.0181   0.0177   0.0080   0.0121   0.0060  -0.0094   0.00    0.0    0.01206    0.00197    0.01162   0.00000  0.00000  0.00000  0.00000  0.00000  0.00000
2082   5970.000  -2279829.0917   5004706.4618   3219777.3748   6  14   0.0180   0.0175   0.0079   0.0120   0.0059  -0.0094   0.00    0.0    0.01301   -0.03133    0.00526   0.00000  0.00000  0.00000  0.00000  0.00000  0.00000
2082   6000.000  -2279829.0921   5004706.4610   3219777.3747   6  14   0.0179   0.0174   0.0079   0.0118   0.0059  -0.0093   0.00    0.0   -0.00474    0.00609    0.00239   0.00000  0.00000  0.00000  0.00000  0.00000  0.00000
2082   6030.000  -2279829.0915   5004706.4600   3219777.3741   6  14   0.0178   0.0172   0.0078   0.0117   0.0059  -0.0093   0.00    0.0   -0.01020   -0.00047    0.00364   0.00000  0.00000  0.00000  0.00000  0.00000  0.00000
2082   6060.000  -2279829.0914   5004706.4593   3219777.3739   6  14   0.0177   0.0171   0.0078   0.0116   0.0058  -0.0092   0.00    0.0   -0.00025   -0.01214   -0.02692   0.00000  0.00000  0.00000  0.00000  0.00000  0.00000
2082   6090.000  -2279829.0910   5004706.4586   3219777.3735   6  14   0.0176   0.0169   0.0078   0.0115   0.0058  -0.0092   0.00    0.0    0.00974    0.02167   -0.00732   0.00000  0.00000  0.00000  0.00000  0.00000  0.00000
2082   6120.000  -2279829.0904   5004706.4588   3219777.3735   6  14   0.0175   0.0168   0.0077   0.0114   0.0058  -0.0092   0.00    0.0   -0.01623    0.00591    0.01196   0.00000  0.00000  0.00000  0.00000  0.00000  0.00000
2082   6150.000  -2279829.0898   5004706.4589   3219777.3734   6  13   0.0174   0.0166   0.0077   0.0113   0.0058  -0.0091   0.00    0.0    0.13453   -0.08436   -0.12481   0.00000  0.00000  0.00000  0.00000  0.00000  0.00000
2082   6180.000  -2279829.0892   5004706.4586   3219777.3733   6  14   0.0173   0.0165   0.0076   0.0112   0.0057  -0.0091   0.00    0.0   -0.00499    0.00312    0.01355   0.00000  0.00000  0.00000  0.00000  0.00000  0.00000
2082   6210.000  -2279829.0887   5004706.4593   3219777.3734   6  14   0.0172   0.0164   0.0076   0.0111   0.0057  -0.0090   0.00    0.0    0.01162   -0.01122    0.00192   0.00000  0.00000  0.00000  0.00000  0.00000  0.00000
2082   6240.000  -2279829.0881   5004706.4590   3219777.3732   6  14   0.0171   0.0162   0.0076   0.0110   0.0057  -0.0090   0.00    0.0    0.00037    0.00902   -0.00254   0.00000  0.00000  0.00000  0.00000  0.00000  0.00000
2082   6270.000  -2279829.0888   5004706.4579   3219777.3731   6  14   0.0170   0.0161   0.0075   0.0109   0.0057  -0.0089   0.00    0.0   -0.00759    0.00781    0.01290   0.00000  0.00000  0.00000  0.00000  0.00000  0.00000
2082   6300.000  -2279829.0896   5004706.4571   3219777.3731   6  14   0.0169   0.0160   0.0075   0.0108   0.0056  -0.0089   0.00    0.0    0.00500   -0.00240   -0.00508   0.00000  0.00000  0.00000  0.00000  0.00000  0.00000
2082   6330.000  -2279829.0896   5004706.4561   3219777.3727   6  14   0.0168   0.0158   0.0075   0.0107   0.0056  -0.0089   0.00    0.0   -0.01193   -0.00122   -0.00299   0.00000  0.00000  0.00000  0.00000  0.00000  0.00000
2082   6360.000  -2279829.0890   5004706.4563   3219777.3724   6  14   0.0167   0.0157   0.0074   0.0106   0.0056  -0.0088   0.00    0.0    0.01234   -0.02416   -0.00792   0.00000  0.00000  0.00000  0.00000  0.00000  0.00000
2082   6390.000  -2279829.0887   5004706.4568   3219777.3725   6  14   0.0166   0.0156   0.0074   0.0105   0.0056  -0.0088   0.00    0.0   -0.00385    0.00388    0.00190   0.00000  0.00000  0.00000  0.00000  0.00000  0.00000
2082   6420.000  -2279829.0888   5004706.4568   3219777.3725   6  14   0.0166   0.0155   0.0074   0.0105   0.0056  -0.0087   0.00    0.0   -0.01195   -0.00737    0.02761   0.00000  0.00000  0.00000  0.00000  0.00000  0.00000
2082   6450.000  -2279829.0885   5004706.4571   3219777.3726   6  14   0.0165   0.0154   0.0073   0.0104   0.0056  -0.0087   0.00    0.0   -0.00472    0.01098    0.01105   0.00000  0.00000  0.00000  0.00000  0.00000  0.00000
2082   6480.000  -2279829.0888   5004706.4570   3219777.3727   6  14   0.0164   0.0153   0.0073   0.0103   0.0055  -0.0087   0.00    0.0   -0.00248    0.01042    0.00571   0.00000  0.00000  0.00000  0.00000  0.00000  0.00000
2082   6510.000  -2279829.0891   5004706.4569   3219777.3727   6  14   0.0163   0.0152   0.0073   0.0102   0.0055  -0.0086   0.00    0.0    0.01652   -0.01015   -0.01582   0.00000  0.00000  0.00000  0.00000  0.00000  0.00000
2082   6540.000  -2279829.0897   5004706.4567   3219777.3729   6  14   0.0162   0.0150   0.0072   0.0101   0.0055  -0.0086   0.00    0.0    0.01493   -0.01480   -0.02438   0.00000  0.00000  0.00000  0.00000  0.00000  0.00000
2082   6570.000  -2279829.0898   5004706.4558   3219777.3725   6  14   0.0161   0.0149   0.0072   0.0100   0.0055  -0.0086   0.00    0.0   -0.00575    0.01922    0.00863   0.00000  0.00000  0.00000  0.00000  0.00000  0.00000
2082   6600.000  -2279829.0898   5004706.4552   3219777.3723   6  14   0.0161   0.0148   0.0072   0.0099   0.0055  -0.0085   0.00    0.0   -0.00110    0.00457    0.00339   0.00000  0.00000  0.00000  0.00000  0.00000  0.00000
2082   6630.000  -2279829.0893   5004706.4546   3219777.3719   6  14   0.0160   0.0147   0.0071   0.0098   0.0055  -0.0085   0.00    0.0   -0.00092   -0.01345    0.00697   0.00000  0.00000  0.00000  0.00000  0.00000  0.00000
2082   6660.000  -2279829.0886   5004706.4549   3219777.3717   6  14   0.0159   0.0146   0.0071   0.0098   0.0055  -0.0085   0.00    0.0   -0.02590   -0.00037    0.00240   0.00000  0.00000  0.00000  0.00000  0.00000  0.00000
2082   6690.000  -2279829.0874   5004706.4559   3219777.3715   6  13   0.0158   0.0145   0.0071   0.0097   0.0055  -0.0084   0.00    0.0    0.00259    0.01312    0.00415   0.00000  0.00000  0.00000  0.00000  0.00000  0.00000
2082   6720.000  -2279829.0867   5004706.4572   3219777.3717   6  14   0.0157   0.0144   0.0070   0.0096   0.0055  -0.0084   0.00    0.0   -0.00060   -0.01002   -0.00043   0.00000  0.00000  0.00000  0.00000  0.00000  0.00000
2082   6750.000  -2279829.0852   5004706.4588   3219777.3716   6  14   0.0157   0.0143   0.0070   0.0095   0.0055  -0.0083   0.00    0.0    0.01231   -0.01287   -0.00913   0.00000  0.00000  0.00000  0.00000  0.00000  0.00000
2082   6780.000  -2279829.0843   5004706.4595   3219777.3716   6  14   0.0156   0.0143   0.0070   0.0094   0.0054  -0.0083   0.00    0.0    0.00822    0.01807    0.00907   0.00000  0.00000  0.00000  0.00000  0.00000  0.00000
2082   6810.000  -2279829.0840   5004706.4593   3219777.3714   6  14   0.0155   0.0142   0.0070   0.0093   0.0054  -0.0083   0.00    0.0    0.00284   -0.00309   -0.01225   0.00000  0.00000  0.00000  0.00000  0.00000  0.00000
2082   6840.000  -2279829.0833   5004706.4596   3219777.3711   6  14   0.0154   0.0141   0.0069   0.0093   0.0054  -0.0082   0.00    0.0    0.00075    0.01563   -0.00154   0.00000  0.00000  0.00000  0.00000  0.00000  0.00000
2082   6870.000  -2279829.0825   5004706.4598   3219777.3708   6  14   0.0154   0.0140   0.0069   0.0092   0.0054  -0.0082   0.00    0.0    0.00569   -0.00455   -0.00853   0.00000  0.00000  0.00000  0.00000  0.00000  0.00000
2082   6900.000  -2279829.0822   5004706.4596   3219777.3707   6  14   0.0153   0.0139   0.0069   0.0091   0.0054  -0.0082   0.00    0.0    0.00204   -0.02224   -0.01070   0.00000  0.00000  0.00000  0.00000  0.00000  0.00000
2082   6930.000  -2279829.0828   5004706.4588   3219777.3707   6  14   0.0152   0.0138   0.0069   0.0090   0.0054  -0.0081   0.00    0.0    0.00149    0.01215   -0.00413   0.00000  0.00000  0.00000  0.00000  0.00000  0.00000
2082   6960.000  -2279829.0833   5004706.4578   3219777.3706   6  15   0.0151   0.0137   0.0068   0.0090   0.0054  -0.0081   0.00    0.0   -0.00146   -0.00756   -0.01327   0.00000  0.00000  0.00000  0.00000  0.00000  0.00000
2082   6990.000  -2279829.0837   5004706.4576   3219777.3707   6  15   0.0151   0.0136   0.0068   0.0089   0.0054  -0.0081   0.00    0.0   -0.01000    0.00379   -0.00340   0.00000  0.00000  0.00000  0.00000  0.00000  0.00000
2082   7020.000  -2279829.0837   5004706.4574   3219777.3706   6  15   0.0150   0.0136   0.0068   0.0088   0.0054  -0.0081   0.00    0.0    0.00061    0.02280   -0.01493   0.00000  0.00000  0.00000  0.00000  0.00000  0.00000
2082   7050.000  -2279829.0834   5004706.4573   3219777.3705   6  15   0.0149   0.0135   0.0068   0.0087   0.0054  -0.0080   0.00    0.0    0.01023   -0.02479   -0.01710   0.00000  0.00000  0.00000  0.00000  0.00000  0.00000
2082   7080.000  -2279829.0830   5004706.4571   3219777.3702   6  15   0.0149   0.0134   0.0067   0.0087   0.0054  -0.0080   0.00    0.0   -0.00399   -0.01513    0.00551   0.00000  0.00000  0.00000  0.00000  0.00000  0.00000
2082   7110.000  -2279829.0818   5004706.4582   3219777.3700   6  15   0.0148   0.0133   0.0067   0.0086   0.0054  -0.0080   0.00    0.0    0.01771    0.00492   -0.00008   0.00000  0.00000  0.00000  0.00000  0.00000  0.00000
2082   7140.000  -2279829.0810   5004706.4596   3219777.3699   6  13   0.0147   0.0132   0.0067   0.0085   0.0054  -0.0079   0.00    0.0    0.01513   -0.02526   -0.03689   0.00000  0.00000  0.00000  0.00000  0.00000  0.00000
2082   7170.000  -2279829.0804   5004706.4601   3219777.3699   6  15   0.0147   0.0132   0.0067   0.0084   0.0054  -0.0079   0.00    0.0    0.01775   -0.01599   -0.00057   0.00000  0.00000  0.00000  0.00000  0.00000  0.00000
2082   7200.000  -2279829.0799   5004706.4604   3219777.3698   6  15   0.0146   0.0131   0.0066   0.0084   0.0054  -0.0079   0.00    0.0   -0.00434    0.00141    0.00356   0.00000  0.00000  0.00000  0.00000  0.00000  0.00000
2082   7230.000  -2279829.0799   5004706.4603   3219777.3698   6  15   0.0145   0.0130   0.0066   0.0083   0.0054  -0.0078   0.00    0.0    0.00085   -0.01045    0.00954   0.00000  0.00000  0.00000  0.00000  0.00000  0.00000
2082   7260.000  -2279829.0798   5004706.4602   3219777.3697   6  15   0.0145   0.0129   0.0066   0.0082   0.0054  -0.0078   0.00    0.0   -0.00275    0.00952    0.01663   0.00000  0.00000  0.00000  0.00000  0.00000  0.00000
2082   7290.000  -2279829.0794   5004706.4606   3219777.3697   6  15   0.0144   0.0129   0.0066   0.0081   0.0054  -0.0078   0.00    0.0   -0.00921    0.03349    0.03145   0.00000  0.00000  0.00000  0.00000  0.00000  0.00000
2082   7320.000  -2279829.0793   5004706.4609   3219777.3698   6  15   0.0143   0.0128   0.0065   0.0081   0.0054  -0.0078   0.00    0.0    0.00230   -0.01729   -0.01083   0.00000  0.00000  0.00000  0.00000  0.00000  0.00000
2082   7350.000  -2279829.0791   5004706.4611   3219777.3698   6  14   0.0143   0.0127   0.0065   0.0080   0.0054  -0.0077   0.00    0.0    0.01679   -0.01027    0.00330   0.00000  0.00000  0.00000  0.00000  0.00000  0.00000
2082   7380.000  -2279829.0793   5004706.4614   3219777.3700   6  15   0.0142   0.0127   0.0065   0.0079   0.0054  -0.0077   0.00    0.0   -0.01838    0.01073    0.01985   0.00000  0.00000  0.00000  0.00000  0.00000  0.00000
2082   7410.000  -2279829.0793   5004706.4618   3219777.3703   6  15   0.0141   0.0126   0.0065   0.0079   0.0054  -0.0077   0.00    0.0   -0.00364   -0.00014   -0.00241   0.00000  0.00000  0.00000  0.00000  0.00000  0.00000
2082   7440.000  -2279829.0796   5004706.4619   3219777.3705   6  15   0.0141   0.0125   0.0065   0.0078   0.0054  -0.0076   0.00    0.0    0.01620   -0.00607   -0.00829   0.00000  0.00000  0.00000  0.00000  0.00000  0.00000
2082   7470.000  -2279829.0798   5004706.4620   3219777.3709   6  15   0.0140   0.0124   0.0064   0.0077   0.0054  -0.0076   0.00    0.0    0.01166   -0.01083   -0.03597   0.00000  0.00000  0.00000  0.00000  0.00000  0.00000
2082   7500.000  -2279829.0800   5004706.4621   3219777.3711   6  15   0.0140   0.0124   0.0064   0.0077   0.0054  -0.0076   0.00    0.0   -0.00748    0.01747    0.00494   0.00000  0.00000  0.00000  0.00000  0.00000  0.00000
2082   7530.000  -2279829.0801   5004706.4629   3219777.3715   6  15   0.0139   0.0123   0.0064   0.0076   0.0054  -0.0076   0.00    0.0   -0.00546   -0.00739   -0.02368   0.00000  0.00000  0.00000  0.00000  0.00000  0.00000
2082   7560.000  -2279829.0799   5004706.4627   3219777.3713   6  14   0.0138   0.0123   0.0064   0.0075   0.0054  -0.0075   0.00    0.0   -0.00889   -0.00847   -0.00219   0.00000  0.00000  0.00000  0.00000  0.00000  0.00000
2082   7590.000  -2279829.0796   5004706.4623   3219777.3712   6  14   0.0138   0.0122   0.0064   0.0074   0.0054  -0.0075   0.00    0.0   -0.00865    0.00625    0.00805   0.00000  0.00000  0.00000  0.00000  0.00000  0.00000
2082   7620.000  -2279829.0794   5004706.4618   3219777.3710   6  14   0.0137   0.0121   0.0063   0.0074   0.0054  -0.0075   0.00    0.0   -0.00486    0.01172    0.00253   0.00000  0.00000  0.00000  0.00000  0.00000  0.00000
2082   7650.000  -2279829.0794   5004706.4617   3219777.3710   6  15   0.0137   0.0121   0.0063   0.0073   0.0054  -0.0075   0.00    0.0    0.00042   -0.02667    0.00335   0.00000  0.00000  0.00000  0.00000  0.00000  0.00000
2082   7680.000  -2279829.0792   5004706.4615   3219777.3708   6  15   0.0136   0.0120   0.0063   0.0072   0.0053  -0.0074   0.00    0.0    0.00603   -0.02389   -0.02094   0.00000  0.00000  0.00000  0.00000  0.00000  0.00000
2082   7710.000  -2279829.0791   5004706.4617   3219777.3710   6  15   0.0136   0.0119   0.0063   0.0072   0.0053  -0.0074   0.00    0.0    0.00424    0.00280    0.00381   0.00000  0.00000  0.00000  0.00000  0.00000  0.00000
2082   7740.000  -2279829.0786   5004706.4617   3219777.3709   6  15   0.0135   0.0119   0.0063   0.0071   0.0053  -0.0074   0.00    0.0   -0.00071    0.00671   -0.00634   0.00000  0.00000  0.00000  0.00000  0.00000  0.00000
2082   7770.000  -2279829.0787   5004706.4613   3219777.3707   6  14   0.0134   0.0118   0.0062   0.0071   0.0053  -0.0074   0.00    0.0   -0.00357   -0.01610   -0.00314   0.00000  0.00000  0.00000  0.00000  0.00000  0.00000
2082   7800.000  -2279829.0788   5004706.4615   3219777.3709   6  14   0.0134   0.0118   0.0062   0.0070   0.0053  -0.0073   0.00    0.0    0.00074   -0.00276   -0.00598   0.00000  0.00000  0.00000  0.00000  0.00000  0.00000
2082   7830.000  -2279829.0792   5004706.4620   3219777.3714   6  14   0.0133   0.0117   0.0062   0.0069   0.0053  -0.0073   0.00    0.0    0.01275   -0.00331   -0.00339   0.00000  0.00000  0.00000  0.00000  0.00000  0.00000
2082   7860.000  -2279829.0796   5004706.4625   3219777.3718   6  14   0.0133   0.0116   0.0062   0.0068   0.0053  -0.0073   0.00    0.0   -0.00397   -0.00920    0.00489   0.00000  0.00000  0.00000  0.00000  0.00000  0.00000
2082   7890.000  -2279829.0798   5004706.4629   3219777.3722   6  14   0.0132   0.0116   0.0062   0.0068   0.0053  -0.0073   0.00    0.0   -0.01254    0.00163    0.00851   0.00000  0.00000  0.00000  0.00000  0.00000  0.00000
