% program   : GINav v0.1.0
% obs start : 2018/12/19 03:56:15.0
% obs end   : 2018/12/19 04:16:56.0
% mode      : SPP/INS TC
% system    : GPS GLONASS GALILEO BDS QZSS
% nfreqs    : 1
% elev mask : 15.0 deg
% ephemeris : broadcast
% ionos opt : broadcast model
% trops opt : Saastamoinen model
%
%  GPST              x-ecef(m)      y-ecef(m)      z-ecef(m)   Q  ns   sdx(m)   sdy(m)   sdz(m)  sdxy(m)  sdyz(m)  sdzx(m) age(s)  ratio    vx(m/s)    vy(m/s)    vz(m/s)      sdvx     sdvy     sdvz    sdvxy    sdvyz    sdvzx pitch(deg)  roll(deg)   yaw(deg)       sdp      sdr      sdy     sdpr     sdry     sdyp
2032 273386.000  -3963421.9264   3350879.4741   3694868.9476   3   0  27.8149  26.8882  29.8900 -12.2579   1.1027  -1.1992   0.00    0.0    1.43235    0.01305    1.58090  10.00000 10.00000 10.00000  0.00000  0.00000  0.00000    0.00000    0.00000  334.00882   0.30000  0.30000  0.50000  0.00000  0.00000  0.00000
2032 273387.000  -3963419.9664   3350879.5171   3694869.7470   5  21   0.4801   0.5807   0.4594  -0.4433   0.3242  -0.3887   0.00    0.0    2.05435   -0.06096    2.24737   0.03726  0.03967  0.04057 -0.03148  0.02883 -0.03282    0.16735    0.34389  334.53827   0.30004  0.30004  0.50003 -0.00002  0.00069 -0.00308
2032 273388.000  -3963417.8069   3350879.5972   3694872.2021   5  21   0.3398   0.4109   0.3252  -0.3137   0.2295  -0.2751   0.00    0.0    2.31750   -0.04881    2.55896   0.02787  0.03080  0.03066 -0.02106  0.01759 -0.02183    0.52515   -0.77384  333.42568   0.17294  0.16315  0.49850 -0.08053  0.09991  0.02875
2032 273389.000  -3963415.3758   3350879.8112   3694874.7824   5  21   0.2780   0.3361   0.2662  -0.2566   0.1879  -0.2252   0.00    0.0    2.51023    0.06590    2.69738   0.02403  0.02752  0.02706 -0.01683  0.01214 -0.01753    0.51692   -0.96801  332.22795   0.10989  0.10415  0.49824 -0.05160  0.09153 -0.01937
2032 273390.000  -3963412.7351   3350879.8192   3694877.3589   5  20   0.2451   0.2987   0.2322  -0.2286   0.1664  -0.1974   0.00    0.0    2.46207    0.12199    2.58847   0.02229  0.02648  0.02503 -0.01605  0.01053 -0.01597    0.48650   -0.92801  330.96949   0.08459  0.08083  0.49619 -0.03583  0.07423 -0.02175
2032 273391.000  -3963410.1314   3350879.9999   3694879.8152   5  20   0.2224   0.2725   0.2093  -0.2089   0.1516  -0.1785   0.00    0.0    2.51389    0.19847    2.56921   0.02149  0.02556  0.02386 -0.01610  0.01104 -0.01573    0.99847   -0.72639  329.81826   0.07260  0.07033  0.49464 -0.02611  0.06375 -0.02701
2032 273392.000  -3963407.3487   3350880.1485   3694882.4816   5  20   0.2058   0.2529   0.1928  -0.1940   0.1406  -0.1647   0.00    0.0    2.78381    0.29225    2.77092   0.02111  0.02486  0.02314 -0.01643  0.01200 -0.01596    0.98714   -0.73245  328.59945   0.06669  0.06538  0.49405 -0.02031  0.06257 -0.03758
2032 273393.000  -3963404.2903   3350880.4908   3694885.3950   5  21   0.1909   0.2336   0.1801  -0.1790   0.1303  -0.1533   0.00    0.0    3.01122    0.40487    2.96956   0.02058  0.02346  0.02262 -0.01604  0.01266 -0.01613    1.06098   -0.70633  327.60008   0.06344  0.06274  0.49343 -0.01622  0.06234 -0.04456
2032 273394.000  -3963401.1082   3350880.9797   3694888.4271   5  21   0.1794   0.2186   0.1702  -0.1673   0.1224  -0.1444   0.00    0.0    3.09601    0.45276    2.99604   0.02012  0.02251  0.02213 -0.01577  0.01304 -0.01616    0.98621   -1.05506  326.92873   0.06176  0.06128  0.49293 -0.01341  0.05933 -0.04556
2032 273395.000  -3963397.7868   3350881.8285   3694891.0845   5  22   0.1698   0.2061   0.1604  -0.1586   0.1177  -0.1361   0.00    0.0    3.09115    0.45106    3.01506   0.01945  0.02174  0.02115 -0.01565  0.01340 -0.01560    0.93112   -0.97925  327.12008   0.06071  0.06035  0.49163 -0.01060  0.05489 -0.04181
2032 273396.000  -3963394.4460   3350882.4194   3694893.7696   5  21   0.1632   0.1986   0.1528  -0.1535   0.1146  -0.1300   0.00    0.0    2.93929    0.40607    2.85934   0.01912  0.02183  0.02049 -0.01581  0.01348 -0.01526    0.76991   -1.02754  327.49437   0.06022  0.05983  0.48550 -0.00856  0.04695 -0.03233
2032 273397.000  -3963391.4115   3350883.0154   3694896.2657   5  22   0.1578   0.1916   0.1459  -0.1492   0.1132  -0.1251   0.00    0.0    2.71333    0.35846    2.65652   0.01874  0.02173  0.01962 -0.01583  0.01358 -0.01474    1.10872   -0.98950  327.88403   0.05992  0.05952  0.47226 -0.00642  0.03387 -0.00517
2032 273398.000  -3963388.7818   3350883.3832   3694898.9639   5  22   0.1553   0.1880   0.1435  -0.1460   0.1107  -0.1228   0.00    0.0    2.45977    0.31204    2.45182   0.01842  0.02163  0.01905 -0.01569  0.01346 -0.01433    0.95902   -0.85996  328.15949   0.05990  0.05941  0.45580 -0.00549  0.00909  0.03013
2032 273399.000  -3963386.4282   3350883.7383   3694901.3413   5  22   0.1532   0.1844   0.1414  -0.1433   0.1090  -0.1209   0.00    0.0    2.34816    0.28567    2.35604   0.01809  0.02114  0.01851 -0.01548  0.01336 -0.01386    1.35335   -0.76175  328.52585   0.06000  0.05944  0.44631 -0.00567 -0.02642  0.03982
2032 273400.000  -3963383.8216   3350884.0896   3694903.9488   5  22   0.1514   0.1812   0.1396  -0.1409   0.1078  -0.1193   0.00    0.0    2.47238    0.31692    2.49546   0.01779  0.02057  0.01801 -0.01520  0.01320 -0.01339    1.01254   -0.87996  328.59018   0.06011  0.05948  0.44437 -0.00619 -0.03336  0.04478
2032 273401.000  -3963381.3543   3350884.4682   3694906.5142   5  22   0.1493   0.1785   0.1377  -0.1387   0.1065  -0.1177   0.00    0.0    2.29477    0.27930    2.34600   0.01744  0.02029  0.01767 -0.01481  0.01277 -0.01295    1.03760   -0.93643  328.78629   0.06024  0.05956  0.44121 -0.00710 -0.04046  0.04985
2032 273402.000  -3963379.0721   3350884.7681   3694908.8508   5  22   0.1477   0.1762   0.1361  -0.1369   0.1055  -0.1164   0.00    0.0    2.23602    0.21391    2.35544   0.01715  0.01990  0.01733 -0.01444  0.01240 -0.01250    1.10253   -0.90476  329.84792   0.06033  0.05961  0.43985 -0.00793 -0.04409  0.05434
2032 273403.000  -3963376.7351   3350885.0518   3694911.3272   5  23   0.1451   0.1718   0.1346  -0.1334   0.1036  -0.1146   0.00    0.0    2.32312    0.18563    2.49277   0.01669  0.01912  0.01698 -0.01364  0.01188 -0.01202    0.80696   -0.86605  330.35763   0.06031  0.05954  0.43866 -0.00815 -0.04368  0.05755
2032 273404.000  -3963374.1731   3350885.2498   3694913.9968   5  24   0.1423   0.1679   0.1328  -0.1299   0.1015  -0.1126   0.00    0.0    2.72962    0.28315    2.83053   0.01627  0.01873  0.01661 -0.01284  0.01108 -0.01158    1.03581   -0.39264  328.76174   0.06012  0.05933  0.42935 -0.00731 -0.03397  0.05552
2032 273405.000  -3963371.0895   3350885.8405   3694916.9623   5  24   0.1399   0.1644   0.1312  -0.1270   0.0996  -0.1108   0.00    0.0    3.27947    0.53878    3.09300   0.01593  0.01861  0.01656 -0.01216  0.00996 -0.01130    0.67514   -1.15309  324.25042   0.05986  0.05922  0.40982 -0.00624 -0.01287  0.04771
2032 273406.000  -3963367.5184   3350886.5658   3694920.1997   5  23   0.1378   0.1615   0.1301  -0.1244   0.0981  -0.1095   0.00    0.0    3.75215    0.75501    3.37373   0.01560  0.01843  0.01656 -0.01169  0.00903 -0.01101    0.09811   -1.38379  322.34519   0.05960  0.05912  0.38676 -0.00584  0.02515  0.03356
2032 273407.000  -3963363.4221   3350887.2936   3694923.8639   5  25   0.1357   0.1588   0.1288  -0.1221   0.0968  -0.1079   0.00    0.0    4.09797    0.68039    3.72353   0.01520  0.01803  0.01580 -0.01126  0.00903 -0.01039   -0.52461   -1.42012  323.43712   0.05935  0.05903  0.36652 -0.00575  0.03715  0.00897
2032 273408.000  -3963359.2097   3350887.9719   3694927.8083   5  23   0.1349   0.1582   0.1279  -0.1216   0.0965  -0.1072   0.00    0.0    4.07356    0.53219    3.82436   0.01498  0.01763  0.01527 -0.01130  0.00929 -0.00992   -1.21243   -1.36467  324.64883   0.05924  0.05899  0.36117 -0.00616  0.04327 -0.01887
2032 273409.000  -3963355.0353   3350888.5369   3694931.7023   5  22   0.1342   0.1577   0.1270  -0.1212   0.0961  -0.1066   0.00    0.0    4.08208    0.47601    3.78495   0.01477  0.01738  0.01507 -0.01125  0.00913 -0.00968   -0.99049   -1.28988  324.69465   0.05914  0.05898  0.36067 -0.00639  0.04642 -0.02299
2032 273410.000  -3963350.8846   3350889.0403   3694935.5554   5  22   0.1337   0.1574   0.1263  -0.1209   0.0959  -0.1061   0.00    0.0    4.07260    0.49060    3.78826   0.01459  0.01724  0.01492 -0.01112  0.00888 -0.00949   -1.50799   -1.36402  324.34182   0.05901  0.05892  0.36102 -0.00633  0.04764 -0.02381
2032 273411.000  -3963346.6925   3350889.5960   3694939.3416   5  23   0.1333   0.1570   0.1255  -0.1207   0.0961  -0.1058   0.00    0.0    4.08815    0.50954    3.77706   0.01444  0.01708  0.01475 -0.01086  0.00868 -0.00944   -1.39216   -1.41299  324.40269   0.05885  0.05885  0.36088 -0.00619  0.04756 -0.02252
2032 273412.000  -3963342.5886   3350890.1180   3694943.1347   5  25   0.1327   0.1566   0.1244  -0.1205   0.0965  -0.1053   0.00    0.0    4.19638    0.45209    3.93124   0.01422  0.01677  0.01421 -0.01070  0.00885 -0.00925   -1.36415   -1.09882  325.22050   0.05862  0.05882  0.36098 -0.00578  0.04815 -0.02093
2032 273413.000  -3963338.1560   3350890.6228   3694947.2636   5  26   0.1322   0.1562   0.1233  -0.1203   0.0968  -0.1048   0.00    0.0    4.54098    0.53084    4.25038   0.01404  0.01650  0.01364 -0.01052  0.00891 -0.00908   -1.23702   -1.49966  325.09104   0.05848  0.05884  0.36116 -0.00580  0.04990 -0.02419
2032 273414.000  -3963333.3655   3350891.2703   3694951.6372   5  25   0.1315   0.1557   0.1221  -0.1199   0.0971  -0.1042   0.00    0.0    4.92852    0.73362    4.38029   0.01390  0.01626  0.01336 -0.01035  0.00879 -0.00893   -1.52383   -1.14100  323.17591   0.05845  0.05887  0.35981 -0.00620  0.05083 -0.03030
2032 273415.000  -3963328.1955   3350892.2115   3694956.0179   5  24   0.1310   0.1554   0.1213  -0.1197   0.0972  -0.1038   0.00    0.0    5.21504    0.98672    4.48156   0.01382  0.01603  0.01329 -0.01016  0.00861 -0.00883   -1.56026   -1.28311  321.53791   0.05846  0.05883  0.35698 -0.00675  0.05039 -0.03621
2032 273416.000  -3963322.7635   3350893.1697   3694960.5839   5  24   0.1308   0.1551   0.1208  -0.1196   0.0975  -0.1037   0.00    0.0    5.42548    0.92465    4.62849   0.01369  0.01585  0.01311 -0.00997  0.00853 -0.00885   -2.06474   -1.43223  322.07189   0.05847  0.05882  0.35644 -0.00712  0.05068 -0.03972
2032 273417.000  -3963317.3393   3350894.0770   3694965.1541   5  24   0.1308   0.1548   0.1203  -0.1196   0.0977  -0.1037   0.00    0.0    5.45182    0.84001    4.70667   0.01357  0.01569  0.01298 -0.00980  0.00844 -0.00880   -1.91553   -1.74071  322.90743   0.05846  0.05883  0.35687 -0.00728  0.05118 -0.04083
2032 273418.000  -3963311.7806   3350894.8609   3694969.9919   5  24   0.1306   0.1546   0.1201  -0.1194   0.0980  -0.1036   0.00    0.0    5.62443    0.73562    4.96612   0.01346  0.01555  0.01288 -0.00968  0.00832 -0.00870   -2.10316   -1.61438  323.95291   0.05845  0.05889  0.35712 -0.00743  0.05255 -0.04105
2032 273419.000  -3963305.9837   3350895.5478   3694975.0190   5  24   0.1302   0.1542   0.1196  -0.1192   0.0980  -0.1034   0.00    0.0    5.74361    0.71142    5.17580   0.01336  0.01542  0.01280 -0.00955  0.00819 -0.00858   -1.90185   -1.50462  324.57437   0.05841  0.05896  0.35703 -0.00747  0.05373 -0.04046
2032 273420.000  -3963300.1471   3350896.2896   3694980.2214   5  26   0.1296   0.1538   0.1188  -0.1188   0.0981  -0.1030   0.00    0.0    5.82523    0.73215    5.20285   0.01317  0.01529  0.01261 -0.00949  0.00812 -0.00836   -2.02078   -1.61689  324.44127   0.05836  0.05895  0.35657 -0.00719  0.05357 -0.03953
2032 273421.000  -3963294.2674   3350897.0375   3694985.4699   5  27   0.1289   0.1534   0.1180  -0.1185   0.0981  -0.1023   0.00    0.0    5.84775    0.70844    5.24939   0.01299  0.01522  0.01239 -0.00942  0.00805 -0.00809   -2.09047   -1.69874  324.76959   0.05827  0.05889  0.35473 -0.00670  0.05214 -0.03784
2032 273422.000  -3963288.3167   3350897.7843   3694990.7810   5  26   0.1291   0.1531   0.1173  -0.1183   0.0981  -0.1020   0.00    0.0    5.89143    0.68242    5.26801   0.01306  0.01521  0.01222 -0.00923  0.00792 -0.00792   -2.24431   -1.87811  324.75664   0.05819  0.05881  0.35165 -0.00606  0.04972 -0.03593
2032 273423.000  -3963282.3599   3350898.6019   3694996.1091   5  24   0.1298   0.1531   0.1172  -0.1181   0.0981  -0.1023   0.00    0.0    6.01842    0.75432    5.35655   0.01317  0.01512  0.01209 -0.00903  0.00788 -0.00785   -1.93359   -1.69901  324.61573   0.05811  0.05872  0.34964 -0.00566  0.04747 -0.03529
2032 273424.000  -3963276.2739   3350899.4300   3695001.4694   5  22   0.1304   0.1530   0.1172  -0.1178   0.0981  -0.1026   0.00    0.0    6.08121    0.81785    5.40412   0.01332  0.01517  0.01213 -0.00870  0.00759 -0.00795   -2.02353   -1.74798  324.49760   0.05802  0.05866  0.34801 -0.00557  0.04537 -0.03543
2032 273425.000  -3963270.1525   3350900.2784   3695006.8731   5  21   0.1309   0.1530   0.1176  -0.1173   0.0976  -0.1031   0.00    0.0    6.13715    0.79985    5.43018   0.01329  0.01531  0.01236 -0.00849  0.00707 -0.00812   -1.97129   -1.55794  324.61404   0.05795  0.05860  0.34630 -0.00593  0.04307 -0.03597
2032 273426.000  -3963263.9127   3350901.0417   3695012.3242   5  20   0.1317   0.1530   0.1183  -0.1169   0.0970  -0.1039   0.00    0.0    6.11586    0.78239    5.45714   0.01326  0.01551  0.01268 -0.00830  0.00640 -0.00827   -2.12234   -1.53584  324.88717   0.05788  0.05852  0.34401 -0.00621  0.04009 -0.03603
2032 273427.000  -3963257.9085   3350901.9009   3695017.5846   5  20   0.1318   0.1532   0.1192  -0.1166   0.0965  -0.1045   0.00    0.0    5.59395    0.73099    4.91283   0.01337  0.01648  0.01331 -0.00762  0.00465 -0.00877   -2.62159   -1.39527  325.01244   0.05777  0.05834  0.33064 -0.00602  0.03058 -0.03427
2032 273428.000  -3963252.5453   3350902.6886   3695022.2458   5  18   0.1317   0.1546   0.1205  -0.1160   0.0953  -0.1051   0.00    0.0    4.70721    0.68900    4.15731   0.01352  0.01888  0.01455 -0.00612 -0.00445 -0.00956   -2.92590   -1.83346  325.04964   0.05763  0.05831  0.30740 -0.00619  0.01535 -0.03128
2032 273429.000  -3963248.2238   3350903.4019   3695025.9167   5  18   0.1311   0.1565   0.1213  -0.1161   0.0949  -0.1051   0.00    0.0    3.54010    0.51952    3.13996   0.01356  0.02097  0.01559 -0.00547 -0.00708 -0.01009   -2.61971   -1.85812  326.25830   0.05739  0.05831  0.26699 -0.00621 -0.02318 -0.02165
2032 273430.000  -3963245.3896   3350903.8517   3695028.5044   5  17   0.1308   0.1591   0.1225  -0.1161   0.0942  -0.1054   0.00    0.0    2.57869    0.31911    2.29509   0.01357  0.02203  0.01601 -0.00558 -0.00764 -0.01027   -1.86879   -1.69816  326.75719   0.05711  0.05840  0.23901 -0.00703 -0.03128 -0.01295
2032 273431.000  -3963242.8884   3350904.2139   3695030.7916   5  19   0.1303   0.1608   0.1228  -0.1168   0.0948  -0.1053   0.00    0.0    2.57326    0.34613    2.36320   0.01314  0.01979  0.01484 -0.00768 -0.00060 -0.00926   -1.64761   -1.90168  327.32528   0.05679  0.05839  0.22084 -0.00754 -0.03845  0.00544
2032 273432.000  -3963240.3611   3350904.5605   3695033.0793   5  19   0.1303   0.1623   0.1232  -0.1173   0.0951  -0.1054   0.00    0.0    2.57064    0.35677    2.39180   0.01293  0.01868  0.01422 -0.00837  0.00502 -0.00872   -1.03267   -1.71940  327.35233   0.05648  0.05837  0.21439 -0.00810 -0.04264  0.01075
2032 273433.000  -3963237.7647   3350904.8628   3695035.5148   5  20   0.1299   0.1628   0.1235  -0.1175   0.0954  -0.1053   0.00    0.0    2.47196    0.32951    2.27398   0.01282  0.01786  0.01391 -0.00865  0.00615 -0.00848   -0.99130   -1.38043  326.81841   0.05618  0.05827  0.21156 -0.00883 -0.04586  0.01220
2032 273434.000  -3963235.6895   3350905.2739   3695037.4044   5  21   0.1298   0.1620   0.1235  -0.1179   0.0963  -0.1053   0.00    0.0    1.47845    0.24670    1.36959   0.01289  0.01765  0.01392 -0.00881  0.00677 -0.00865   -1.11015   -1.41376  325.83424   0.05588  0.05828  0.20512 -0.00965 -0.04918  0.01428
2032 273435.000  -3963234.6777   3350905.5463   3695038.3568   5  21   0.1294   0.1613   0.1234  -0.1180   0.0968  -0.1050   0.00    0.0    0.56259    0.08915    0.57222   0.01291  0.01739  0.01393 -0.00895  0.00716 -0.00875   -0.52371   -1.48072  325.20204   0.05562  0.05839  0.19843 -0.01074 -0.05150  0.01702
2032 273436.000  -3963234.0953   3350905.6661   3695038.8110   5  20   0.1301   0.1619   0.1244  -0.1192   0.0987  -0.1058   0.00    0.0    0.61015    0.10710    0.60283   0.01288  0.01655  0.01351 -0.00923  0.00781 -0.00837    0.32565   -1.16615  324.79598   0.05547  0.05844  0.19781 -0.01162 -0.05306  0.01893
2032 273437.000  -3963233.3904   3350905.8447   3695039.4545   5  20   0.1307   0.1618   0.1248  -0.1198   0.0992  -0.1062   0.00    0.0    0.59645    0.11242    0.59460   0.01292  0.01616  0.01329 -0.00925  0.00784 -0.00819    0.44189   -1.02077  324.30775   0.05539  0.05841  0.19848 -0.01228 -0.05373  0.02018
2032 273438.000  -3963233.2177   3350905.9382   3695039.5624   5  20   0.1311   0.1618   0.1251  -0.1204   0.0999  -0.1064   0.00    0.0    0.04856   -0.03123    0.07618   0.01299  0.01602  0.01325 -0.00930  0.00787 -0.00820    0.92296   -0.95719  324.13246   0.05536  0.05841  0.19915 -0.01290 -0.05441  0.02158
2032 273439.000  -3963233.1301   3350905.9092   3695039.5220   5  22   0.1305   0.1590   0.1245  -0.1188   0.0990  -0.1058   0.00    0.0    0.02357   -0.03235    0.06035   0.01293  0.01560  0.01297 -0.00894  0.00771 -0.00808    0.83890   -0.96317  324.11699   0.05534  0.05825  0.19945 -0.01324 -0.05411  0.02190
2032 273440.000  -3963233.0802   3350905.8688   3695039.5326   5  22   0.1298   0.1566   0.1240  -0.1174   0.0982  -0.1053   0.00    0.0    0.01372   -0.03852    0.05603   0.01290  0.01538  0.01280 -0.00860  0.00744 -0.00803    0.85802   -0.95502  324.06014   0.05535  0.05802  0.19852 -0.01333 -0.05284  0.02118
2032 273441.000  -3963233.0709   3350905.8654   3695039.5599   5  25   0.1289   0.1548   0.1228  -0.1164   0.0983  -0.1045   0.00    0.0    0.00631   -0.04644    0.04722   0.01267  0.01517  0.01255 -0.00829  0.00740 -0.00792    0.87792   -0.95339  323.99598   0.05537  0.05770  0.19602 -0.01315 -0.05061  0.01909
2032 273442.000  -3963232.9914   3350905.7981   3695039.5370   5  26   0.1276   0.1526   0.1218  -0.1151   0.0980  -0.1035   0.00    0.0   -0.00231   -0.05031    0.03784   0.01243  0.01497  0.01233 -0.00812  0.00742 -0.00773    0.89130   -0.96557  323.86779   0.05541  0.05736  0.19252 -0.01286 -0.04778  0.01602
2032 273443.000  -3963232.9706   3350905.7740   3695039.5339   5  27   0.1267   0.1512   0.1207  -0.1144   0.0981  -0.1027   0.00    0.0   -0.00634   -0.05445    0.02283   0.01225  0.01482  0.01208 -0.00805  0.00749 -0.00751    0.90862   -0.97434  323.74310   0.05547  0.05706  0.18879 -0.01258 -0.04482  0.01189
2032 273444.000  -3963232.9465   3350905.7158   3695039.5356   5  27   0.1258   0.1494   0.1199  -0.1133   0.0980  -0.1019   0.00    0.0   -0.01363   -0.05565    0.01152   0.01210  0.01470  0.01192 -0.00799  0.00752 -0.00734    0.90996   -0.98050  323.62060   0.05554  0.05681  0.18543 -0.01236 -0.04201  0.00589
2032 273445.000  -3963232.9427   3350905.7089   3695039.5224   5  27   0.1246   0.1478   0.1188  -0.1122   0.0974  -0.1008   0.00    0.0   -0.02046   -0.05279    0.00633   0.01198  0.01459  0.01180 -0.00795  0.00753 -0.00719    0.91459   -1.00121  323.52155   0.05561  0.05660  0.18259 -0.01222 -0.03938 -0.00803
2032 273446.000  -3963232.8864   3350905.6482   3695039.4881   5  26   0.1239   0.1463   0.1178  -0.1113   0.0971  -0.1001   0.00    0.0   -0.02381   -0.05437   -0.00484   0.01195  0.01450  0.01174 -0.00790  0.00752 -0.00714    0.92770   -1.01938  323.43115   0.05569  0.05644  0.18046 -0.01215 -0.03709 -0.01240
2032 273447.000  -3963232.8995   3350905.6181   3695039.4922   5  27   0.1229   0.1449   0.1168  -0.1103   0.0966  -0.0991   0.00    0.0   -0.03288   -0.05218   -0.01353   0.01187  0.01442  0.01166 -0.00791  0.00755 -0.00703    0.93621   -1.03198  323.35246   0.05576  0.05630  0.17882 -0.01211 -0.03491 -0.01540
2032 273448.000  -3963232.8856   3350905.5905   3695039.4663   5  26   0.1222   0.1438   0.1161  -0.1096   0.0963  -0.0985   0.00    0.0   -0.03535   -0.04963   -0.01783   0.01187  0.01436  0.01164 -0.00790  0.00757 -0.00702    0.94291   -1.04584  323.29697   0.05582  0.05620  0.17786 -0.01214 -0.03307 -0.01763
2032 273449.000  -3963232.8725   3350905.5410   3695039.4395   5  26   0.1218   0.1428   0.1156  -0.1090   0.0960  -0.0981   0.00    0.0   -0.03748   -0.04886   -0.02442   0.01187  0.01430  0.01163 -0.00791  0.00760 -0.00702    0.94006   -1.05577  323.25775   0.05588  0.05611  0.17740 -0.01220 -0.03145 -0.01940
2032 273450.000  -3963232.8643   3350905.4936   3695039.4031   5  26   0.1214   0.1420   0.1154  -0.1084   0.0959  -0.0977   0.00    0.0   -0.03858   -0.05142   -0.02848   0.01187  0.01427  0.01163 -0.00792  0.00765 -0.00702    0.94189   -1.05679  323.22825   0.05592  0.05604  0.17736 -0.01230 -0.03002 -0.02082
2032 273451.000  -3963232.8522   3350905.4625   3695039.3846   5  27   0.1207   0.1411   0.1147  -0.1077   0.0955  -0.0971   0.00    0.0   -0.03980   -0.05088   -0.03255   0.01183  0.01422  0.01159 -0.00796  0.00769 -0.00697    0.93634   -1.05412  323.19615   0.05595  0.05597  0.17767 -0.01243 -0.02873 -0.02195
2032 273452.000  -3963232.8648   3350905.4283   3695039.3948   5  27   0.1200   0.1405   0.1143  -0.1071   0.0950  -0.0966   0.00    0.0   -0.04396   -0.05057   -0.03327   0.01180  0.01420  0.01157 -0.00799  0.00773 -0.00693    0.93474   -1.04888  323.17295   0.05597  0.05592  0.17829 -0.01258 -0.02767 -0.02285
2032 273453.000  -3963232.8794   3350905.4195   3695039.3962   5  26   0.1195   0.1398   0.1140  -0.1065   0.0947  -0.0962   0.00    0.0   -0.04531   -0.04794   -0.02955   0.01182  0.01417  0.01157 -0.00799  0.00774 -0.00696    0.93170   -1.05254  323.15169   0.05598  0.05589  0.17916 -0.01275 -0.02684 -0.02356
2032 273454.000  -3963232.8866   3350905.4253   3695039.3986   5  26   0.1191   0.1392   0.1137  -0.1059   0.0945  -0.0959   0.00    0.0   -0.04211   -0.04892   -0.03118   0.01183  0.01415  0.01158 -0.00798  0.00776 -0.00699    0.94339   -1.05156  323.13664   0.05599  0.05587  0.18019 -0.01292 -0.02617 -0.02412
2032 273455.000  -3963232.8986   3350905.4225   3695039.4119   5  26   0.1187   0.1386   0.1132  -0.1055   0.0944  -0.0956   0.00    0.0   -0.04217   -0.04736   -0.03094   0.01184  0.01413  0.01159 -0.00799  0.00777 -0.00701    0.93458   -1.06444  323.13219   0.05598  0.05586  0.18135 -0.01310 -0.02563 -0.02455
2032 273456.000  -3963232.9139   3350905.4147   3695039.4367   5  27   0.1182   0.1381   0.1128  -0.1050   0.0942  -0.0952   0.00    0.0   -0.04165   -0.04734   -0.03137   0.01181  0.01411  0.01157 -0.00800  0.00780 -0.00697    0.92483   -1.06864  323.13082   0.05597  0.05583  0.18261 -0.01328 -0.02520 -0.02487
2032 273457.000  -3963232.9519   3350905.4130   3695039.4837   5  26   0.1179   0.1376   0.1125  -0.1046   0.0941  -0.0950   0.00    0.0   -0.04109   -0.04424   -0.02924   0.01183  0.01410  0.01158 -0.00800  0.00780 -0.00700    0.90219   -1.06893  323.12918   0.05596  0.05582  0.18394 -0.01346 -0.02492 -0.02512
2032 273458.000  -3963232.9717   3350905.4341   3695039.4995   5  26   0.1178   0.1373   0.1123  -0.1044   0.0939  -0.0948   0.00    0.0   -0.03913   -0.04105   -0.02469   0.01184  0.01409  0.01158 -0.00799  0.00779 -0.00702    0.89693   -1.05868  323.13320   0.05593  0.05582  0.18532 -0.01363 -0.02472 -0.02530
2032 273459.000  -3963232.9595   3350905.4869   3695039.5480   5  27   0.1175   0.1370   0.1121  -0.1042   0.0938  -0.0945   0.00    0.0    0.05208   -0.01293    0.05582   0.01183  0.01409  0.01157 -0.00802  0.00781 -0.00700    0.97125   -1.05099  323.07535   0.05591  0.05579  0.18667 -0.01382 -0.02428 -0.02560
2032 273460.000  -3963232.6020   3350905.5497   3695039.8153   5  26   0.1176   0.1368   0.1120  -0.1041   0.0937  -0.0945   0.00    0.0    0.75417    0.16515    0.64874   0.01201  0.01431  0.01171 -0.00808  0.00769 -0.00724    1.52763   -0.88080  322.53497   0.05588  0.05571  0.18593 -0.01419 -0.02124 -0.02686
2032 273461.000  -3963231.2873   3350906.0194   3695040.9807   5  25   0.1178   0.1367   0.1120  -0.1042   0.0937  -0.0945   0.00    0.0    1.55626    0.51010    1.30267   0.01232  0.01465  0.01192 -0.00826  0.00747 -0.00748    1.50213   -0.42816  318.91410   0.05589  0.05557  0.18184 -0.01466 -0.01537 -0.02882
2032 273462.000  -3963229.4320   3350906.7682   3695042.2396   5  25   0.1180   0.1366   0.1118  -0.1043   0.0937  -0.0944   0.00    0.0    1.71251    0.79094    1.19577   0.01239  0.01457  0.01177 -0.00853  0.00768 -0.00723    1.45920   -0.63068  311.53754   0.05586  0.05533  0.18044 -0.01493 -0.01355 -0.03142
2032 273463.000  -3963228.0081   3350907.7254   3695043.1493   5  25   0.1181   0.1366   0.1116  -0.1044   0.0938  -0.0943   0.00    0.0    1.82188    1.14487    0.99466   0.01265  0.01483  0.01173 -0.00871  0.00771 -0.00680    2.08347   -0.75182  302.64229   0.05541  0.05453  0.18012 -0.01461 -0.01776 -0.03376
2032 273464.000  -3963226.0538   3350909.3436   3695043.9594   5  26   0.1185   0.1366   0.1114  -0.1046   0.0938  -0.0942   0.00    0.0    2.22962    2.02156    0.74252   0.01353  0.01537  0.01186 -0.00886  0.00737 -0.00589    2.04688   -0.06106  288.69796   0.05349  0.05236  0.17817 -0.01269 -0.02826 -0.03514
2032 273465.000  -3963223.4942   3350912.0001   3695044.4412   5  25   0.1194   0.1369   0.1115  -0.1052   0.0942  -0.0944   0.00    0.0    2.59754    3.35290   -0.13459   0.01508  0.01617  0.01233 -0.00827  0.00682 -0.00427    1.30475    0.76235  269.41820   0.04836  0.04803  0.17324 -0.00867 -0.04211 -0.03005
2032 273466.000  -3963221.0108   3350916.0848   3695043.6147   5  24   0.1209   0.1386   0.1115  -0.1070   0.0952  -0.0948   0.00    0.0    2.22995    4.65075   -1.75517   0.01624  0.01706  0.01283 -0.00746  0.00522 -0.00376    0.72906   -0.54193  248.43984   0.04014  0.04216  0.16699 -0.00683 -0.05173  0.00522
2032 273467.000  -3963218.9385   3350920.9304   3695041.4424   5  24   0.1226   0.1403   0.1117  -0.1089   0.0961  -0.0956   0.00    0.0    1.99995    5.43969   -2.69807   0.01636  0.01716  0.01330 -0.00754  0.00382 -0.00377    0.80541   -1.62216  239.23204   0.03230  0.03615  0.16603 -0.00851 -0.05501  0.02370
2032 273468.000  -3963216.9313   3350926.7532   3695038.4914   5  22   0.1244   0.1435   0.1137  -0.1115   0.0991  -0.0970   0.00    0.0    2.17576    6.26629   -3.19347   0.01627  0.01702  0.01357 -0.00764  0.00477 -0.00338    1.14450   -2.19569  237.72237   0.02646  0.03167  0.16739 -0.00843 -0.05514  0.02438
2032 273469.000  -3963214.6085   3350933.4201   3695035.1664   5  22   0.1263   0.1468   0.1159  -0.1142   0.1024  -0.0986   0.00    0.0    2.40890    7.09684   -3.61954   0.01595  0.01688  0.01351 -0.00784  0.00589 -0.00388    1.09150   -1.55475  236.83804   0.02256  0.02823  0.16825 -0.00715 -0.05395  0.02158
2032 273470.000  -3963212.1032   3350941.0205   3695031.2876   5  23   0.1282   0.1500   0.1176  -0.1170   0.1053  -0.1004   0.00    0.0    2.64058    7.97915   -4.19128   0.01546  0.01671  0.01319 -0.00826  0.00662 -0.00502    0.94842   -1.16657  235.78635   0.02010  0.02567  0.16857 -0.00557 -0.05243  0.01773
2032 273471.000  -3963209.2867   3350949.5338   3695026.8740   5  23   0.1302   0.1530   0.1193  -0.1196   0.1080  -0.1022   0.00    0.0    2.87143    8.66467   -4.48247   0.01513  0.01659  0.01290 -0.00856  0.00723 -0.00566    0.81402   -1.17621  235.71295   0.01864  0.02377  0.16763 -0.00363 -0.05012  0.01247
2032 273472.000  -3963206.2967   3350958.4954   3695022.3232   5  25   0.1308   0.1547   0.1198  -0.1211   0.1096  -0.1029   0.00    0.0    2.95655    8.98899   -4.52264   0.01467  0.01618  0.01270 -0.00871  0.00763 -0.00594    1.13532   -1.47429  235.61093   0.01782  0.02198  0.16418  0.00136 -0.04633  0.00403
2032 273473.000  -3963203.3737   3350967.5899   3695017.5708   5  26   0.1303   0.1537   0.1184  -0.1208   0.1084  -0.1022   0.00    0.0    3.14908    9.33121   -4.83267   0.01419  0.01574  0.01239 -0.00879  0.00774 -0.00629    0.62049   -1.52499  235.83050   0.01750  0.02077  0.16059  0.00298 -0.04282 -0.00859
2032 273474.000  -3963200.1670   3350977.2559   3695012.5727   5  25   0.1298   0.1537   0.1172  -0.1208   0.1078  -0.1016   0.00    0.0    3.35885    9.81822   -4.99431   0.01382  0.01563  0.01211 -0.00879  0.00787 -0.00652    0.73534   -1.42093  236.41202   0.01750  0.02005  0.15733  0.00335 -0.03975 -0.01129
2032 273475.000  -3963196.8544   3350987.3770   3695007.4656   5  25   0.1293   0.1539   0.1164  -0.1208   0.1075  -0.1012   0.00    0.0    3.54117   10.13674   -5.20708   0.01353  0.01555  0.01197 -0.00880  0.00810 -0.00661    0.36397   -1.49128  236.70308   0.01766  0.01965  0.15429  0.00338 -0.03692 -0.01226
2032 273476.000  -3963193.3329   3350997.7030   3695002.1772   5  25   0.1290   0.1538   0.1154  -0.1208   0.1071  -0.1007   0.00    0.0    3.62296   10.27547   -5.29515   0.01336  0.01542  0.01186 -0.00881  0.00823 -0.00658   -0.04120   -0.86028  236.80322   0.01790  0.01938  0.15069  0.00308 -0.03382 -0.01172
2032 273477.000  -3963189.8125   3351008.2218   3694996.8082   5  27   0.1267   0.1515   0.1146  -0.1183   0.1055  -0.0994   0.00    0.0    3.64539   10.35608   -5.43270   0.01292  0.01511  0.01190 -0.00849  0.00839 -0.00653    0.00782   -1.32682  236.83316   0.01817  0.01927  0.14709  0.00247 -0.03073 -0.00945
2032 273478.000  -3963186.1918   3351018.6590   3694991.3286   5  27   0.1247   0.1491   0.1135  -0.1160   0.1038  -0.0980   0.00    0.0    3.58332   10.55886   -5.39836   0.01260  0.01480  0.01182 -0.00826  0.00832 -0.00654    0.08960   -1.22708  236.88254   0.01845  0.01925  0.14388  0.00160 -0.02772 -0.00469
2032 273479.000  -3963182.5668   3351029.3635   3694985.7723   5  28   0.1226   0.1463   0.1120  -0.1136   0.1017  -0.0964   0.00    0.0    3.48865   10.81846   -5.41470   0.01233  0.01432  0.01170 -0.00814  0.00804 -0.00656    0.69582   -0.84229  236.69244   0.01872  0.01929  0.14154 -0.00046 -0.02491  0.00748
2032 273480.000  -3963179.0727   3351040.3287   3694980.2602   5  28   0.1224   0.1459   0.1124  -0.1132   0.1009  -0.0963   0.00    0.0    3.64127   10.64405   -5.52984   0.01251  0.01443  0.01227 -0.00819  0.00747 -0.00633    0.17304   -1.46992  236.73535   0.01924  0.01951  0.14013 -0.00192 -0.02252  0.01072
2032 273481.000  -3963175.6055   3351050.9619   3694974.7520   5  28   0.1210   0.1437   0.1118  -0.1114   0.0995  -0.0954   0.00    0.0    3.52813   10.47113   -5.37315   0.01234  0.01408  0.01205 -0.00802  0.00748 -0.00633    0.33671   -1.36495  237.09828   0.01940  0.01958  0.13725 -0.00219 -0.01940  0.01550
2032 273482.000  -3963172.1962   3351061.4169   3694969.3671   5  27   0.1196   0.1418   0.1109  -0.1097   0.0981  -0.0943   0.00    0.0    3.41609   10.17386   -5.27411   0.01224  0.01382  0.01191 -0.00789  0.00743 -0.00634   -0.48221   -1.16196  236.87359   0.01963  0.01971  0.13460 -0.00229 -0.01628  0.01918
2032 273483.000  -3963168.8738   3351071.5589   3694964.0073   5  27   0.1185   0.1402   0.1099  -0.1083   0.0969  -0.0934   0.00    0.0    3.27650    9.92084   -5.15862   0.01214  0.01364  0.01177 -0.00781  0.00736 -0.00638   -0.06877   -1.63034  236.93207   0.01991  0.01984  0.13255 -0.00219 -0.01311  0.02215
2032 273484.000  -3963165.5945   3351081.4127   3694958.8561   5  27   0.1174   0.1388   0.1092  -0.1070   0.0959  -0.0924   0.00    0.0    3.27214    9.64526   -5.01551   0.01205  0.01352  0.01164 -0.00773  0.00730 -0.00644   -0.20916   -1.50922  237.28056   0.02020  0.01997  0.13121 -0.00184 -0.00950  0.02458
2032 273485.000  -3963162.3659   3351090.9946   3694953.8388   5  28   0.1163   0.1376   0.1085  -0.1059   0.0951  -0.0916   0.00    0.0    3.26126    9.55811   -4.98500   0.01189  0.01341  0.01149 -0.00772  0.00721 -0.00652   -0.16204   -1.76904  237.46336   0.02047  0.02007  0.13115 -0.00123 -0.00525  0.02649
2032 273486.000  -3963159.1274   3351100.5444   3694948.7896   5  27   0.1159   0.1366   0.1078  -0.1053   0.0943  -0.0910   0.00    0.0    3.32332    9.70913   -5.08601   0.01187  0.01334  0.01135 -0.00778  0.00710 -0.00659   -0.17590   -1.56807  237.50035   0.02069  0.02015  0.13233  0.00070  0.00326  0.02771
2032 273487.000  -3963155.7008   3351110.3405   3694943.5406   5  27   0.1157   0.1359   0.1071  -0.1048   0.0937  -0.0905   0.00    0.0    3.39123   10.01802   -5.28686   0.01190  0.01328  0.01129 -0.00780  0.00702 -0.00659   -0.27459   -1.26646  237.34167   0.02080  0.02021  0.13396  0.00118  0.00501  0.02824
2032 273488.000  -3963152.2317   3351120.4674   3694938.1776   5  27   0.1157   0.1352   0.1069  -0.1044   0.0932  -0.0903   0.00    0.0    3.48286   10.04862   -5.34001   0.01195  0.01325  0.01126 -0.00782  0.00698 -0.00655   -0.63459   -1.81250  237.50754   0.02086  0.02026  0.13560  0.00137  0.00571  0.02852
2032 273489.000  -3963148.7170   3351130.4439   3694932.8265   5  26   0.1158   0.1349   0.1065  -0.1044   0.0930  -0.0901   0.00    0.0    3.30903    9.47879   -5.05190   0.01205  0.01339  0.01125 -0.00793  0.00699 -0.00653   -1.13308   -1.64769  237.57036   0.02102  0.02034  0.13710  0.00162  0.00749  0.02953
2032 273490.000  -3963145.3813   3351139.7286   3694927.7548   5  25   0.1159   0.1346   0.1063  -0.1043   0.0928  -0.0900   0.00    0.0    3.20942    9.27962   -4.98195   0.01210  0.01343  0.01131 -0.00790  0.00689 -0.00660   -1.01444   -1.57526  237.32817   0.02117  0.02041  0.13865  0.00174  0.00869  0.03048
2032 273491.000  -3963142.2054   3351148.9229   3694922.7620   5  25   0.1161   0.1345   0.1063  -0.1043   0.0926  -0.0900   0.00    0.0    3.17380    9.10461   -5.01681   0.01214  0.01346  0.01134 -0.00790  0.00682 -0.00668   -1.06739   -1.54267  237.03646   0.02130  0.02046  0.14030  0.00184  0.00925  0.03128
2032 273492.000  -3963139.0634   3351157.9595   3694917.8408   5  22   0.1179   0.1372   0.1075  -0.1066   0.0944  -0.0911   0.00    0.0    3.16885    8.98481   -4.89230   0.01239  0.01387  0.01143 -0.00816  0.00696 -0.00666   -1.21006   -1.67487  237.45164   0.02147  0.02056  0.14203  0.00206  0.00981  0.03189
2032 273493.000  -3963135.8611   3351167.0465   3694912.9826   5  23   0.1189   0.1389   0.1077  -0.1079   0.0951  -0.0915   0.00    0.0    3.33904    9.19268   -4.97172   0.01256  0.01415  0.01148 -0.00836  0.00703 -0.00665   -1.10675   -1.69685  237.92664   0.02151  0.02062  0.14366  0.00201  0.00981  0.03184
2032 273494.000  -3963132.5017   3351176.4266   3694907.9091   5  24   0.1195   0.1404   0.1079  -0.1090   0.0958  -0.0918   0.00    0.0    3.44983    9.58146   -5.18053   0.01262  0.01431  0.01152 -0.00846  0.00722 -0.00664   -1.51447   -1.95371  237.87774   0.02135  0.02063  0.14456  0.00175  0.00863  0.03082
2032 273495.000  -3963128.9488   3351186.1936   3694902.5300   5  24   0.1201   0.1417   0.1081  -0.1101   0.0965  -0.0921   0.00    0.0    3.54102   10.01011   -5.38453   0.01269  0.01444  0.01159 -0.00853  0.00740 -0.00660   -0.88966   -2.09355  237.76879   0.02115  0.02064  0.14463  0.00117  0.00582  0.02907
2032 273496.000  -3963125.3220   3351196.3778   3694897.0840   5  25   0.1206   0.1434   0.1087  -0.1112   0.0981  -0.0928   0.00    0.0    3.75217   10.26265   -5.63611   0.01266  0.01454  0.01161 -0.00863  0.00761 -0.00659   -1.54417   -1.83001  237.94030   0.02098  0.02065  0.14431 -0.00041 -0.00383  0.02695
2032 273497.000  -3963121.7635   3351206.9060   3694891.6008   5  25   0.1209   0.1435   0.1085  -0.1114   0.0982  -0.0929   0.00    0.0    3.88376   10.20959   -5.76280   0.01257  0.01438  0.01151 -0.00859  0.00759 -0.00679   -2.24517   -2.41806  238.01875   0.02089  0.02069  0.14474 -0.00096 -0.00737  0.02525
2032 273498.000  -3963117.8643   3351217.2252   3694885.8184   5  24   0.1214   0.1444   0.1087  -0.1118   0.0986  -0.0934   0.00    0.0    3.77272   10.36994   -5.67429   0.01255  0.01458  0.01152 -0.00853  0.00768 -0.00689   -1.73335   -2.00452  237.87249   0.02084  0.02081  0.14572 -0.00123 -0.00933  0.02390
2032 273499.000  -3963114.1144   3351227.5214   3694880.2916   5  25   0.1217   0.1448   0.1084  -0.1121   0.0988  -0.0935   0.00    0.0    3.75830   10.40617   -5.66486   0.01244  0.01462  0.01147 -0.00852  0.00780 -0.00692   -1.35098   -0.80038  237.60539   0.02082  0.02085  0.14707 -0.00128 -0.01066  0.02300
2032 273500.000  -3963110.3744   3351237.9771   3694874.4149   5  24   0.1221   0.1453   0.1084  -0.1125   0.0992  -0.0938   0.00    0.0    3.78990   10.54255   -5.78047   0.01244  0.01466  0.01150 -0.00850  0.00786 -0.00696   -1.83985   -2.24911  237.58182   0.02083  0.02092  0.14852 -0.00139 -0.01192  0.02211
2032 273501.000  -3963106.6498   3351248.6056   3694868.5442   5  23   0.1234   0.1461   0.1088  -0.1132   0.0995  -0.0943   0.00    0.0    3.71362   10.50902   -5.75264   0.01259  0.01472  0.01153 -0.00854  0.00791 -0.00700   -1.34743   -1.74496  237.66231   0.02090  0.02101  0.15028 -0.00111 -0.01257  0.02184
2032 273502.000  -3963102.9109   3351259.0914   3694862.7326   5  19   0.1258   0.1473   0.1100  -0.1147   0.1002  -0.0954   0.00    0.0    3.75824   10.55397   -5.85354   0.01297  0.01485  0.01178 -0.00864  0.00789 -0.00694   -1.42298   -2.16402  237.61101   0.02110  0.02115  0.15209 -0.00069 -0.01317  0.02173
2032 273503.000  -3963099.1748   3351269.7465   3694857.0468   5  20   0.1283   0.1477   0.1110  -0.1158   0.1005  -0.0965   0.00    0.0    3.75259   10.60204   -5.92723   0.01329  0.01472  0.01194 -0.00873  0.00771 -0.00693   -2.01842   -2.76145  237.48429   0.02125  0.02121  0.15392 -0.00067 -0.01399  0.02174
2032 273504.000  -3963095.3018   3351280.4723   3694851.1728   5  20   0.1304   0.1484   0.1115  -0.1172   0.1013  -0.0972   0.00    0.0    3.65906   10.71992   -5.83068   0.01355  0.01472  0.01213 -0.00883  0.00771 -0.00689   -0.97476   -2.65424  237.15367   0.02137  0.02128  0.15580 -0.00011 -0.01473  0.02198
2032 273505.000  -3963091.5750   3351291.1906   3694845.3431   5  22   0.1319   0.1476   0.1127  -0.1170   0.1017  -0.0985   0.00    0.0    3.74558   10.79914   -5.88142   0.01369  0.01443  0.01214 -0.00864  0.00752 -0.00725   -1.13164   -1.97992  237.34276   0.02135  0.02136  0.15769 -0.00104 -0.01512  0.02201
2032 273506.000  -3963087.6933   3351302.1333   3694839.3420   5  17   0.1337   0.1490   0.1148  -0.1175   0.1026  -0.1004   0.00    0.0    3.96884   11.11296   -5.99229   0.01391  0.01476  0.01242 -0.00837  0.00722 -0.00762   -1.18630   -1.67677  237.88354   0.02142  0.02164  0.15944 -0.00211 -0.01548  0.02139
2032 273507.000  -3963083.6178   3351313.4951   3694833.1936   5  22   0.1343   0.1490   0.1154  -0.1177   0.1033  -0.1008   0.00    0.0    4.06688   11.38360   -6.13192   0.01389  0.01448  0.01232 -0.00841  0.00741 -0.00760   -1.17027   -3.04376  238.09390   0.02140  0.02159  0.16110 -0.00108 -0.01579  0.02040
2032 273508.000  -3963079.4545   3351325.0761   3694827.1185   5  19   0.1361   0.1496   0.1174  -0.1183   0.1048  -0.1024   0.00    0.0    4.05705   11.63200   -6.09391   0.01406  0.01454  0.01240 -0.00828  0.00766 -0.00777   -0.68639   -2.01503  238.08067   0.02140  0.02171  0.16281  0.00097 -0.01608  0.01954
2032 273509.000  -3963075.4712   3351336.7551   3694820.8987   5  20   0.1365   0.1501   0.1194  -0.1186   0.1063  -0.1038   0.00    0.0    3.95587   11.52570   -6.10301   0.01391  0.01460  0.01245 -0.00827  0.00792 -0.00791   -0.84244   -2.39106  237.75284   0.02144  0.02176  0.16476  0.00081 -0.01619  0.01958
2032 273510.000  -3963071.5128   3351348.1977   3694814.6995   5  21   0.1354   0.1503   0.1208  -0.1181   0.1076  -0.1046   0.00    0.0    3.86221   11.35029   -6.02474   0.01358  0.01466  0.01250 -0.00824  0.00812 -0.00799   -0.70685   -2.50434  237.76957   0.02150  0.02179  0.16660 -0.00091 -0.01584  0.02053
2032 273511.000  -3963067.5618   3351359.4742   3694808.6475   5  22   0.1334   0.1502   0.1222  -0.1170   0.1083  -0.1048   0.00    0.0    3.87351   11.25519   -5.95719   0.01318  0.01469  0.01254 -0.00813  0.00826 -0.00802   -0.59527   -2.15546  237.93729   0.02158  0.02184  0.16831 -0.00147 -0.01508  0.02172
2032 273512.000  -3963063.6371   3351370.8268   3694802.7059   5  22   0.1318   0.1500   0.1232  -0.1162   0.1089  -0.1051   0.00    0.0    3.93326   11.23345   -6.09194   0.01289  0.01470  0.01257 -0.00805  0.00834 -0.00805   -0.91084   -1.68607  237.65780   0.02169  0.02191  0.17012 -0.00166 -0.01460  0.02274
2032 273513.000  -3963059.8361   3351382.1405   3694796.6408   5  20   0.1308   0.1502   0.1248  -0.1155   0.1100  -0.1055   0.00    0.0    3.84796   11.30991   -6.06416   0.01275  0.01482  0.01280 -0.00789  0.00842 -0.00803   -0.79320   -2.40711  237.57889   0.02185  0.02204  0.17201 -0.00176 -0.01424  0.02353
2032 273514.000  -3963055.9256   3351393.4356   3694790.5713   5  19   0.1303   0.1507   0.1267  -0.1153   0.1112  -0.1061   0.00    0.0    3.84397   11.35157   -5.97920   0.01268  0.01493  0.01311 -0.00779  0.00846 -0.00798   -0.41900   -2.26746  237.79816   0.02203  0.02214  0.17392 -0.00181 -0.01365  0.02423
2032 273515.000  -3963052.0491   3351404.6817   3694784.6303   5  21   0.1288   0.1500   0.1279  -0.1145   0.1116  -0.1061   0.00    0.0    3.84924   11.29972   -5.89665   0.01254  0.01470  0.01328 -0.00782  0.00826 -0.00794   -0.53322   -1.96432  238.02988   0.02218  0.02212  0.17577 -0.00199 -0.01247  0.02498
2032 273516.000  -3963048.0554   3351416.0257   3694778.6748   5  21   0.1276   0.1495   0.1292  -0.1138   0.1120  -0.1062   0.00    0.0    3.97678   11.44731   -5.92542   0.01244  0.01451  0.01340 -0.00783  0.00808 -0.00794   -0.37047   -1.51667  238.39025   0.02229  0.02215  0.17773 -0.00201 -0.01151  0.02522
2032 273517.000  -3963044.0258   3351427.5321   3694772.7451   5  22   0.1272   0.1492   0.1297  -0.1136   0.1122  -0.1064   0.00    0.0    4.02437   11.40645   -5.87770   0.01251  0.01436  0.01321 -0.00790  0.00793 -0.00802   -0.48518   -2.00662  238.66803   0.02232  0.02221  0.17968 -0.00184 -0.01020  0.02553
2032 273518.000  -3963039.9485   3351438.9137   3694766.9393   5  19   0.1277   0.1491   0.1310  -0.1136   0.1127  -0.1070   0.00    0.0    3.92919   11.24254   -5.81623   0.01274  0.01430  0.01333 -0.00788  0.00785 -0.00798   -0.65554   -1.68178  238.36188   0.02249  0.02233  0.18157 -0.00130 -0.00883  0.02623
2032 273519.000  -3963036.1231   3351450.0950   3694761.0990   5  18   0.1283   0.1495   0.1328  -0.1138   0.1138  -0.1078   0.00    0.0    3.76481   11.13334   -5.81681   0.01297  0.01430  0.01351 -0.00782  0.00786 -0.00789   -0.40330   -2.45527  237.86453   0.02267  0.02246  0.18345  0.00059 -0.00801  0.02717
2032 273520.000  -3963032.3053   3351461.2622   3694755.2918   5  18   0.1289   0.1493   0.1340  -0.1139   0.1141  -0.1086   0.00    0.0    3.84099   11.17739   -5.80794   0.01312  0.01428  0.01362 -0.00783  0.00768 -0.00795   -0.33176   -2.15115  238.09898   0.02282  0.02255  0.18544 -0.00059 -0.00703  0.02782
2032 273521.000  -3963028.4148   3351472.4021   3694749.4544   5  13   0.1317   0.1517   0.1375  -0.1155   0.1162  -0.1109   0.00    0.0    3.89606   11.02576   -5.69358   0.01362  0.01461  0.01408 -0.00776  0.00757 -0.00796   -0.58917   -2.18344  238.63943   0.02309  0.02279  0.18738  0.00054 -0.00497  0.02843
2032 273521.994  -3963024.4893   3351483.3380   3694743.8995   3   0   0.1404   0.1605   0.1467  -0.1216   0.1224  -0.1174   0.00    0.0    3.94845   10.85131   -5.41627   0.01512  0.01620  0.01556 -0.00755  0.00737 -0.00780   -0.52670   -2.04897  239.52370   0.02375  0.02344  0.18944  0.00049 -0.00475  0.02876
2032 273523.000  -3963023.8724   3351499.6732   3694743.4833   5   4   0.1470   0.1686   0.1546  -0.1262   0.1275  -0.1211   0.00    0.0    3.76312   11.05220   -4.81409   0.01625  0.01761  0.01683 -0.00731  0.00746 -0.00697   -0.60884   -2.31209  240.36784   0.02428  0.02388  0.19136  0.00176  0.00132  0.02909
2032 273524.000  -3963021.3404   3351510.2313   3694738.5395   5   8   0.1532   0.1724   0.1570  -0.1306   0.1279  -0.1235   0.00    0.0    3.57874   10.88727   -4.82821   0.01710  0.01833  0.01726 -0.00788  0.00699 -0.00673   -0.91083   -1.99773  240.34152   0.02454  0.02405  0.19308  0.00180  0.00735  0.02983
2032 273525.000  -3963018.1666   3351521.1724   3694733.6272   5   9   0.1572   0.1733   0.1575  -0.1330   0.1275  -0.1253   0.00    0.0    3.52091   11.02887   -4.94317   0.01721  0.01812  0.01704 -0.00846  0.00697 -0.00734   -0.76545   -1.85033  240.01249   0.02441  0.02391  0.19499  0.00201  0.01021  0.03044
2032 273526.000  -3963014.4453   3351531.9474   3694728.4435   5  11   0.1584   0.1716   0.1557  -0.1330   0.1241  -0.1252   0.00    0.0    3.40380   11.20707   -4.93214   0.01692  0.01775  0.01670 -0.00876  0.00659 -0.00794   -0.10944   -1.44542  239.85811   0.02423  0.02375  0.19704  0.00095  0.01137  0.03069
2032 273527.000  -3963010.6106   3351542.8572   3694723.2287   5  17   0.1610   0.1744   0.1557  -0.1350   0.1270  -0.1267   0.00    0.0    3.52085   11.20881   -5.08879   0.01656  0.01724  0.01552 -0.00922  0.00777 -0.00857   -0.97960   -1.56573  239.61600   0.02382  0.02352  0.19906  0.00200  0.01127  0.03050
2032 273528.000  -3963006.8613   3351553.7809   3694717.7476   5  16   0.1645   0.1773   0.1562  -0.1378   0.1301  -0.1290   0.00    0.0    3.33904   11.16795   -5.23424   0.01643  0.01696  0.01485 -0.00951  0.00835 -0.00901   -0.50027   -1.42715  238.66005   0.02371  0.02347  0.20102  0.00209  0.00987  0.03064
2032 273529.000  -3963003.3353   3351564.5736   3694712.1827   5  19   0.1675   0.1800   0.1566  -0.1407   0.1335  -0.1309   0.00    0.0    3.27071   11.14858   -5.36048   0.01619  0.01668  0.01418 -0.00995  0.00904 -0.00908   -0.46516   -2.10995  238.22280   0.02365  0.02340  0.20285  0.00241  0.00676  0.03075
2032 273530.000  -3962999.7962   3351575.4399   3694706.4501   5  20   0.1673   0.1825   0.1569  -0.1424   0.1359  -0.1321   0.00    0.0    3.18708   11.06896   -5.24406   0.01556  0.01650  0.01374 -0.01027  0.00928 -0.00917   -0.23129   -3.68465  238.53517   0.02366  0.02335  0.20485  0.00183  0.00396  0.03109
2032 273531.000  -3962996.0739   3351585.9905   3694700.8294   5  22   0.1683   0.1845   0.1567  -0.1440   0.1373  -0.1324   0.00    0.0    3.26005   10.77185   -5.22625   0.01510  0.01637  0.01329 -0.01052  0.00942 -0.00900   -0.52507   -4.70236  238.46615   0.02376  0.02336  0.20690  0.00164 -0.00195  0.03190
2032 273532.000  -3962992.3296   3351596.2618   3694695.3344   5  25   0.1673   0.1859   0.1572  -0.1442   0.1383  -0.1324   0.00    0.0    3.28936   10.51241   -5.17181   0.01444  0.01624  0.01291 -0.01046  0.00953 -0.00880   -1.10980   -4.63622  238.48040   0.02384  0.02341  0.20885  0.00138 -0.00294  0.03300
2032 273533.000  -3962988.5496   3351606.2809   3694689.9060   5  24   0.1680   0.1874   0.1580  -0.1453   0.1399  -0.1334   0.00    0.0    3.07098    9.85296   -4.81660   0.01409  0.01631  0.01287 -0.01041  0.00977 -0.00849   -1.00603   -3.74288  238.33808   0.02407  0.02352  0.20875  0.00181  0.00654  0.03515
2032 273534.000  -3962985.3988   3351615.3755   3694685.1462   5  23   0.1693   0.1886   0.1585  -0.1468   0.1410  -0.1347   0.00    0.0    2.80248    8.96318   -4.28050   0.01427  0.01633  0.01288 -0.01038  0.00982 -0.00806   -1.59124   -4.53733  239.02611   0.02442  0.02363  0.20451  0.00271  0.01279  0.03747
2032 273535.000  -3962982.2378   3351623.7663   3694680.7547   5  24   0.1713   0.1896   0.1589  -0.1481   0.1417  -0.1360   0.00    0.0    2.89076    8.57667   -3.91010   0.01440  0.01588  0.01257 -0.01016  0.00954 -0.00803   -0.71053   -3.39142  240.08910   0.02472  0.02371  0.20178  0.00389  0.01739  0.03905
2032 273536.000  -3962979.0824   3351632.0086   3694676.7678   5  24   0.1728   0.1897   0.1592  -0.1486   0.1419  -0.1368   0.00    0.0    3.05836    8.20585   -3.50453   0.01444  0.01553  0.01238 -0.00991  0.00925 -0.00801   -0.91973   -2.65240  242.52888   0.02497  0.02383  0.19942  0.00486  0.02173  0.04013
2032 273537.000  -3962975.8014   3351639.6251   3694673.3396   5  23   0.1745   0.1897   0.1594  -0.1493   0.1423  -0.1378   0.00    0.0    2.97678    7.50868   -3.06000   0.01459  0.01523  0.01240 -0.00973  0.00902 -0.00787   -0.78647   -2.03809  243.96619   0.02527  0.02400  0.19646  0.00571  0.02509  0.04133
2032 273538.000  -3962972.7144   3351646.7126   3694670.1590   5  23   0.1764   0.1906   0.1604  -0.1506   0.1431  -0.1393   0.00    0.0    2.75348    7.02674   -2.90637   0.01452  0.01496  0.01241 -0.00976  0.00876 -0.00780   -1.05043   -1.80719  243.39884   0.02559  0.02413  0.19511  0.00638  0.02725  0.04276
2032 273539.000  -3962969.9568   3351653.2254   3694667.1147   5  22   0.1780   0.1916   0.1618  -0.1518   0.1442  -0.1408   0.00    0.0    2.34239    6.41444   -2.78123   0.01445  0.01499  0.01252 -0.00977  0.00869 -0.00766   -1.01175   -1.86325  241.79480   0.02595  0.02428  0.19413  0.00688  0.02823  0.04443
2032 273540.000  -3962967.5854   3351659.1586   3694664.1488   5  22   0.1798   0.1927   0.1633  -0.1532   0.1455  -0.1425   0.00    0.0    1.89866    5.54581   -2.59968   0.01447  0.01507  0.01269 -0.00978  0.00866 -0.00745   -1.37918   -1.95506  240.04096   0.02640  0.02440  0.19172  0.00731  0.02871  0.04617
2032 273541.000  -3962965.7537   3351664.0022   3694661.5703   5  24   0.1810   0.1937   0.1638  -0.1543   0.1465  -0.1436   0.00    0.0    1.38162    4.29001   -2.06682   0.01455  0.01516  0.01279 -0.00977  0.00878 -0.00695   -1.48165   -1.76539  238.96983   0.02692  0.02451  0.18538  0.00786  0.02914  0.04765
2032 273542.000  -3962964.4416   3351667.5575   3694659.5991   5  24   0.1820   0.1947   0.1642  -0.1554   0.1474  -0.1445   0.00    0.0    0.97898    3.21012   -1.56189   0.01449  0.01522  0.01271 -0.00972  0.00889 -0.00684   -1.35199   -1.56541  238.37213   0.02746  0.02466  0.17916  0.00847  0.02989  0.04878
2032 273543.000  -3962963.4614   3351670.0828   3694658.0991   5  25   0.1832   0.1959   0.1645  -0.1569   0.1485  -0.1457   0.00    0.0    0.60037    2.13290   -1.02992   0.01443  0.01506  0.01254 -0.00971  0.00882 -0.00685   -1.40549   -1.65059  238.02680   0.02798  0.02479  0.17355  0.00917  0.03100  0.04966
2032 273544.000  -3962962.9305   3351671.4716   3694657.2658   5  25   0.1831   0.1957   0.1641  -0.1571   0.1484  -0.1459   0.00    0.0    0.22651    1.01318   -0.45036   0.01433  0.01490  0.01237 -0.00963  0.00872 -0.00685   -1.47201   -1.72211  237.91694   0.02849  0.02496  0.16890  0.00988  0.03217  0.05043
2032 273545.000  -3962962.7528   3351671.7488   3694656.9857   5  26   0.1834   0.1956   0.1639  -0.1572   0.1484  -0.1461   0.00    0.0    0.04085    0.39119   -0.14608   0.01386  0.01473  0.01203 -0.00958  0.00855 -0.00727   -1.01452   -1.71214  237.83263   0.02892  0.02511  0.16796  0.01046  0.03342  0.05147
2032 273546.000  -3962962.5824   3351671.9430   3694656.7484   5  26   0.1835   0.1955   0.1636  -0.1575   0.1486  -0.1462   0.00    0.0    0.05835    0.40250   -0.16165   0.01352  0.01455  0.01182 -0.00948  0.00838 -0.00748   -0.93037   -1.66198  237.81859   0.02907  0.02519  0.16953  0.01061  0.03389  0.05200
2032 273547.000  -3962962.4439   3351671.9833   3694656.5667   5  26   0.1837   0.1952   0.1634  -0.1578   0.1487  -0.1463   0.00    0.0    0.04579    0.29605   -0.11921   0.01345  0.01441  0.01186 -0.00937  0.00827 -0.00731   -0.86340   -1.62394  237.85576   0.02890  0.02518  0.17002  0.01033  0.03338  0.05137
2032 273548.000  -3962962.2789   3351672.0907   3694656.3954   5  26   0.1837   0.1946   0.1634  -0.1580   0.1486  -0.1466   0.00    0.0    0.00240    0.09796   -0.02687   0.01342  0.01431  0.01192 -0.00927  0.00818 -0.00711   -0.99936   -1.65480  237.86080   0.02853  0.02514  0.16921  0.00979  0.03223  0.04990
2032 273549.000  -3962962.1826   3351672.0110   3694656.2932   5  26   0.1833   0.1947   0.1634  -0.1584   0.1490  -0.1467   0.00    0.0    0.01131    0.05387   -0.01266   0.01346  0.01422  0.01203 -0.00917  0.00812 -0.00684   -0.88850   -1.63845  237.86317   0.02797  0.02505  0.16647  0.00896  0.03027  0.04738
2032 273550.000  -3962962.0544   3351671.8896   3694656.1942   5  26   0.1825   0.1943   0.1633  -0.1583   0.1490  -0.1466   0.00    0.0    0.03328    0.03719   -0.02334   0.01348  0.01414  0.01210 -0.00908  0.00807 -0.00662   -0.84270   -1.61679  237.86669   0.02734  0.02495  0.16237  0.00797  0.02772  0.04415
2032 273551.000  -3962961.9181   3351671.9172   3694656.0323   5  26   0.1832   0.1948   0.1637  -0.1593   0.1498  -0.1475   0.00    0.0    0.16119    0.37508   -0.21006   0.01364  0.01407  0.01230 -0.00898  0.00806 -0.00626   -0.65196   -1.61108  237.79587   0.02660  0.02484  0.15555  0.00670  0.02410  0.03959
2032 273552.000  -3962961.6687   3351672.3165   3694655.7104   5  26   0.1826   0.1942   0.1633  -0.1590   0.1495  -0.1470   0.00    0.0    0.33117    0.79554   -0.45417   0.01372  0.01398  0.01240 -0.00887  0.00802 -0.00597   -0.43433   -1.59103  237.67021   0.02592  0.02475  0.14725  0.00539  0.01970  0.03424
2032 273553.000  -3962961.0343   3351673.6648   3694654.8193   5  26   0.1823   0.1935   0.1631  -0.1589   0.1492  -0.1471   0.00    0.0    0.78547    2.05626   -1.12774   0.01407  0.01387  0.01279 -0.00869  0.00804 -0.00518   -0.23621   -1.77533  237.88463   0.02526  0.02469  0.13397  0.00398  0.01302  0.02658
2032 273554.000  -3962960.0773   3351676.0740   3694653.4338   5  26   0.1820   0.1934   0.1631  -0.1590   0.1493  -0.1473   0.00    0.0    1.21895    3.22597   -1.72662   0.01415  0.01380  0.01288 -0.00863  0.00801 -0.00507   -0.08553   -1.97355  238.25107   0.02488  0.02469  0.12101  0.00323 -0.00144  0.01808
2032 273555.000  -3962958.6004   3351679.6746   3694651.3625   5  26   0.1816   0.1931   0.1629  -0.1591   0.1493  -0.1473   0.00    0.0    1.50363    3.94615   -2.13030   0.01390  0.01376  0.01261 -0.00867  0.00795 -0.00575   -0.47948   -1.81544  238.20979   0.02478  0.02475  0.11271  0.00332 -0.01066  0.00897
2032 273556.000  -3962956.9883   3351683.8811   3694648.9911   5  27   0.1804   0.1926   0.1625  -0.1585   0.1490  -0.1469   0.00    0.0    1.76302    4.68189   -2.51587   0.01349  0.01373  0.01239 -0.00865  0.00792 -0.00631   -0.24001   -1.68524  238.10546   0.02481  0.02481  0.10685  0.00370 -0.01428 -0.01026
2032 273557.000  -3962954.9545   3351688.9150   3694646.1047   5  27   0.1763   0.1915   0.1613  -0.1567   0.1481  -0.1446   0.00    0.0    1.98044    5.45162   -2.91354   0.01318  0.01371  0.01222 -0.00861  0.00790 -0.00666   -0.07760   -1.33481  237.81457   0.02492  0.02490  0.10334  0.00430 -0.01647 -0.01554
2032 273558.000  -3962952.7505   3351694.4374   3694642.9421   5  26   0.1742   0.1909   0.1603  -0.1559   0.1475  -0.1436   0.00    0.0    2.03004    5.64725   -3.02699   0.01289  0.01385  0.01194 -0.00876  0.00787 -0.00707    0.02430   -1.14256  237.49161   0.02507  0.02499  0.10254  0.00476 -0.01790 -0.01818
2032 273559.000  -3962950.5769   3351699.9901   3694639.6681   5  26   0.1699   0.1898   0.1586  -0.1541   0.1464  -0.1413   0.00    0.0    1.96529    5.58078   -3.01719   0.01269  0.01399  0.01175 -0.00887  0.00786 -0.00728    0.28872   -1.26440  237.10678   0.02518  0.02508  0.10320  0.00502 -0.01871 -0.01951
2032 273560.000  -3962948.5070   3351705.5355   3694636.4882   5  24   0.1678   0.1889   0.1570  -0.1531   0.1454  -0.1396   0.00    0.0    1.95644    5.75347   -3.08994   0.01283  0.01409  0.01172 -0.00892  0.00786 -0.00737    0.56307   -1.15245  236.79369   0.02527  0.02520  0.10422  0.00520 -0.01915 -0.02019
2032 273561.000  -3962946.4238   3351711.3081   3694633.2184   5  24   0.1651   0.1868   0.1560  -0.1508   0.1440  -0.1382   0.00    0.0    1.91809    5.61747   -3.06255   0.01281  0.01416  0.01179 -0.00886  0.00786 -0.00747    0.28426   -0.70871  236.50609   0.02531  0.02528  0.10520  0.00500 -0.01908 -0.02005
2032 273562.000  -3962944.4987   3351716.7029   3694630.1146   5  19   0.1638   0.1858   0.1561  -0.1497   0.1434  -0.1377   0.00    0.0    1.80149    5.25994   -2.87196   0.01310  0.01452  0.01217 -0.00883  0.00784 -0.00758    0.23275   -0.72270  236.52986   0.02542  0.02544  0.10571  0.00451 -0.01838 -0.01917
2032 273563.000  -3962942.6319   3351721.7564   3694627.2481   5  12   0.1638   0.1879   0.1572  -0.1507   0.1437  -0.1373   0.00    0.0    1.80799    4.92594   -2.67621   0.01367  0.01536  0.01337 -0.00901  0.00760 -0.00731    0.03749   -0.62324  237.30986   0.02589  0.02567  0.10622  0.00392 -0.01736 -0.01891
2032 273564.000  -3962940.7490   3351726.5871   3694624.7754   5   9   0.1691   0.1935   0.1609  -0.1551   0.1486  -0.1408   0.00    0.0    1.94456    4.69795   -2.22797   0.01494  0.01628  0.01405 -0.00887  0.00852 -0.00688    0.33419   -0.57569  241.08886   0.02604  0.02604  0.10681  0.00481 -0.01733 -0.01820
2032 273565.000  -3962938.5589   3351731.1085   3694622.7634   5  14   0.1707   0.1954   0.1622  -0.1557   0.1491  -0.1410   0.00    0.0    2.42452    4.37905   -1.51927   0.01548  0.01700  0.01405 -0.00889  0.00840 -0.00704   -0.16438   -1.36003  250.14888   0.02600  0.02610  0.10564  0.00382 -0.01452 -0.01554
2032 273566.000  -3962935.6327   3351735.3018   3694621.8156   5  14   0.1734   0.1966   0.1625  -0.1570   0.1495  -0.1426   0.00    0.0    3.20328    3.91854   -0.31808   0.01611  0.01767  0.01390 -0.00856  0.00819 -0.00800   -0.71088   -1.74052  265.58466   0.02577  0.02618  0.10370  0.00278 -0.01074 -0.01094
2032 273567.000  -3962932.2110   3351738.8544   3694621.7675   5  15   0.1761   0.1956   0.1621  -0.1566   0.1482  -0.1427   0.00    0.0    3.61003    3.31972    0.55195   0.01696  0.01769  0.01399 -0.00839  0.00798 -0.00799   -0.73799   -2.70764  278.75674   0.02564  0.02593  0.10211  0.00320 -0.00344 -0.00537
2032 273568.000  -3962928.3759   3351741.9070   3694622.7827   5   7   0.1830   0.2031   0.1676  -0.1638   0.1535  -0.1463   0.00    0.0    3.96905    2.64174    1.46167   0.01838  0.01877  0.01527 -0.00924  0.00808 -0.00680   -0.91049   -2.27282  291.82804   0.02587  0.02563  0.10131  0.00122  0.00977  0.00550
2032 273569.000  -3962924.5191   3351744.1857   3694624.6049   5   9   0.1889   0.2071   0.1712  -0.1663   0.1553  -0.1495   0.00    0.0    4.04284    1.83848    2.34214   0.01983  0.02033  0.01600 -0.00818  0.00743 -0.00665   -1.28103   -2.57473  305.72381   0.02533  0.02550  0.10089  0.00416  0.01016  0.01199
2032 273570.000  -3962920.2416   3351745.5360   3694627.3315   5  10   0.1889   0.2120   0.1740  -0.1663   0.1567  -0.1514   0.00    0.0    3.86878    0.98905    2.89861   0.01938  0.02217  0.01653 -0.00710  0.00663 -0.00756   -1.05531   -1.79683  316.67947   0.02381  0.02504  0.09982  0.00535  0.01088  0.01851
2032 273571.000  -3962916.6874   3351746.3833   3694629.7595   5  12   0.1868   0.2165   0.1727  -0.1656   0.1571  -0.1496   0.00    0.0    3.17796    0.56139    2.54669   0.01857  0.02309  0.01644 -0.00700  0.00753 -0.00753   -0.68933   -1.38281  320.92699   0.02244  0.02347  0.10002  0.00601  0.01131  0.02156
2032 273572.000  -3962913.4496   3351746.9633   3694632.1303   5  13   0.1859   0.2195   0.1727  -0.1671   0.1593  -0.1492   0.00    0.0    2.54135    0.25427    2.15173   0.01795  0.02273  0.01644 -0.00806  0.00915 -0.00723   -0.99947   -1.28399  324.86709   0.02125  0.02136  0.10080  0.00528  0.01017  0.02282
2032 273573.000  -3962911.3346   3351747.3134   3694633.8666   5  20   0.1828   0.2174   0.1708  -0.1659   0.1595  -0.1481   0.00    0.0    1.40932    0.05310    1.14508   0.01663  0.02076  0.01545 -0.00931  0.01028 -0.00822   -1.14237   -1.13960  325.86014   0.01945  0.01910  0.10115  0.00392 -0.00372  0.02264
2032 273574.000  -3962910.4225   3351747.4166   3694634.5411   5  17   0.1813   0.2189   0.1704  -0.1662   0.1614  -0.1476   0.00    0.0    0.64135   -0.06782    0.42550   0.01623  0.02063  0.01523 -0.00925  0.01117 -0.00819   -0.91671   -1.16779  326.04019   0.01874  0.01829  0.10140  0.00365 -0.00959  0.02183
