% program   : GINav v0.1.0
% obs start : 2018/12/19 03:56:15.0
% obs end   : 2018/12/19 04:16:56.0
% mode      : PPK/INS TC
% system    : GPS GLONASS GALILEO BDS QZSS
% nfreqs    : 1
% elev mask : 15.0 deg
% ephemeris : broadcast
% ionos opt : broadcast model
% trops opt : Saastamoinen model
%
%  GPST              x-ecef(m)      y-ecef(m)      z-ecef(m)   Q  ns   sdx(m)   sdy(m)   sdz(m)  sdxy(m)  sdyz(m)  sdzx(m) age(s)  ratio    vx(m/s)    vy(m/s)    vz(m/s)      sdvx     sdvy     sdvz    sdvxy    sdvyz    sdvzx pitch(deg)  roll(deg)   yaw(deg)       sdp      sdr      sdy     sdpr     sdry     sdyp
2032 273386.000  -3963423.6394   3350882.3296   3694868.8855   3   0  27.8149  26.8883  29.8900 -12.2578   1.1026  -1.1991   0.00    0.0    1.43216    0.01301    1.58108  10.00000 10.00000 10.00000  0.00000 -0.00000  0.00000    0.00000    0.00000  334.01334   0.30000  0.30000  0.50000  0.00000  0.00000  0.00000
2032 273387.000  -3963421.8120   3350882.3024   3694870.9480   1  20   0.0083   0.0098   0.0077  -0.0074   0.0058  -0.0067   0.00    7.5    1.79557   -0.21558    2.18029   9.38979  9.35126  9.48483 -1.46410  0.13260 -0.14334    0.16739    0.34392  334.54280   0.30004  0.30004  0.50003 -0.00000 -0.00025 -0.00308
2032 273388.000  -3963419.6358   3350882.3159   3694873.3302   1  20   0.0083   0.0098   0.0077  -0.0074   0.0058  -0.0067   0.00    6.7    2.42653   -0.10054    2.52357   0.35715  0.44640  0.33172 -0.30205  0.24435 -0.29011    0.10997    0.25562  333.55076   0.30011  0.30011  0.50007 -0.00006  0.00101 -0.00435
2032 273389.000  -3963417.2439   3350882.4474   3694875.9533   1  20   0.0083   0.0098   0.0077  -0.0074   0.0058  -0.0067   0.00    8.5    2.54547   -0.10265    2.68059   0.20606  0.25650  0.19175 -0.17158  0.13786 -0.16358    0.28316    0.57215  332.30523   0.29428  0.29583  0.50007 -0.03887  0.01908  0.01384
2032 273390.000  -3963414.7863   3350882.5966   3694878.5482   1  19   0.0087   0.0106   0.0078  -0.0081   0.0062  -0.0070   0.00    8.7    2.52886   -0.16003    2.65874   0.14796  0.18354  0.13891 -0.11671  0.09179 -0.11065    0.10939    0.64690  331.08147   0.27443  0.28084  0.50006 -0.07647  0.03418  0.03066
2032 273391.000  -3963412.3193   3350882.7911   3694881.0741   1  19   0.0087   0.0106   0.0078  -0.0081   0.0062  -0.0070   0.00   11.0    2.59023   -0.15063    2.70596   0.11818  0.14829  0.11229 -0.08562  0.06270 -0.08161    0.62491    0.72449  329.99888   0.24089  0.25368  0.50004 -0.10262  0.04717  0.04505
2032 273392.000  -3963409.6926   3350883.0839   3694883.7526   1  19   0.0087   0.0106   0.0078  -0.0081   0.0062  -0.0070   0.00   11.2    2.83511   -0.07306    2.89611   0.09918  0.12783  0.09557 -0.06527  0.03999 -0.06458    0.76756    0.46217  328.76692   0.20299  0.21972  0.50000 -0.10927  0.06063  0.05107
2032 273393.000  -3963406.7760   3350883.4751   3694886.6388   1  20   0.0087   0.0106   0.0078  -0.0081   0.0062  -0.0070   0.00   12.7    3.04005    0.07251    3.04253   0.08529  0.11341  0.08357 -0.05142  0.02058 -0.05408    0.97144    0.19025  327.65415   0.16859  0.18579  0.49996 -0.10181  0.07162  0.04872
2032 273394.000  -3963403.6735   3350883.9583   3694889.6568   1  20   0.0085   0.0102   0.0077  -0.0078   0.0060  -0.0069   0.00   14.8    3.13424    0.17207    3.04176   0.07444  0.10138  0.07415 -0.04192 -0.00859 -0.04705    0.92099   -0.40090  326.81943   0.14052  0.15610  0.50005 -0.08856  0.07629  0.04445
2032 273395.000  -3963400.5216   3350884.4448   3694892.7050   1  19   0.0087   0.0106   0.0078  -0.0081   0.0062  -0.0070   0.00   15.6    3.12895    0.20484    3.03476   0.06602  0.09128  0.06651 -0.03570 -0.01542 -0.04199    0.88946   -0.48632  326.87929   0.11908  0.13223  0.50019 -0.07485  0.07600  0.04320
2032 273396.000  -3963397.4288   3350884.9161   3694895.7091   1  19   0.0087   0.0106   0.0078  -0.0081   0.0062  -0.0070   0.00   16.9    2.97217    0.19624    2.87305   0.05944  0.08295  0.06033 -0.03188 -0.01564 -0.03830    0.73517   -0.63504  326.99722   0.10335  0.11396  0.50026 -0.06282  0.07154  0.04611
2032 273397.000  -3963394.5301   3350885.3574   3694898.5310   1  20   0.0087   0.0106   0.0078  -0.0081   0.0062  -0.0070   0.00   17.6    2.76087    0.17545    2.66047   0.05433  0.07610  0.05529 -0.02970 -0.01364 -0.03560    1.07773   -0.67313  327.10426   0.09202  0.10030  0.50002 -0.05288  0.06315  0.05151
2032 273398.000  -3963391.8565   3350885.7707   3694901.1525   1  19   0.0091   0.0105   0.0081  -0.0080   0.0063  -0.0075   0.00   13.2    2.52658    0.15532    2.42730   0.05038  0.07032  0.05102 -0.02863 -0.00917 -0.03360    0.94947   -0.60235  327.06532   0.08379  0.09014  0.49937 -0.04465  0.05178  0.05710
2032 273399.000  -3963389.3823   3350886.1412   3694903.5478   1  21   0.0091   0.0104   0.0080  -0.0080   0.0064  -0.0075   0.00   13.9    2.45225    0.15132    2.34980   0.04736  0.06545  0.04746 -0.02828  0.00474 -0.03215    1.31569   -0.54066  327.06192   0.07800  0.08285  0.49850 -0.03819  0.03828  0.06150
2032 273400.000  -3963386.8359   3350886.5410   3694906.0225   1  20   0.0091   0.0104   0.0078  -0.0081   0.0065  -0.0073   0.00   13.5    2.53065    0.19277    2.43250   0.04497  0.06132  0.04441 -0.02841  0.01127 -0.03098    1.08186   -0.65291  327.07623   0.07382  0.07752  0.49834 -0.03285  0.02941  0.06235
2032 273401.000  -3963384.2956   3350886.9428   3694908.4785   1  20   0.0089   0.0106   0.0080  -0.0080   0.0061  -0.0073   0.00   12.9    2.34428    0.15709    2.25781   0.04300  0.05802  0.04198 -0.02847  0.01462 -0.03012    1.16608   -0.70877  327.18434   0.07088  0.07372  0.49820 -0.02858  0.01898  0.06282
2032 273402.000  -3963381.9342   3350887.2775   3694910.8033   1  20   0.0089   0.0105   0.0078  -0.0081   0.0063  -0.0072   0.00   12.4    2.28040    0.09113    2.27204   0.04138  0.05516  0.03988 -0.02868  0.01687 -0.02936    1.25368   -0.65313  328.26550   0.06885  0.07099  0.49799 -0.02518 -0.01220  0.06381
2032 273403.000  -3963379.5322   3350887.5592   3694913.2081   1  21   0.0088   0.0104   0.0077  -0.0081   0.0064  -0.0071   0.00   12.7    2.35038    0.05225    2.39171   0.03999  0.05269  0.03808 -0.02877  0.01840 -0.02867    1.01088   -0.58123  329.14011   0.06744  0.06905  0.49815 -0.02238 -0.01941  0.06413
2032 273404.000  -3963376.9022   3350887.8652   3694915.8100   1  22   0.0086   0.0101   0.0076  -0.0077   0.0062  -0.0069   0.00   10.6    2.74195    0.18276    2.70684   0.03882  0.05057  0.03662 -0.02863  0.01906 -0.02804    1.28221   -0.12096  327.83256   0.06640  0.06766  0.49830 -0.01998 -0.01677  0.06255
2032 273405.000  -3963373.7315   3350888.4423   3694918.7541   1  22   0.0083   0.0099   0.0072  -0.0077   0.0062  -0.0066   0.00   10.5    3.26164    0.38240    2.98810   0.03766  0.04877  0.03545 -0.02834  0.01915 -0.02735    0.96318   -0.79614  324.95035   0.06558  0.06667  0.49683 -0.01787  0.01076  0.05727
2032 273406.000  -3963370.0688   3350889.1959   3694922.0024   1  22   0.0082   0.0098   0.0071  -0.0076   0.0063  -0.0065   0.00    9.4    3.71966    0.56669    3.28722   0.03654  0.04717  0.03437 -0.02789  0.01905 -0.02658    0.40064   -0.98980  323.68920   0.06495  0.06596  0.49301 -0.01620  0.02442  0.04843
2032 273407.000  -3963365.9755   3350889.9672   3694925.6403   1  21   0.0085   0.0103   0.0072  -0.0081   0.0066  -0.0067   0.00    9.8    4.01463    0.46450    3.62121   0.03544  0.04561  0.03299 -0.02720  0.01941 -0.02582   -0.18164   -0.97511  325.17011   0.06454  0.06548  0.48839 -0.01498  0.03471  0.03786
2032 273408.000  -3963361.7073   3350890.6085   3694929.5139   1  21   0.0089   0.0104   0.0075  -0.0082   0.0067  -0.0071   0.00    9.9    3.95897    0.29462    3.69464   0.03431  0.04375  0.03169 -0.02662  0.01997 -0.02485   -0.84629   -0.86899  326.63253   0.06429  0.06517  0.48595 -0.01420  0.04224  0.02967
2032 273409.000  -3963357.4868   3350891.1365   3694933.3744   1  20   0.0088   0.0104   0.0075  -0.0082   0.0067  -0.0070   0.00   16.4    3.95017    0.22261    3.64893   0.03318  0.04214  0.03069 -0.02598  0.01986 -0.02392   -0.62526   -0.75507  326.67632   0.06413  0.06497  0.48541 -0.01370  0.04677  0.02621
2032 273410.000  -3963353.2715   3350891.6862   3694937.1956   1  19   0.0094   0.0104   0.0080  -0.0083   0.0067  -0.0076   0.00    8.7    3.93289    0.23875    3.65683   0.03216  0.04081  0.02980 -0.02521  0.01940 -0.02305   -1.15736   -0.81237  326.19988   0.06398  0.06481  0.48560 -0.01346  0.04884  0.02494
2032 273411.000  -3963349.0537   3350892.2373   3694940.9784   1  21   0.0094   0.0107   0.0084  -0.0081   0.0061  -0.0077   0.00    5.2    3.93449    0.23707    3.66080   0.03123  0.03962  0.02899 -0.02436  0.01875 -0.02224   -1.06932   -0.82073  326.07524   0.06384  0.06467  0.48591 -0.01341  0.04934  0.02530
2032 273412.000  -3963344.8619   3350892.7886   3694944.8039   1  23   0.0091   0.0105   0.0078  -0.0081   0.0064  -0.0073   0.00    5.2    4.05676    0.17508    3.84606   0.03036  0.03850  0.02814 -0.02354  0.01809 -0.02141   -1.11104   -0.50471  326.81589   0.06367  0.06453  0.48608 -0.01342  0.04945  0.02731
2032 273413.000  -3963340.4393   3350893.2907   3694948.8773   1  24   0.0086   0.0104   0.0074  -0.0080   0.0064  -0.0069   0.00    7.7    4.38080    0.24144    4.16116   0.02955  0.03745  0.02727 -0.02265  0.01731 -0.02066   -0.98330   -0.91127  326.60554   0.06347  0.06442  0.48622 -0.01347  0.05143  0.02803
2032 273414.000  -3963335.6325   3350893.9596   3694953.1924   1  23   0.0086   0.0102   0.0074  -0.0079   0.0065  -0.0070   0.00    8.1    4.76788    0.44617    4.29184   0.02871  0.03642  0.02654 -0.02181  0.01640 -0.01993   -1.26601   -0.57524  324.48710   0.06324  0.06431  0.48622 -0.01358  0.05396  0.02380
2032 273415.000  -3963330.4684   3350894.8605   3694957.6075   1  23   0.0085   0.0102   0.0073  -0.0079   0.0066  -0.0069   0.00   11.1    5.05365    0.68951    4.41820   0.02792  0.03543  0.02588 -0.02098  0.01553 -0.01918   -1.32470   -0.72061  322.84377   0.06301  0.06414  0.48527 -0.01384  0.05542  0.00659
2032 273416.000  -3963325.0448   3350895.8266   3694962.1692   1  23   0.0084   0.0101   0.0071  -0.0079   0.0067  -0.0067   0.00   10.6    5.26287    0.63177    4.56533   0.02709  0.03449  0.02502 -0.02013  0.01494 -0.01855   -1.85738   -0.88550  323.30208   0.06279  0.06394  0.48437 -0.01411  0.05687 -0.02203
2032 273417.000  -3963319.5888   3350896.7416   3694966.8295   1  23   0.0084   0.0101   0.0071  -0.0079   0.0067  -0.0068   0.00    9.7    5.31688    0.55749    4.67126   0.02629  0.03358  0.02426 -0.01932  0.01437 -0.01790   -1.77763   -1.22004  324.09011   0.06256  0.06373  0.48463 -0.01422  0.05827 -0.02755
2032 273418.000  -3963314.0264   3350897.5470   3694971.6519   1  23   0.0084   0.0101   0.0070  -0.0079   0.0068  -0.0068   0.00   10.1    5.49740    0.47061    4.92764   0.02558  0.03277  0.02355 -0.01854  0.01372 -0.01726   -1.99352   -1.13258  325.03010   0.06233  0.06355  0.48481 -0.01423  0.06058 -0.02954
2032 273419.000  -3963308.2808   3350898.2953   3694976.7029   1  23   0.0084   0.0100   0.0070  -0.0079   0.0068  -0.0068   0.00   10.2    5.61670    0.46338    5.14303   0.02487  0.03195  0.02290 -0.01781  0.01305 -0.01665   -1.81176   -1.04990  325.48079   0.06210  0.06343  0.48450 -0.01414  0.06355 -0.03030
2032 273420.000  -3963302.4238   3350899.0362   3694981.8878   1  24   0.0084   0.0100   0.0070  -0.0079   0.0068  -0.0068   0.00   12.1    5.71560    0.49548    5.17759   0.02412  0.03109  0.02227 -0.01715  0.01239 -0.01613   -1.94886   -1.18575  325.13328   0.06185  0.06329  0.48443 -0.01393  0.06572 -0.02990
2032 273421.000  -3963296.5047   3350899.7789   3694987.1073   1  24   0.0083   0.0100   0.0069  -0.0079   0.0067  -0.0066   0.00   13.6    5.75496    0.48755    5.22231   0.02343  0.03031  0.02169 -0.01649  0.01174 -0.01560   -2.03260   -1.30028  325.33642   0.06161  0.06312  0.48460 -0.01361  0.06678 -0.02871
2032 273422.000  -3963290.5938   3350900.5358   3694992.3754   1  22   0.0090   0.0101   0.0071  -0.0081   0.0068  -0.0071   0.00   13.4    5.79624    0.47751    5.22558   0.02279  0.02958  0.02112 -0.01583  0.01110 -0.01513   -2.17276   -1.52336  325.27780   0.06137  0.06292  0.48459 -0.01318  0.06675 -0.02624
2032 273423.000  -3963284.6124   3350901.2939   3694997.6511   1  23   0.0092   0.0102   0.0074  -0.0082   0.0069  -0.0074   0.00   13.2    5.92959    0.55458    5.31062   0.02221  0.02882  0.02053 -0.01519  0.01059 -0.01466   -1.86147   -1.36566  325.07332   0.06115  0.06271  0.48460 -0.01273  0.06608 -0.02436
2032 273424.000  -3963278.5265   3350902.1252   3695003.0085   1  20   0.0093   0.0102   0.0076  -0.0080   0.0067  -0.0076   0.00   18.1    6.00252    0.62908    5.36454   0.02166  0.02811  0.01998 -0.01456  0.01007 -0.01421   -1.96175   -1.43118  324.91234   0.06095  0.06249  0.48466 -0.01231  0.06508 -0.02405
2032 273425.000  -3963272.3633   3350902.9630   3695008.4015   1  19   0.0097   0.0102   0.0081  -0.0081   0.0067  -0.0080   0.00   18.9    6.07467    0.62899    5.39032   0.02113  0.02744  0.01948 -0.01399  0.00955 -0.01380   -1.92538   -1.26984  325.10405   0.06076  0.06228  0.48453 -0.01190  0.06367 -0.02396
2032 273426.000  -3963266.1715   3350903.7958   3695013.8319   1  18   0.0098   0.0102   0.0084  -0.0081   0.0068  -0.0082   0.00   11.9    6.04989    0.63119    5.41459   0.02062  0.02685  0.01905 -0.01341  0.00897 -0.01341   -2.07772   -1.27729  325.40256   0.06060  0.06207  0.48421 -0.01148  0.06192 -0.02322
2032 273427.000  -3963260.1595   3350904.6281   3695019.0814   1  18   0.0098   0.0102   0.0084  -0.0081   0.0068  -0.0082   0.00   13.4    5.53046    0.58198    4.86827   0.02033  0.02737  0.01905 -0.01194  0.00677 -0.01349   -2.56034   -1.16425  325.30225   0.06043  0.06180  0.48054 -0.01090  0.05724 -0.01711
2032 273428.000  -3963254.8198   3350905.4135   3695023.7133   1  15   0.0110   0.0122   0.0098  -0.0072   0.0047  -0.0095   0.00    5.6    4.63772    0.55424    4.10131   0.02038  0.02940  0.01971 -0.00876 -0.00539 -0.01421   -2.84782   -1.64818  325.40476   0.06025  0.06148  0.46378 -0.01032  0.04544  0.01657
2032 273429.000  -3963250.5173   3350906.0589   3695027.4332   1  16   0.0111   0.0134   0.0099  -0.0076   0.0052  -0.0096   0.00    6.0    3.46835    0.37250    3.09981   0.02035  0.03177  0.02083 -0.00421 -0.01116 -0.01505   -2.54998   -1.69011  326.39650   0.06009  0.06121  0.42558 -0.01014  0.02023  0.03357
2032 273430.000  -3963247.4614   3350906.5291   3695030.1304   1  16   0.0104   0.0131   0.0093  -0.0081   0.0059  -0.0089   0.00    5.9    2.58836    0.23611    2.28138   0.01988  0.03102  0.02042 -0.00465 -0.01071 -0.01466   -1.88490   -1.51478  327.56990   0.05997  0.06115  0.37552 -0.01086 -0.03241  0.04319
2032 273431.000  -3963244.9255   3350906.8647   3695032.3817   1  18   0.0098   0.0130   0.0090  -0.0082   0.0061  -0.0084   0.00    6.4    2.58863    0.26683    2.34233   0.01890  0.02711  0.01850 -0.00892 -0.00405 -0.01292   -1.66705   -1.70693  328.40103   0.05988  0.06123  0.34755 -0.01180 -0.04455  0.04778
2032 273432.000  -3963242.3808   3350907.2162   3695034.6654   1  18   0.0097   0.0126   0.0087  -0.0084   0.0065  -0.0082   0.00    6.4    2.58856    0.27876    2.37512   0.01825  0.02495  0.01738 -0.01003  0.00466 -0.01186   -1.06209   -1.51215  328.57301   0.05977  0.06135  0.33653 -0.01248 -0.05143  0.05033
2032 273433.000  -3963239.8409   3350907.6006   3695036.9932   1  19   0.0092   0.0124   0.0084  -0.0084   0.0066  -0.0078   0.00    8.0    2.47078    0.27499    2.22795   0.01781  0.02387  0.01675 -0.01011  0.00559 -0.01126   -1.00369   -1.20893  328.21928   0.05965  0.06143  0.33277 -0.01289 -0.05604  0.05184
2032 273434.000  -3963237.7317   3350907.9918   3695038.8951   1  20   0.0088   0.0117   0.0080  -0.0085   0.0069  -0.0074   0.00    8.8    1.49306    0.20468    1.32121   0.01767  0.02438  0.01682 -0.00894  0.00344 -0.01141   -1.11536   -1.23933  327.22659   0.05950  0.06156  0.32841 -0.01333 -0.06038  0.05293
2032 273435.000  -3963236.6314   3350908.2135   3695039.8427   1  20   0.0088   0.0114   0.0079  -0.0084   0.0070  -0.0074   0.00    8.9    0.59692    0.05992    0.52584   0.01742  0.02447  0.01681 -0.00826 -0.00141 -0.01140   -0.54077   -1.29448  326.64411   0.05938  0.06181  0.31959 -0.01408 -0.06467  0.05390
2032 273436.000  -3963236.1078   3350908.3258   3695040.3109   1  19   0.0095   0.0114   0.0081  -0.0090   0.0076  -0.0079   0.00    9.3    0.63162    0.06267    0.56618   0.01681  0.02252  0.01591 -0.00922  0.00486 -0.01047    0.30615   -0.97206  326.28012   0.05931  0.06208  0.31411 -0.01484 -0.06818  0.05505
2032 273437.000  -3963235.5055   3350908.4691   3695040.8450   1  19   0.0095   0.0114   0.0081  -0.0090   0.0076  -0.0079   0.00    9.4    0.57938    0.05415    0.52986   0.01640  0.02159  0.01545 -0.00925  0.00514 -0.00997    0.46322   -0.83804  325.82754   0.05929  0.06224  0.31372 -0.01533 -0.07056  0.05603
2032 273438.000  -3963235.2289   3350908.5476   3695041.1043   1  19   0.0094   0.0111   0.0081  -0.0089   0.0076  -0.0078   0.00   10.6    0.07894   -0.07625    0.05907   0.01611  0.02118  0.01522 -0.00897  0.00484 -0.00974    0.87648   -0.76290  325.67068   0.05930  0.06239  0.31380 -0.01583 -0.07262  0.05710
2032 273439.000  -3963235.2338   3350908.5520   3695041.1029   1  21   0.0094   0.0111   0.0080  -0.0089   0.0076  -0.0078   0.00   11.0    0.04516   -0.08539    0.05336   0.01582  0.02073  0.01494 -0.00864  0.00431 -0.00944    0.78828   -0.77051  325.67473   0.05934  0.06248  0.31441 -0.01620 -0.07398  0.05793
2032 273440.000  -3963235.2304   3350908.5482   3695041.1005   1  21   0.0091   0.0105   0.0077  -0.0084   0.0073  -0.0075   0.00   11.7    0.02777   -0.09793    0.05173   0.01562  0.02061  0.01479 -0.00806  0.00295 -0.00930    0.80976   -0.76767  325.60563   0.05938  0.06243  0.31432 -0.01627 -0.07411  0.05805
2032 273441.000  -3963235.2336   3350908.5518   3695041.1024   1  23   0.0089   0.0103   0.0076  -0.0082   0.0071  -0.0074   0.00   12.2    0.01832   -0.11107    0.04145   0.01546  0.02063  0.01470 -0.00739 -0.00146 -0.00924    0.83327   -0.77669  325.48137   0.05939  0.06224  0.31244 -0.01605 -0.07299  0.05738
2032 273442.000  -3963235.2304   3350908.5490   3695041.0997   1  25   0.0086   0.0101   0.0074  -0.0080   0.0070  -0.0071   0.00   12.2    0.00157   -0.11700    0.03506   0.01531  0.02064  0.01461 -0.00672 -0.00335 -0.00918    0.85023   -0.79434  325.29847   0.05939  0.06195  0.30857 -0.01560 -0.07077  0.05595
2032 273443.000  -3963235.2364   3350908.5514   3695041.1024   1  25   0.0082   0.0100   0.0071  -0.0078   0.0068  -0.0067   0.00   12.3   -0.00647   -0.12137    0.02063   0.01515  0.02059  0.01450 -0.00616 -0.00418 -0.00910    0.87180   -0.81173  325.08512   0.05937  0.06160  0.30307 -0.01498 -0.06773  0.05391
2032 273444.000  -3963235.2360   3350908.5550   3695041.1020   1  25   0.0079   0.0097   0.0069  -0.0075   0.0066  -0.0064   0.00    4.7   -0.01471   -0.12057    0.00959   0.01499  0.02044  0.01436 -0.00575 -0.00455 -0.00899    0.87563   -0.82653  324.86568   0.05935  0.06123  0.29657 -0.01428 -0.06419  0.05143
2032 273445.000  -3963235.2310   3350908.5461   3695041.0974   1  25   0.0078   0.0097   0.0068  -0.0075   0.0066  -0.0064   0.00    5.1   -0.02075   -0.11700    0.00210   0.01482  0.02022  0.01420 -0.00549 -0.00465 -0.00884    0.88410   -0.85728  324.65324   0.05933  0.06088  0.28968 -0.01355 -0.06042  0.04866
2032 273446.000  -3963235.5742   3350908.7097   3695041.4875   2  24   0.1078   0.1295   0.0927  -0.0997   0.0827  -0.0867   0.00    2.9   -0.06275   -0.09906    0.03052   0.01831  0.02468  0.01685 -0.01026  0.00689 -0.01223    0.89930   -0.88651  324.44363   0.05931  0.06055  0.28300 -0.01286 -0.05661  0.04571
2032 273447.000  -3963235.5801   3350908.7189   3695041.4812   2  26   0.1066   0.1282   0.0916  -0.0986   0.0819  -0.0856   0.00    2.6   -0.06725   -0.09223    0.02057   0.01809  0.02434  0.01663 -0.01018  0.00696 -0.01202    0.90758   -0.90935  324.25889   0.05929  0.06026  0.27672 -0.01223 -0.05294  0.04268
2032 273448.000  -3963235.5902   3350908.7257   3695041.4769   2  25   0.1055   0.1270   0.0906  -0.0976   0.0811  -0.0847   0.00    2.7   -0.07135   -0.08537    0.01324   0.01787  0.02399  0.01641 -0.01014  0.00709 -0.01182    0.91973   -0.93195  324.10715   0.05927  0.06001  0.27112 -0.01168 -0.04949  0.03962
2032 273449.000  -3963235.5955   3350908.7271   3695041.4737   2  25   0.1044   0.1257   0.0896  -0.0966   0.0804  -0.0837   0.00    2.8   -0.07406   -0.07928    0.00485   0.01767  0.02363  0.01619 -0.01011  0.00723 -0.01161    0.92097   -0.95133  323.97745   0.05926  0.05979  0.26631 -0.01122 -0.04629  0.03655
2032 273450.000  -3963235.5884   3350908.7110   3695041.4553   2  25   0.1033   0.1245   0.0886  -0.0956   0.0796  -0.0828   0.00    2.9   -0.07369   -0.07793   -0.00200   0.01747  0.02329  0.01598 -0.01010  0.00738 -0.01142    0.92565   -0.96246  323.86666   0.05925  0.05960  0.26230 -0.01086 -0.04335  0.03349
2032 273451.000  -3963235.5881   3350908.7080   3695041.4466   2  26   0.1022   0.1233   0.0876  -0.0946   0.0789  -0.0819   0.00    3.0   -0.07695   -0.07409   -0.00844   0.01727  0.02296  0.01578 -0.01008  0.00752 -0.01123    0.92690   -0.96814  323.76383   0.05925  0.05944  0.25907 -0.01058 -0.04068  0.03047
2032 273452.000  -3963235.2390   3350908.5544   3695041.0989   1  25   0.0077   0.0097   0.0066  -0.0074   0.0065  -0.0062   0.00    3.0   -0.04153   -0.08219   -0.04857   0.01363  0.01803  0.01289 -0.00584 -0.00166 -0.00757    0.92854   -0.97343  323.66961   0.05924  0.05930  0.25648 -0.01039 -0.03826  0.02748
2032 273453.000  -3963235.2346   3350908.5533   3695041.0965   1  25   0.0077   0.0097   0.0066  -0.0074   0.0065  -0.0062   0.00    3.1   -0.04089   -0.07815   -0.04944   0.01349  0.01776  0.01273 -0.00591 -0.00049 -0.00743    0.92853   -0.98752  323.58651   0.05923  0.05918  0.25463 -0.01028 -0.03605  0.02450
2032 273454.000  -3963235.2381   3350908.5496   3695041.0992   1  25   0.0077   0.0097   0.0066  -0.0074   0.0065  -0.0062   0.00    3.1   -0.03749   -0.07833   -0.05380   0.01335  0.01751  0.01258 -0.00597  0.00141 -0.00729    0.94305   -0.99595  323.52253   0.05921  0.05908  0.25333 -0.01022 -0.03404  0.02150
2032 273455.000  -3963235.2394   3350908.5566   3695041.1019   1  25   0.0077   0.0097   0.0066  -0.0074   0.0065  -0.0062   0.00    3.2   -0.03562   -0.07607   -0.05537   0.01323  0.01728  0.01244 -0.00601  0.00197 -0.00717    0.93470   -1.01728  323.47130   0.05920  0.05900  0.25251 -0.01022 -0.03222  0.01846
2032 273456.000  -3963235.2357   3350908.5525   3695041.0984   1  26   0.0077   0.0097   0.0066  -0.0074   0.0065  -0.0062   0.00    3.3   -0.03467   -0.07390   -0.05989   0.01311  0.01707  0.01231 -0.00603  0.00233 -0.00706    0.92883   -1.03129  323.42766   0.05918  0.05894  0.25212 -0.01026 -0.03057  0.01531
2032 273457.000  -3963235.2399   3350908.5577   3695041.0977   1  25   0.0077   0.0097   0.0066  -0.0074   0.0065  -0.0062   0.00    3.3   -0.03114   -0.06839   -0.06070   0.01300  0.01688  0.01219 -0.00604  0.00258 -0.00696    0.90602   -1.04054  323.38879   0.05916  0.05889  0.25207 -0.01032 -0.02908  0.01192
2032 273458.000  -3963235.2419   3350908.5606   3695041.1026   1  25   0.0077   0.0097   0.0066  -0.0074   0.0065  -0.0062   0.00    3.3   -0.02603   -0.06588   -0.05847   0.01289  0.01670  0.01208 -0.00604  0.00277 -0.00687    0.89911   -1.03882  323.36338   0.05914  0.05886  0.25230 -0.01041 -0.02775  0.00787
2032 273459.000  -3963235.2164   3350908.5667   3695041.1280   1  26   0.0077   0.0097   0.0066  -0.0074   0.0065  -0.0062   0.00    3.4    0.06654   -0.04291    0.02057   0.01282  0.01660  0.01199 -0.00601  0.00277 -0.00684    0.97233   -1.03389  323.28558   0.05912  0.05883  0.25265 -0.01051 -0.02642 -0.00376
2032 273460.000  -3963234.9186   3350908.6472   3695041.3869   1  25   0.0077   0.0097   0.0066  -0.0074   0.0065  -0.0062   0.00    3.5    0.76223    0.13142    0.61120   0.01297  0.01716  0.01222 -0.00569 -0.00166 -0.00720    1.52938   -0.86020  322.74790   0.05909  0.05878  0.25184 -0.01065 -0.02396 -0.01186
2032 273461.000  -3963233.7647   3350908.9724   3695042.3575   1  24   0.0081   0.0098   0.0066  -0.0077   0.0066  -0.0064   0.00    5.6    1.50762    0.44815    1.21800   0.01313  0.01781  0.01260 -0.00559 -0.00407 -0.00755    1.57172   -0.40266  319.10699   0.05905  0.05868  0.24617 -0.01097 -0.01805 -0.01939
2032 273462.000  -3963232.0106   3350909.7105   3695043.6346   1  24   0.0081   0.0098   0.0067  -0.0076   0.0066  -0.0064   0.00    6.1    1.64563    0.71143    1.12171   0.01297  0.01720  0.01225 -0.00637 -0.00242 -0.00695    1.54088   -0.58049  311.81185   0.05901  0.05849  0.23980 -0.01139 -0.01283 -0.02586
2032 273463.000  -3963230.3389   3350910.7049   3695044.6735   1  24   0.0081   0.0098   0.0067  -0.0076   0.0066  -0.0064   0.00    6.4    1.85145    1.08008    0.98556   0.01314  0.01721  0.01214 -0.00674 -0.00216 -0.00615    2.00577   -0.83018  303.18246   0.05885  0.05797  0.23725 -0.01147 -0.01567 -0.03054
2032 273464.000  -3963228.2431   3350912.2947   3695045.5976   1  24   0.0091   0.0103   0.0069  -0.0084   0.0070  -0.0069   0.00    7.8    2.33441    1.95601    0.79688   0.01412  0.01786  0.01267 -0.00689 -0.00414 -0.00430    1.81147   -0.18906  289.50477   0.05819  0.05644  0.23265 -0.01026 -0.02710 -0.03494
2032 273465.000  -3963225.7252   3350914.9793   3695045.9984   1  23   0.0097   0.0124   0.0081  -0.0098   0.0090  -0.0080   0.00    7.2    2.67237    3.33656   -0.12693   0.01634  0.01898  0.01365 -0.00504 -0.00597  0.00322    1.25480    0.66178  269.72690   0.05606  0.05309  0.22299 -0.00481 -0.04472 -0.03635
2032 273466.000  -3963223.3218   3350919.0586   3695045.1270   1  23   0.0113   0.0149   0.0091  -0.0120   0.0107  -0.0093   0.00    6.3    2.25676    4.64911   -1.79162   0.01826  0.02089  0.01468  0.00586 -0.00875  0.00277    0.77816   -0.65884  248.49587   0.05103  0.04817  0.21164  0.00688 -0.06033 -0.03034
2032 273467.000  -3963221.3460   3350924.0027   3695042.9724   1  23   0.0106   0.0136   0.0082  -0.0110   0.0095  -0.0085   0.00   11.7    2.02413    5.50104   -2.78386   0.01824  0.02168  0.01570  0.00739 -0.01104 -0.00299    0.81662   -1.87089  239.42860   0.04350  0.04242  0.20678 -0.00059 -0.06753 -0.01399
2032 273468.000  -3963219.2976   3350929.8165   3695040.1338   1  21   0.0112   0.0159   0.0094  -0.0121   0.0113  -0.0093   0.00   10.6    2.26809    6.31734   -3.22411   0.01759  0.02121  0.01560  0.00723 -0.01104 -0.00434    1.05023   -2.32503  237.86975   0.03613  0.03730  0.20667 -0.00712 -0.06937  0.01500
2032 273469.000  -3963216.9831   3350936.5203   3695036.8755   1  21   0.0110   0.0158   0.0093  -0.0119   0.0112  -0.0091   0.00    5.9    2.50704    7.14245   -3.63212   0.01681  0.02038  0.01491  0.00678 -0.01021 -0.00516    1.01179   -1.64095  236.96078   0.03034  0.03332  0.20751 -0.00715 -0.06865  0.01703
2032 273470.000  -3963214.4728   3350944.1290   3695033.0354   1  22   0.0110   0.0158   0.0093  -0.0119   0.0112  -0.0091   0.00    6.6    2.73804    8.01826   -4.19560   0.01604  0.01948  0.01415  0.00611 -0.00915 -0.00569    0.89242   -1.23049  235.93892   0.02619  0.03042  0.20773 -0.00577 -0.06698  0.01458
2032 273471.000  -3963211.7304   3350952.6018   3695028.6718   1  22   0.0110   0.0154   0.0091  -0.0119   0.0109  -0.0091   0.00    7.3    2.92967    8.66494   -4.47664   0.01550  0.01871  0.01342  0.00548 -0.00802 -0.00572    0.82872   -1.21992  236.07087   0.02337  0.02826  0.20699 -0.00338 -0.06480  0.00853
2032 273472.000  -3963208.8260   3350961.5815   3695024.0792   1  22   0.0113   0.0154   0.0096  -0.0122   0.0111  -0.0094   0.00   11.5    2.96946    8.98276   -4.54247   0.01521  0.01810  0.01288  0.00507 -0.00667 -0.00513    1.20103   -1.54114  236.22915   0.02154  0.02615  0.20314  0.00248 -0.06091 -0.00805
2032 273473.000  -3963205.8670   3350970.7632   3695019.3075   1  22   0.0106   0.0154   0.0097  -0.0115   0.0111  -0.0090   0.00   11.1    3.17979    9.35087   -4.86043   0.01461  0.01751  0.01236  0.00434 -0.00542 -0.00513    0.66468   -1.59633  236.43183   0.02041  0.02423  0.19621  0.00393 -0.05588 -0.01232
2032 273474.000  -3963202.6829   3350980.4361   3695014.3082   1  22   0.0102   0.0146   0.0093  -0.0111   0.0105  -0.0087   0.00   11.5    3.38117    9.83142   -5.01683   0.01407  0.01700  0.01190  0.00351 -0.00430 -0.00528    0.79166   -1.48676  237.11546   0.01978  0.02293  0.18989  0.00451 -0.05153 -0.01451
2032 273475.000  -3963199.3148   3350990.5113   3695009.1369   1  22   0.0101   0.0142   0.0091  -0.0108   0.0102  -0.0085   0.00   11.7    3.56946   10.13975   -5.23571   0.01362  0.01650  0.01157  0.00233 -0.00298 -0.00525    0.42534   -1.55357  237.45861   0.01947  0.02206  0.18386  0.00461 -0.04760 -0.01523
2032 273476.000  -3963195.7916   3351000.8579   3695003.8078   1  22   0.0099   0.0140   0.0089  -0.0107   0.0100  -0.0084   0.00   12.2    3.64222   10.27365   -5.32986   0.01335  0.01609  0.01138  0.00070 -0.00042 -0.00497    0.03176   -0.92423  237.63844   0.01938  0.02149  0.17782  0.00435 -0.04385 -0.01460
2032 273477.000  -3963192.2192   3351011.2959   3694998.3678   1  25   0.0094   0.0135   0.0086  -0.0102   0.0097  -0.0081   0.00    8.3    3.66182   10.33856   -5.47887   0.01303  0.01569  0.01125 -0.00226  0.00245 -0.00478    0.09421   -1.39330  237.72450   0.01942  0.02113  0.17131  0.00376 -0.04011 -0.01226
2032 273478.000  -3963188.6283   3351021.7975   3694992.8872   1  25   0.0088   0.0124   0.0080  -0.0093   0.0088  -0.0075   0.00    9.4    3.59243   10.54922   -5.44493   0.01272  0.01539  0.01110 -0.00308  0.00308 -0.00483    0.17786   -1.29213  237.77886   0.01953  0.02098  0.16524  0.00293 -0.03660 -0.00774
2032 273479.000  -3963185.0651   3351032.5150   3694987.3360   1  27   0.0085   0.0120   0.0078  -0.0090   0.0085  -0.0072   0.00   10.5    3.48085   10.79989   -5.46007   0.01242  0.01513  0.01097 -0.00372  0.00339 -0.00497    0.79974   -0.91018  237.65119   0.01970  0.02100  0.16061  0.00183 -0.03366  0.00661
2032 273480.000  -3963181.5143   3351043.4100   3694981.6782   1  27   0.0081   0.0109   0.0072  -0.0083   0.0076  -0.0067   0.00   11.7    3.63118   10.61125   -5.60506   0.01227  0.01490  0.01088 -0.00404  0.00379 -0.00489    0.28357   -1.54862  237.76205   0.01989  0.02114  0.15703 -0.00110 -0.03111  0.01244
2032 273481.000  -3963177.9838   3351054.0618   3694976.1364   1  27   0.0079   0.0105   0.0069  -0.0080   0.0072  -0.0065   0.00   12.9    3.53242   10.44154   -5.44399   0.01220  0.01477  0.01084 -0.00422  0.00405 -0.00475    0.44750   -1.42692  237.99494   0.02012  0.02131  0.15281 -0.00230 -0.02835  0.01688
2032 273482.000  -3963174.8978   3351064.6966   3694971.0092   2  26   0.0823   0.1015   0.0694  -0.0776   0.0660  -0.0652   0.00    2.5    3.38439   10.14961   -5.31695   0.01469  0.01852  0.01290 -0.00812  0.00790 -0.00791   -0.35955   -1.22121  237.75463   0.02037  0.02151  0.14877 -0.00290 -0.02559  0.02059
2032 273483.000  -3963171.2344   3351074.6354   3694965.3521   1  26   0.0077   0.0097   0.0067  -0.0074   0.0066  -0.0062   0.00    3.3    3.28231    9.86920   -5.22079   0.01196  0.01457  0.01074 -0.00466  0.00422 -0.00473    0.06918   -1.68178  237.74277   0.02066  0.02172  0.14508 -0.00319 -0.02298  0.02377
2032 273484.000  -3963167.9573   3351084.4737   3694960.1676   1  26   0.0076   0.0092   0.0064  -0.0071   0.0062  -0.0060   0.00    4.0    3.27493    9.58488   -5.07600   0.01182  0.01451  0.01060 -0.00479  0.00420 -0.00491   -0.06313   -1.55861  238.07413   0.02097  0.02194  0.14225 -0.00325 -0.02047  0.02644
2032 273485.000  -3963164.7295   3351094.0816   3694955.1127   1  26   0.0079   0.0093   0.0064  -0.0073   0.0062  -0.0062   0.00    4.2    3.27022    9.50278   -5.04353   0.01161  0.01444  0.01044 -0.00499  0.00403 -0.00525   -0.02200   -1.80967  238.22187   0.02128  0.02215  0.14070 -0.00313 -0.01820  0.02864
2032 273486.000  -3963161.4637   3351103.6738   3694950.0468   1  26   0.0079   0.0093   0.0064  -0.0073   0.0062  -0.0062   0.00    4.5    3.34962    9.66673   -5.13554   0.01141  0.01434  0.01031 -0.00515  0.00377 -0.00557   -0.04819   -1.59140  238.21698   0.02153  0.02234  0.14082 -0.00288 -0.01639  0.03030
2032 273487.000  -3963158.0981   3351113.5120   3694944.8401   1  26   0.0078   0.0092   0.0063  -0.0072   0.0062  -0.0060   0.00    4.9    3.41799    9.97693   -5.32489   0.01132  0.01423  0.01029 -0.00523  0.00356 -0.00567   -0.14689   -1.28713  238.05585   0.02167  0.02250  0.14209 -0.00255 -0.01514  0.03118
2032 273488.000  -3963154.6608   3351123.5865   3694939.4461   1  26   0.0077   0.0092   0.0063  -0.0072   0.0062  -0.0060   0.00    4.1    3.49787    9.99012   -5.37631   0.01128  0.01417  0.01025 -0.00525  0.00351 -0.00567   -0.49402   -1.84555  238.19934   0.02171  0.02263  0.14351 -0.00222 -0.01438  0.03145
2032 273489.000  -3963151.2046   3351133.5232   3694934.1200   1  25   0.0079   0.0092   0.0064  -0.0073   0.0062  -0.0062   0.00    6.6    3.31006    9.39189   -5.07603   0.01126  0.01420  0.01017 -0.00524  0.00371 -0.00559   -0.96025   -1.68495  238.22253   0.02178  0.02273  0.14500 -0.00184 -0.01344  0.03188
2032 273490.000  -3963147.9429   3351142.9015   3694929.0775   1  24   0.0079   0.0093   0.0065  -0.0073   0.0062  -0.0062   0.00    7.5    3.20971    9.20067   -4.99917   0.01121  0.01417  0.01013 -0.00527  0.00369 -0.00558   -0.84660   -1.60642  237.95548   0.02194  0.02280  0.14629 -0.00135 -0.01198  0.03292
2032 273491.000  -3963144.7607   3351152.1123   3694924.0551   1  24   0.0079   0.0093   0.0065  -0.0073   0.0062  -0.0062   0.00    8.1    3.17854    9.02732   -5.03800   0.01115  0.01411  0.01008 -0.00531  0.00368 -0.00560   -0.90752   -1.57292  237.65549   0.02208  0.02286  0.14775 -0.00075 -0.01072  0.03382
2032 273492.000  -3963141.6185   3351161.1650   3694919.0803   1  21   0.0103   0.0128   0.0077  -0.0103   0.0084  -0.0080   0.00   14.0    3.17532    8.91401   -4.92137   0.01115  0.01413  0.01003 -0.00537  0.00366 -0.00561   -1.06350   -1.70394  238.07353   0.02220  0.02290  0.14932  0.00065 -0.00956  0.03456
2032 273493.000  -3963138.3950   3351170.2229   3694914.1572   1  21   0.0103   0.0123   0.0076  -0.0101   0.0082  -0.0079   0.00   14.7    3.35114    9.12741   -5.00089   0.01115  0.01403  0.01003 -0.00538  0.00351 -0.00558   -0.97245   -1.72125  238.54158   0.02224  0.02292  0.15091  0.00120 -0.00853  0.03478
2032 273494.000  -3963134.9997   3351179.5487   3694909.0950   1  22   0.0102   0.0121   0.0076  -0.0100   0.0082  -0.0079   0.00   14.9    3.47319    9.50988   -5.19093   0.01123  0.01392  0.01012 -0.00532  0.00342 -0.00539   -1.37402   -1.96546  238.52023   0.02214  0.02293  0.15188  0.00135 -0.00839  0.03404
2032 273495.000  -3963131.4687   3351189.2746   3694903.7808   1  22   0.0097   0.0117   0.0074  -0.0095   0.0079  -0.0076   0.00   15.9    3.56966    9.93155   -5.36882   0.01131  0.01383  0.01020 -0.00522  0.00339 -0.00519   -0.73902   -2.09390  238.44772   0.02192  0.02293  0.15164  0.00117 -0.00949  0.03224
2032 273496.000  -3963127.7865   3351199.3983   3694898.2888   1  22   0.0094   0.0115   0.0073  -0.0092   0.0077  -0.0074   0.00   16.6    3.78906   10.18684   -5.62941   0.01130  0.01372  0.01019 -0.00517  0.00345 -0.00514   -1.40951   -1.83649  238.56709   0.02167  0.02292  0.15050  0.00087 -0.01102  0.02971
2032 273497.000  -3963124.0087   3351209.7828   3694892.6495   1  22   0.0108   0.0139   0.0089  -0.0112   0.0100  -0.0089   0.00   17.8    3.94983   10.13133   -5.78160   0.01114  0.01368  0.01003 -0.00523  0.00363 -0.00535   -2.12864   -2.42230  238.62137   0.02149  0.02293  0.14991  0.00070 -0.01240  0.02734
2032 273498.000  -3963120.1197   3351220.0964   3694886.8949   1  21   0.0104   0.0137   0.0088  -0.0108   0.0098  -0.0087   0.00   18.7    3.82792   10.29128   -5.69614   0.01105  0.01368  0.00994 -0.00519  0.00361 -0.00542   -1.61892   -2.02305  238.41077   0.02140  0.02294  0.15015  0.00050 -0.01359  0.02544
2032 273499.000  -3963116.3174   3351230.5347   3694881.2255   1  24   0.0097   0.0131   0.0085  -0.0101   0.0094  -0.0082   0.00   17.0    3.81520   10.37132   -5.73284   0.01093  0.01364  0.00985 -0.00516  0.00366 -0.00547   -1.28306   -0.83895  238.06926   0.02135  0.02294  0.15116 -0.00032 -0.01445  0.02419
2032 273500.000  -3963112.5401   3351241.0158   3694875.3646   1  23   0.0093   0.0121   0.0078  -0.0094   0.0085  -0.0076   0.00   18.8    3.85256   10.51819   -5.83817   0.01088  0.01357  0.00979 -0.00515  0.00364 -0.00546   -1.77285   -2.27540  238.06077   0.02134  0.02295  0.15243 -0.00075 -0.01545  0.02317
2032 273501.000  -3963108.7270   3351251.6080   3694869.5572   1  22   0.0106   0.0128   0.0081  -0.0106   0.0090  -0.0084   0.00   18.4    3.79805   10.47661   -5.78057   0.01083  0.01355  0.00972 -0.00520  0.00369 -0.00548   -1.26093   -1.73896  238.17163   0.02136  0.02296  0.15399 -0.00098 -0.01614  0.02254
2032 273502.000  -3963104.9453   3351262.1337   3694863.7630   1  18   0.0120   0.0135   0.0083  -0.0113   0.0093  -0.0086   0.00   17.7    3.85410   10.53144   -5.87651   0.01084  0.01351  0.00969 -0.00521  0.00372 -0.00543   -1.34294   -2.14954  238.11639   0.02143  0.02298  0.15574 -0.00104 -0.01660  0.02244
2032 273503.000  -3963101.1606   3351272.7850   3694857.9277   1  18   0.0121   0.0135   0.0088  -0.0114   0.0095  -0.0088   0.00   19.0    3.84327   10.58989   -5.98937   0.01080  0.01345  0.00967 -0.00520  0.00375 -0.00542   -1.96091   -2.77510  237.97233   0.02149  0.02300  0.15753 -0.00125 -0.01711  0.02238
2032 273504.000  -3963097.4003   3351283.4947   3694851.9596   1  17   0.0125   0.0155   0.0102  -0.0125   0.0114  -0.0098   0.00   19.8    3.71226   10.69802   -5.91660   0.01079  0.01347  0.00967 -0.00521  0.00382 -0.00538   -0.91062   -2.70606  237.62057   0.02156  0.02304  0.15934 -0.00141 -0.01780  0.02250
2032 273505.000  -3963093.6445   3351294.2475   3694846.0407   1  20   0.0127   0.0153   0.0109  -0.0125   0.0115  -0.0101   0.00   21.4    3.80444   10.79224   -5.98280   0.01076  0.01340  0.00967 -0.00520  0.00381 -0.00538   -1.08289   -2.02963  237.81021   0.02164  0.02307  0.16121 -0.00161 -0.01817  0.02279
2032 273506.000  -3963089.7306   3351305.1884   3694840.0277   1  15   0.0195   0.0237   0.0134  -0.0196   0.0158  -0.0138   0.00    9.1    4.03763   11.10216   -6.08444   0.01098  0.01353  0.00975 -0.00542  0.00383 -0.00530   -1.13016   -1.71262  238.38198   0.02175  0.02313  0.16303 -0.00150 -0.01845  0.02251
2032 273507.000  -3963085.6706   3351316.4712   3694833.8922   1  19   0.0203   0.0263   0.0146  -0.0215   0.0179  -0.0153   0.00    9.0    4.12715   11.34651   -6.20761   0.01095  0.01355  0.00975 -0.00546  0.00394 -0.00535   -1.08515   -3.07823  238.60778   0.02177  0.02318  0.16457 -0.00147 -0.01887  0.02149
2032 273508.000  -3963081.5673   3351327.9881   3694827.7623   1  18   0.0193   0.0248   0.0140  -0.0204   0.0171  -0.0148   0.00    9.0    4.09664   11.58237   -6.17550   0.01089  0.01347  0.00971 -0.00539  0.00391 -0.00535   -0.59301   -2.06517  238.57508   0.02179  0.02320  0.16612 -0.00132 -0.01927  0.02044
2032 273509.000  -3963077.5043   3351339.6050   3694821.5548   1  18   0.0185   0.0238   0.0135  -0.0196   0.0165  -0.0142   0.00    9.1    4.01287   11.46955   -6.16905   0.01079  0.01342  0.00964 -0.00537  0.00398 -0.00536   -0.74261   -2.41759  238.24750   0.02184  0.02324  0.16794 -0.00123 -0.01958  0.01991
2032 273510.000  -3963073.5484   3351351.0800   3694815.4046   1  19   0.0126   0.0145   0.0100  -0.0121   0.0105  -0.0102   0.00    3.6    3.92048   11.29850   -6.08071   0.01063  0.01321  0.00955 -0.00513  0.00381 -0.00528   -0.60707   -2.52154  238.25362   0.02189  0.02326  0.16985 -0.00150 -0.01958  0.02058
2032 273511.000  -3963069.6181   3351362.3841   3694809.3783   1  21   0.0113   0.0136   0.0095  -0.0110   0.0099  -0.0095   0.00    5.7    3.92857   11.21035   -6.01348   0.01058  0.01318  0.00952 -0.00510  0.00386 -0.00524   -0.50246   -2.17304  238.42103   0.02200  0.02330  0.17147 -0.00165 -0.01904  0.02195
2032 273512.000  -3963065.7035   3351373.6767   3694803.3825   1  21   0.0100   0.0120   0.0088  -0.0096   0.0090  -0.0085   0.00   10.0    3.97343   11.17925   -6.16137   0.01049  0.01310  0.00948 -0.00510  0.00388 -0.00524   -0.81542   -1.72218  238.16289   0.02211  0.02333  0.17311 -0.00171 -0.01840  0.02324
2032 273513.000  -3963061.8243   3351384.9534   3694797.2794   1  19   0.0098   0.0131   0.0105  -0.0096   0.0103  -0.0086   0.00   10.5    3.90063   11.25729   -6.12989   0.01048  0.01311  0.00954 -0.00504  0.00395 -0.00517   -0.70202   -2.43079  238.06744   0.02225  0.02339  0.17488 -0.00166 -0.01805  0.02431
2032 273514.000  -3963057.9388   3351396.2622   3694791.2131   1  19   0.0095   0.0130   0.0103  -0.0094   0.0101  -0.0083   0.00   11.0    3.89367   11.29674   -6.03790   0.01046  0.01309  0.00951 -0.00502  0.00395 -0.00516   -0.32411   -2.28716  238.28112   0.02237  0.02344  0.17674 -0.00166 -0.01764  0.02524
2032 273515.000  -3963054.0499   3351407.5559   3694785.2331   1  20   0.0089   0.0127   0.0101  -0.0089   0.0098  -0.0078   0.00   12.6    3.90351   11.26070   -5.96192   0.01043  0.01307  0.00949 -0.00500  0.00396 -0.00513   -0.45450   -1.98133  238.50170   0.02248  0.02349  0.17858 -0.00160 -0.01696  0.02613
2032 273516.000  -3963050.0879   3351418.8920   3694779.2821   1  20   0.0085   0.0121   0.0095  -0.0085   0.0092  -0.0074   0.00   11.3    4.02565   11.40612   -5.98625   0.01039  0.01302  0.00947 -0.00500  0.00390 -0.00515   -0.28886   -1.53514  238.85813   0.02257  0.02354  0.18052 -0.00144 -0.01620  0.02663
2032 273517.000  -3963046.0757   3351430.3425   3694773.3282   1  21   0.0089   0.0119   0.0094  -0.0084   0.0090  -0.0074   0.00   11.6    4.06949   11.35487   -5.93880   0.01038  0.01300  0.00945 -0.00499  0.00392 -0.00513   -0.39746   -2.02666  239.13809   0.02265  0.02359  0.18249 -0.00113 -0.01549  0.02674
2032 273518.000  -3963042.0228   3351441.6716   3694767.4455   1  18   0.0092   0.0119   0.0095  -0.0086   0.0091  -0.0076   0.00   12.3    3.96524   11.18438   -5.88752   0.01036  0.01298  0.00944 -0.00500  0.00399 -0.00509   -0.56568   -1.71107  238.84338   0.02274  0.02365  0.18444 -0.00072 -0.01448  0.02714
2032 273519.000  -3963038.1977   3351452.8155   3694761.5751   1  15   0.0092   0.0119   0.0099  -0.0086   0.0093  -0.0077   0.00   12.1    3.80082   11.08393   -5.88957   0.01033  0.01296  0.00947 -0.00501  0.00400 -0.00504   -0.32223   -2.48186  238.33906   0.02288  0.02371  0.18627 -0.00036 -0.01367  0.02820
2032 273520.000  -3963034.3735   3351463.8977   3694755.6921   1  15   0.0091   0.0116   0.0098  -0.0085   0.0090  -0.0076   0.00   12.2    3.87262   11.12666   -5.88824   0.01031  0.01292  0.00943 -0.00500  0.00398 -0.00506   -0.25483   -2.18264  238.57624   0.02300  0.02378  0.18821  0.00041 -0.01311  0.02906
2032 273521.000  -3963030.8711   3351475.2544   3694750.2298   2   5   0.0779   0.0899   0.0653  -0.0703   0.0610  -0.0602   0.00    1.4    3.88589   10.98501   -5.71880   0.01390  0.01641  0.01234 -0.00749  0.00699 -0.00724   -0.49289   -2.20278  239.11057   0.02355  0.02414  0.19027  0.00253 -0.01280  0.02939
2032 273521.994  -3963026.9575   3351486.1468   3694744.6500   3   0   0.0876   0.1008   0.0738  -0.0766   0.0671  -0.0661   0.00    0.0    3.93485   10.80509   -5.44078   0.01548  0.01809  0.01384 -0.00701  0.00666 -0.00692   -0.42930   -2.06630  239.99305   0.02420  0.02478  0.19236  0.00245 -0.01277  0.02973
2032 273522.994  -3963022.9805   3351496.8468   3694739.3288   3   0   0.0993   0.1138   0.0843  -0.0829   0.0732  -0.0722   0.00    0.0    4.01206   10.60257   -5.19457   0.01724  0.01997  0.01552 -0.00614  0.00608 -0.00629   -0.47568   -2.34049  240.88392   0.02486  0.02543  0.19445  0.00237 -0.01277  0.03009
2032 273524.000  -3963018.9725   3351507.3509   3694734.1488   2   7   0.1127   0.1287   0.0965  -0.0890   0.0793  -0.0780   0.00    0.0    3.98843   10.43878   -5.19729   0.01900  0.02187  0.01734 -0.00501  0.00516 -0.00524   -0.79286   -1.95881  240.73585   0.02550  0.02605  0.19654  0.00229 -0.01270  0.03043
2032 273525.000  -3963014.9811   3351517.8132   3694728.8796   2   7   0.1142   0.1309   0.0987  -0.0915   0.0822  -0.0801   0.00    0.0    3.99768   10.57059   -5.31605   0.01901  0.02193  0.01751 -0.00545  0.00548 -0.00549   -0.66009   -1.79467  240.36977   0.02562  0.02612  0.19842  0.00257 -0.01057  0.03107
2032 273526.000  -3963011.0268   3351528.4304   3694723.5439   2   7   0.1140   0.1308   0.0988  -0.0918   0.0826  -0.0803   0.00    0.0    3.88568   10.76539   -5.30063   0.01895  0.02186  0.01753 -0.00553  0.00556 -0.00550   -0.01702   -1.39242  240.20975   0.02570  0.02616  0.20046  0.00278 -0.00851  0.03145
2032 273527.000  -3963007.1059   3351539.2050   3694718.1565   2   9   0.1136   0.1304   0.0985  -0.0918   0.0827  -0.0802   0.00    0.0    3.96976   10.78022   -5.45620   0.01889  0.02176  0.01750 -0.00559  0.00568 -0.00549   -0.88708   -1.53646  239.94316   0.02576  0.02620  0.20254  0.00294 -0.00694  0.03164
2032 273528.000  -3963003.2057   3351549.9431   3694712.6029   2   9   0.1132   0.1300   0.0982  -0.0917   0.0828  -0.0801   0.00    0.0    3.77465   10.74710   -5.58117   0.01882  0.02170  0.01745 -0.00554  0.00582 -0.00552   -0.40256   -1.40067  238.97485   0.02581  0.02625  0.20466  0.00303 -0.00613  0.03177
2032 273529.000  -3962999.4772   3351560.6588   3694706.9294   2  16   0.1127   0.1291   0.0975  -0.0916   0.0824  -0.0797   0.00    1.0    3.70514   10.75870   -5.69381   0.01875  0.02158  0.01736 -0.00561  0.00584 -0.00552   -0.38098   -2.07858  238.55853   0.02586  0.02628  0.20677  0.00302 -0.00672  0.03195
2032 273530.000  -3962995.8373   3351571.4084   3694701.3012   2  15   0.1120   0.1279   0.0965  -0.0911   0.0815  -0.0791   0.00    1.1    3.61050   10.68245   -5.52627   0.01864  0.02143  0.01724 -0.00580  0.00572 -0.00554   -0.12885   -3.63577  238.85665   0.02591  0.02631  0.20888  0.00299 -0.00748  0.03218
2032 273531.000  -3962992.1947   3351581.9668   3694695.7314   2  20   0.1113   0.1269   0.0953  -0.0909   0.0809  -0.0785   0.00    1.1    3.63459   10.40761   -5.49084   0.01851  0.02128  0.01704 -0.00606  0.00567 -0.00562   -0.42008   -4.67580  238.78310   0.02597  0.02635  0.21102  0.00296 -0.00845  0.03268
2032 273532.000  -3962988.5706   3351592.3020   3694690.2577   2  22   0.1105   0.1260   0.0942  -0.0906   0.0803  -0.0780   0.00    1.2    3.60900   10.17313   -5.42414   0.01838  0.02115  0.01686 -0.00626  0.00566 -0.00566   -1.00204   -4.63599  238.81934   0.02604  0.02638  0.21316  0.00293 -0.00910  0.03338
2032 273533.000  -3962985.0390   3351602.3086   3694684.9617   2  22   0.1096   0.1257   0.0934  -0.0906   0.0804  -0.0777   0.00    1.2    3.31451    9.50589   -5.04031   0.01828  0.02113  0.01682 -0.00652  0.00579 -0.00539   -0.86088   -3.76698  238.79996   0.02613  0.02642  0.21518  0.00296 -0.00881  0.03438
2032 273534.000  -3962981.4890   3351611.2602   3694679.7234   1  20   0.0130   0.0162   0.0104  -0.0135   0.0119  -0.0106   0.00    4.7    3.06635    8.64975   -4.55831   0.01100  0.01328  0.01047 -0.00508  0.00339 -0.00245   -1.48940   -4.56604  239.42484   0.02511  0.02532  0.21550  0.00244  0.00902  0.03707
2032 273535.000  -3962978.3597   3351619.6994   3694675.3787   1  23   0.0129   0.0159   0.0102  -0.0133   0.0117  -0.0105   0.00    5.5    3.12399    8.28869   -4.17300   0.01111  0.01333  0.01030 -0.00480  0.00376 -0.00250   -0.61596   -3.42307  240.53720   0.02536  0.02540  0.21563  0.00291  0.01252  0.03893
2032 273536.000  -3962975.1768   3351627.8655   3694671.4700   1  22   0.0117   0.0135   0.0088  -0.0115   0.0098  -0.0092   0.00   16.2    3.27331    7.91221   -3.72852   0.01121  0.01342  0.01011 -0.00435  0.00399 -0.00268   -0.80507   -2.66754  242.96168   0.02559  0.02548  0.21584  0.00349  0.01614  0.04048
2032 273537.000  -3962971.9096   3351635.5301   3694668.0373   1  20   0.0114   0.0127   0.0084  -0.0109   0.0089  -0.0086   0.00   15.7    3.16504    7.24296   -3.28357   0.01145  0.01349  0.01024 -0.00413  0.00425 -0.00160   -0.68708   -2.05947  244.46319   0.02583  0.02557  0.21555  0.00417  0.01974  0.04189
2032 273538.000  -3962968.8748   3351642.6218   3694664.8818   1  20   0.0122   0.0135   0.0086  -0.0113   0.0089  -0.0081   0.00    6.1    2.91498    6.77237   -3.11145   0.01132  0.01343  0.01032 -0.00454  0.00404 -0.00158   -0.94623   -1.83064  243.90819   0.02611  0.02567  0.21517  0.00482  0.02259  0.04339
2032 273539.000  -3962966.1446   3351649.1804   3694661.8453   1  20   0.0114   0.0128   0.0084  -0.0107   0.0087  -0.0081   0.00    6.2    2.48576    6.18105   -2.96997   0.01119  0.01339  0.01052 -0.00497  0.00372 -0.00099   -0.91047   -1.88814  242.26512   0.02641  0.02577  0.21479  0.00537  0.02465  0.04502
2032 273540.000  -3962963.8333   3351655.0902   3694658.9439   1  20   0.0103   0.0109   0.0074  -0.0092   0.0072  -0.0072   0.00    5.5    2.01796    5.30098   -2.75490   0.01127  0.01340  0.01096 -0.00530  0.00339  0.00234   -1.24966   -1.98667  240.36667   0.02675  0.02586  0.21405  0.00587  0.02614  0.04675
2032 273541.000  -3962962.0390   3351659.9677   3694656.4213   1  22   0.0102   0.0109   0.0074  -0.0092   0.0072  -0.0073   0.00    5.7    1.48023    4.04973   -2.19981   0.01184  0.01349  0.01175 -0.00550  0.00354  0.00468   -1.34244   -1.80243  239.20226   0.02718  0.02595  0.21144  0.00642  0.02746  0.04854
2032 273542.000  -3962960.7431   3351663.6116   3694654.5027   1  21   0.0101   0.0108   0.0074  -0.0091   0.0073  -0.0073   0.00    5.7    1.07215    2.99744   -1.67862   0.01201  0.01353  0.01194 -0.00551  0.00385  0.00519   -1.22890   -1.59906  238.52739   0.02768  0.02606  0.20673  0.00706  0.02888  0.05013
2032 273543.000  -3962959.8238   3351666.2243   3694653.0993   1  23   0.0098   0.0106   0.0073  -0.0089   0.0073  -0.0074   0.00    5.0    0.67708    1.93718   -1.12788   0.01208  0.01357  0.01197 -0.00548  0.00417  0.00535   -1.28579   -1.68308  238.15707   0.02818  0.02619  0.20169  0.00775  0.03031  0.05150
2032 273544.000  -3962959.3064   3351667.7230   3694652.2867   1  24   0.0096   0.0103   0.0070  -0.0087   0.0070  -0.0072   0.00    5.0    0.30018    0.85074   -0.54529   0.01205  0.01360  0.01185 -0.00542  0.00446  0.00525   -1.37505   -1.75138  238.03759   0.02870  0.02634  0.19638  0.00847  0.03174  0.05264
2032 273545.000  -3962959.1258   3351668.2448   3694652.0025   1  24   0.0093   0.0101   0.0068  -0.0085   0.0068  -0.0069   0.00    5.1    0.12116    0.30839   -0.25455   0.01127  0.01355  0.01095 -0.00545  0.00432  0.00290   -0.98458   -1.74172  237.95246   0.02921  0.02650  0.19228  0.00918  0.03315  0.05371
2032 273546.000  -3962959.0353   3351668.5176   3694651.8621   1  24   0.0092   0.0100   0.0067  -0.0084   0.0068  -0.0068   0.00    5.4    0.12875    0.34314   -0.25802   0.01042  0.01342  0.00998 -0.00542  0.00397 -0.00335   -0.91470   -1.69606  237.89819   0.02964  0.02664  0.19181  0.00975  0.03443  0.05490
2032 273547.000  -3962958.9571   3351668.7434   3694651.7358   1  24   0.0091   0.0099   0.0066  -0.0083   0.0067  -0.0067   0.00    5.3    0.11270    0.28533   -0.21755   0.01022  0.01330  0.00971 -0.00532  0.00380 -0.00403   -0.88421   -1.66453  237.89167   0.02992  0.02675  0.19321  0.01010  0.03537  0.05583
2032 273548.000  -3962958.8943   3351668.9224   3694651.6368   1  24   0.0090   0.0098   0.0065  -0.0082   0.0065  -0.0065   0.00    5.4    0.05554    0.08967   -0.11125   0.01028  0.01320  0.00975 -0.00523  0.00371 -0.00394   -1.00764   -1.69469  237.88731   0.03004  0.02682  0.19500  0.01021  0.03585  0.05627
2032 273549.000  -3962958.8887   3351668.9257   3694651.6293   1  25   0.0089   0.0097   0.0064  -0.0081   0.0065  -0.0064   0.00    5.5    0.05586    0.06029   -0.08892   0.01056  0.01309  0.01001 -0.00507  0.00368 -0.00323   -0.90054   -1.67867  237.87702   0.03001  0.02686  0.19647  0.01014  0.03592  0.05619
2032 273550.000  -3962958.8881   3351668.9248   3694651.6280   1  25   0.0087   0.0097   0.0064  -0.0080   0.0065  -0.0064   0.00    5.6    0.07052    0.06144   -0.09088   0.01093  0.01298  0.01037 -0.00489  0.00369 -0.00178   -0.86010   -1.65311  237.89449   0.02980  0.02686  0.19697  0.00983  0.03539  0.05535
2032 273551.000  -3962958.8440   3351669.0592   3694651.5592   1  24   0.0090   0.0098   0.0067  -0.0081   0.0066  -0.0067   0.00    5.4    0.19709    0.41959   -0.26761   0.01173  0.01285  0.01112 -0.00449  0.00387  0.00360   -0.68054   -1.63927  237.86697   0.02938  0.02681  0.19569  0.00922  0.03406  0.05347
2032 273552.000  -3962958.6663   3351669.5802   3694651.2776   1  24   0.0090   0.0097   0.0067  -0.0081   0.0066  -0.0067   0.00    5.4    0.37300    0.86975   -0.51407   0.01255  0.01273  0.01187 -0.00402  0.00410  0.00550   -0.48678   -1.61519  237.76795   0.02875  0.02672  0.19182  0.00828  0.03173  0.05029
2032 273553.000  -3962958.2055   3351670.9177   3694650.5621   1  25   0.0089   0.0097   0.0067  -0.0081   0.0066  -0.0067   0.00    5.8    0.81854    2.11170   -1.15310   0.01434  0.01256  0.01354 -0.00271  0.00472  0.00852   -0.26216   -1.78945  238.06986   0.02789  0.02659  0.18294  0.00686  0.02776  0.04492
2032 273554.000  -3962957.3353   3351673.4183   3694649.2348   1  25   0.0087   0.0097   0.0065  -0.0079   0.0065  -0.0065   0.00    5.7    1.25783    3.30227   -1.75227   0.01525  0.01240  0.01439 -0.00171  0.00499  0.00975   -0.13515   -1.98840  238.43977   0.02701  0.02647  0.16995  0.00522  0.02242  0.03777
2032 273555.000  -3962956.0299   3351677.0716   3694647.2983   1  25   0.0086   0.0096   0.0065  -0.0079   0.0065  -0.0064   0.00    5.5    1.52655    4.00481   -2.13854   0.01466  0.01228  0.01378 -0.00223  0.00476  0.00873   -0.49846   -1.83206  238.38447   0.02636  0.02642  0.15657  0.00384  0.01651  0.03008
2032 273556.000  -3962954.4751   3351681.3951   3694645.0069   1  25   0.0086   0.0096   0.0065  -0.0079   0.0065  -0.0064   0.00    5.8    1.79455    4.75197   -2.52213   0.01416  0.01218  0.01325 -0.00259  0.00458  0.00779   -0.26668   -1.69796  238.29510   0.02602  0.02642  0.14659  0.00312  0.01039  0.02299
2032 273557.000  -3962952.6513   3351686.5464   3694642.2932   1  25   0.0085   0.0096   0.0065  -0.0078   0.0064  -0.0064   0.00    6.0    1.99961    5.50879   -2.90026   0.01363  0.01212  0.01267 -0.00279  0.00447  0.00669   -0.07797   -1.34604  237.99890   0.02587  0.02646  0.13860  0.00306 -0.00438  0.01537
2032 273558.000  -3962950.6698   3351692.2625   3694639.2906   1  25   0.0092   0.0105   0.0067  -0.0087   0.0070  -0.0068   0.00    4.7    2.02773    5.69871   -3.00378   0.01253  0.01209  0.01158 -0.00349  0.00409  0.00426    0.04804   -1.15909  237.61979   0.02586  0.02653  0.13354  0.00344 -0.01073  0.00489
2032 273559.000  -3962948.7329   3351698.0704   3694636.2265   1  23   0.0097   0.0106   0.0069  -0.0090   0.0071  -0.0071   0.00    7.0    1.95485    5.63515   -2.98368   0.01155  0.01209  0.01066 -0.00400  0.00374 -0.00141    0.32420   -1.27587  237.18998   0.02591  0.02661  0.13139  0.00391 -0.01368 -0.01106
2032 273560.000  -3962946.8440   3351703.8503   3694633.1832   1  22   0.0097   0.0106   0.0071  -0.0089   0.0072  -0.0073   0.00    6.6    1.94289    5.82373   -3.05633   0.01113  0.01208  0.01026 -0.00418  0.00361 -0.00316    0.59055   -1.16286  236.83844   0.02600  0.02670  0.13095  0.00433 -0.01559 -0.01504
2032 273561.000  -3962944.9421   3351709.7883   3694630.0460   1  21   0.0099   0.0106   0.0075  -0.0088   0.0071  -0.0076   0.00    6.5    1.89461    5.67019   -3.02158   0.01065  0.01209  0.00986 -0.00445  0.00342 -0.00416    0.33516   -0.72125  236.50143   0.02608  0.02679  0.13136  0.00466 -0.01699 -0.01745
2032 273562.000  -3962943.1913   3351715.4669   3694627.0805   1  16   0.0118   0.0142   0.0104  -0.0116   0.0105  -0.0102   0.00    3.5    1.78175    5.32776   -2.82969   0.01035  0.01216  0.00969 -0.00471  0.00340 -0.00454    0.27627   -0.72949  236.47363   0.02615  0.02687  0.13252  0.00482 -0.01771 -0.01855
2032 273563.000  -3962941.7857   3351720.9245   3694624.6774   2   9   0.0927   0.1062   0.0785  -0.0812   0.0677  -0.0671   0.00    2.2    1.75513    5.00521   -2.58880   0.01593  0.01827  0.01496 -0.00750  0.00466 -0.00571    0.09638   -0.62761  237.25689   0.02715  0.02759  0.13440  0.00476 -0.01950 -0.01979
2032 273564.001  -3962939.9951   3351725.8163   3694622.2983   3   2   0.1053   0.1203   0.0904  -0.0881   0.0726  -0.0725   0.00    0.0    1.88358    4.76500   -2.13546   0.01782  0.02026  0.01682 -0.00684  0.00324 -0.00424    0.40315   -0.58362  241.06104   0.02775  0.02818  0.13571  0.00475 -0.01960 -0.02020
2032 273565.000  -3962937.8867   3351730.4217   3694620.5011   2   7   0.1197   0.1362   0.1042  -0.0946   0.0765  -0.0771   0.00    0.0    2.37527    4.44320   -1.40472   0.02004  0.02246  0.01872 -0.00531 -0.00203  0.00194   -0.09527   -1.34157  250.06759   0.02836  0.02876  0.13702  0.00472 -0.01967 -0.02061
2032 273566.000  -3962935.1171   3351734.6987   3694619.6366   2  11   0.1323   0.1414   0.1073  -0.1042   0.0727  -0.0753   0.00    0.0    3.12824    3.98040   -0.21979   0.02197  0.02314  0.01932 -0.00633 -0.00484  0.00567   -0.64434   -1.73433  265.59579   0.02873  0.02884  0.13760  0.00471 -0.01788 -0.02054
2032 273567.000  -3962931.7575   3351738.4231   3694619.7631   2   9   0.1450   0.1415   0.1078  -0.1085   0.0747  -0.0824   0.00    0.0    3.54844    3.38758    0.67095   0.02372  0.02334  0.01929 -0.00462 -0.00478  0.00530   -0.67768   -2.66737  278.69602   0.02869  0.02893  0.13763  0.00495 -0.01549 -0.01947
2032 273568.000  -3962928.0336   3351741.4436   3694620.8974   2   4   0.1658   0.1500   0.1230  -0.1158   0.0693  -0.0860   0.00    0.0    3.89349    2.68155    1.59258   0.02690  0.02503  0.02173  0.00220 -0.00827  0.00851   -0.84298   -2.21860  291.80981   0.02921  0.02923  0.13820  0.00437 -0.01362 -0.01936
2032 273569.002  -3962924.0912   3351743.7205   3694622.9438   3   2   0.1901   0.1705   0.1424  -0.1235   0.0678  -0.0884   0.00    0.0    4.01493    1.86346    2.50876   0.03078  0.02851  0.02480  0.00827 -0.01057  0.01231   -1.25179   -2.46867  305.59547   0.02973  0.02975  0.13952  0.00435 -0.01345 -0.01977
2032 273570.002  -3962920.1026   3351745.1277   3694625.8202   3   2   0.2182   0.1947   0.1648  -0.1299   0.0631  -0.0876   0.00    0.0    3.78078    0.99646    3.04815   0.03487  0.03232  0.02851  0.01185 -0.01322  0.01637   -1.00909   -1.73180  316.66252   0.03020  0.03021  0.14085  0.00432 -0.01322 -0.02012
2032 273571.000  -3962916.7828   3351745.9004   3694628.6375   2   8   0.2214   0.2203   0.1767  -0.1323   0.0629  -0.1148   0.00    0.0    3.07690    0.50648    2.74932   0.03439  0.03578  0.02959  0.01377 -0.01563  0.01393   -0.62635   -1.25988  320.89845   0.02928  0.03043  0.13992  0.00353 -0.01107 -0.01404
2032 273572.000  -3962913.8502   3351746.5957   3694631.0705   2   9   0.2176   0.2201   0.1742  -0.1356   0.0736  -0.1151   0.00    0.0    2.35892    0.16872    2.31323   0.03378  0.03592  0.02973  0.01308 -0.01548  0.01417   -0.87011   -1.20039  324.85202   0.02848  0.02952  0.13938  0.00363 -0.00563 -0.00544
2032 273573.000  -3962911.9059   3351747.0457   3694632.8274   2  20   0.2089   0.2154   0.1670  -0.1361   0.0838  -0.1158   0.00    0.0    1.16603   -0.06278    1.26406   0.03240  0.03582  0.02914  0.01256 -0.01490  0.01339   -0.96160   -1.09512  325.77755   0.02731  0.02836  0.13895  0.00367  0.00582  0.01250
2032 273574.000  -3962910.9984   3351747.2056   3694633.5735   2  17   0.2026   0.2122   0.1618  -0.1357   0.0901  -0.1148   0.00    0.0    0.40394   -0.19193    0.54230   0.03163  0.03592  0.02871  0.01285 -0.01434  0.01298   -0.75044   -1.12269  325.93733   0.02631  0.02730  0.13917  0.00376  0.00572  0.01699
