% program   : GINav v0.1.0
% obs start : 2018/12/19 03:56:15.0
% obs end   : 2018/12/19 04:16:56.0
% mode      : SPP
% system    : GPS GLONASS GALILEO BDS QZSS
% nfreqs    : 1
% elev mask : 15.0 deg
% ephemeris : broadcast
% ionos opt : broadcast model
% trops opt : Saastamoinen model
%
%  GPST              x-ecef(m)      y-ecef(m)      z-ecef(m)   Q  ns   sdx(m)   sdy(m)   sdz(m)  sdxy(m)  sdyz(m)  sdzx(m) age(s)  ratio    vx(m/s)    vy(m/s)    vz(m/s)      sdvx     sdvy     sdvz    sdvxy    sdvyz    sdvzx
2032 273375.000  -3963424.7930   3350879.3466   3694865.0329   5  23   3.8296   4.6904   3.3316  -3.6652   2.9448  -2.9585   0.00    0.0    0.00594   -0.02602   -0.00092   0.00000  0.00000  0.00000  0.00000  0.00000  0.00000
2032 273376.000  -3963424.4270   3350878.9904   3694864.9653   5  23   3.8296   4.6903   3.3314  -3.6651   2.9445  -2.9584   0.00    0.0    0.01732    0.04342   -0.05322   0.00000  0.00000  0.00000  0.00000  0.00000  0.00000
2032 273377.000  -3963424.3545   3350879.2877   3694864.8278   5  23   3.8296   4.6901   3.3313  -3.6649   2.9443  -2.9583   0.00    0.0   -0.02061   -0.05377    0.08351   0.00000  0.00000  0.00000  0.00000  0.00000  0.00000
2032 273378.000  -3963424.3283   3350878.6914   3694864.9228   5  22   3.8296   4.7982   3.4120  -3.6685   2.8141  -2.9548   0.00    0.0    0.00093    0.00009    0.00904   0.00000  0.00000  0.00000  0.00000  0.00000  0.00000
2032 273379.000  -3963424.5945   3350879.8277   3694864.5661   5  23   3.8295   4.6897   3.3311  -3.6647   2.9438  -2.9580   0.00    0.0    0.01448   -0.01885   -0.01350   0.00000  0.00000  0.00000  0.00000  0.00000  0.00000
2032 273380.000  -3963424.6227   3350880.0502   3694864.6243   5  23   3.8295   4.6896   3.3309  -3.6646   2.9436  -2.9578   0.00    0.0   -0.00136    0.00712    0.00219   0.00000  0.00000  0.00000  0.00000  0.00000  0.00000
2032 273381.000  -3963424.1383   3350879.5774   3694864.2994   5  23   3.8295   4.6894   3.3308  -3.6645   2.9433  -2.9577   0.00    0.0   -0.00984    0.01183    0.01118   0.00000  0.00000  0.00000  0.00000  0.00000  0.00000
2032 273382.000  -3963424.6106   3350880.2444   3694864.6392   5  23   3.8295   4.6892   3.3307  -3.6643   2.9431  -2.9576   0.00    0.0    0.06311   -0.00201    0.06240   0.00000  0.00000  0.00000  0.00000  0.00000  0.00000
2032 273383.000  -3963425.0821   3350880.2614   3694865.3161   5  23   3.8294   4.6891   3.3306  -3.6642   2.9429  -2.9574   0.00    0.0    0.24435    0.04043    0.30334   0.00000  0.00000  0.00000  0.00000  0.00000  0.00000
2032 273384.000  -3963424.5642   3350879.5238   3694866.4139   5  22   3.8295   4.7974   3.4112  -3.6678   2.8126  -2.9539   0.00    0.0    0.87191    0.08053    0.91236   0.00000  0.00000  0.00000  0.00000  0.00000  0.00000
2032 273385.000  -3963422.7718   3350878.4132   3694866.7542   5  22   3.8295   4.7972   3.4111  -3.6677   2.8123  -2.9538   0.00    0.0    1.18310   -0.00354    1.27138   0.00000  0.00000  0.00000  0.00000  0.00000  0.00000
2032 273386.000  -3963421.9264   3350879.4741   3694868.9476   5  22   3.8295   4.7971   3.4110  -3.6676   2.8120  -2.9536   0.00    0.0    1.54959   -0.06360    1.91886   0.00000  0.00000  0.00000  0.00000  0.00000  0.00000
2032 273387.000  -3963419.7405   3350879.6272   3694869.5591   5  21   3.9178   4.8082   3.8627  -3.6302   2.7039  -3.1973   0.00    0.0    2.04104   -0.04525    2.25056   0.00000  0.00000  0.00000  0.00000  0.00000  0.00000
2032 273388.000  -3963417.7591   3350879.8004   3694872.1836   5  21   3.9178   4.8080   3.8626  -3.6301   2.7036  -3.1972   0.00    0.0    2.31119   -0.00797    2.53670   0.00000  0.00000  0.00000  0.00000  0.00000  0.00000
2032 273389.000  -3963415.4426   3350880.2662   3694874.5876   5  21   3.9178   4.8079   3.8626  -3.6300   2.7034  -3.1971   0.00    0.0    2.49964    0.13441    2.70531   0.00000  0.00000  0.00000  0.00000  0.00000  0.00000
2032 273390.000  -3963412.0226   3350879.4422   3694877.1693   5  20   4.2330   5.4430   3.9134  -4.1553   2.9854  -3.3511   0.00    0.0    2.40518    0.19530    2.57606   0.00000  0.00000  0.00000  0.00000  0.00000  0.00000
2032 273391.000  -3963409.4446   3350879.9342   3694879.5811   5  20   4.2332   5.4431   3.9133  -4.1554   2.9853  -3.3511   0.00    0.0    2.50400    0.22022    2.52487   0.00000  0.00000  0.00000  0.00000  0.00000  0.00000
2032 273392.000  -3963406.5231   3350879.4220   3694882.3772   5  20   4.2334   5.4431   3.9133  -4.1555   2.9852  -3.3511   0.00    0.0    2.79056    0.34070    2.77588   0.00000  0.00000  0.00000  0.00000  0.00000  0.00000
2032 273393.000  -3963403.7032   3350880.2885   3694885.3460   5  21   3.9179   4.8073   3.8622  -3.6296   2.7024  -3.1968   0.00    0.0    3.04409    0.46347    3.00875   0.00000  0.00000  0.00000  0.00000  0.00000  0.00000
2032 273394.000  -3963400.6772   3350881.0105   3694888.4879   5  21   3.9179   4.8072   3.8622  -3.6295   2.7021  -3.1967   0.00    0.0    3.13849    0.52322    3.02559   0.00000  0.00000  0.00000  0.00000  0.00000  0.00000
2032 273395.000  -3963397.2434   3350883.5640   3694889.1813   5  22   3.8572   4.7534   3.5802  -3.6965   2.8874  -3.0370   0.00    0.0    3.16416    0.47710    3.07698   0.00000  0.00000  0.00000  0.00000  0.00000  0.00000
2032 273396.000  -3963393.3034   3350883.0858   3694892.0726   5  21   4.1991   5.3617   3.6590  -4.2167   3.1955  -3.2368   0.00    0.0    3.04841    0.44198    2.91162   0.00000  0.00000  0.00000  0.00000  0.00000  0.00000
2032 273397.000  -3963390.5467   3350883.4766   3694894.4789   5  22   4.1962   5.2384   3.5739  -4.1948   3.3327  -3.2563   0.00    0.0    2.73706    0.47190    2.75026   0.00000  0.00000  0.00000  0.00000  0.00000  0.00000
2032 273398.000  -3963387.8209   3350883.8135   3694897.3236   5  22   4.1963   5.2384   3.5739  -4.1949   3.3326  -3.2563   0.00    0.0    2.52878    0.38170    2.53274   0.00000  0.00000  0.00000  0.00000  0.00000  0.00000
2032 273399.000  -3963385.7702   3350884.9619   3694900.2039   5  22   4.1964   5.2385   3.5738  -4.1950   3.3325  -3.2562   0.00    0.0    2.36871    0.37122    2.33168   0.00000  0.00000  0.00000  0.00000  0.00000  0.00000
2032 273400.000  -3963382.9919   3350884.8502   3694902.3224   5  22   4.1966   5.2385   3.5737  -4.1951   3.3324  -3.2562   0.00    0.0    2.65626    0.40697    2.57304   0.00000  0.00000  0.00000  0.00000  0.00000  0.00000
2032 273401.000  -3963380.3420   3350885.5558   3694904.8273   5  22   4.1967   5.2385   3.5736  -4.1952   3.3323  -3.2561   0.00    0.0    2.40484    0.37622    2.44024   0.00000  0.00000  0.00000  0.00000  0.00000  0.00000
2032 273402.000  -3963378.1743   3350885.4856   3694907.1127   5  22   4.1969   5.2385   3.5735  -4.1953   3.3322  -3.2561   0.00    0.0    2.33461    0.31329    2.32256   0.00000  0.00000  0.00000  0.00000  0.00000  0.00000
2032 273403.000  -3963375.6408   3350885.7859   3694909.4756   5  23   3.8570   4.6720   3.4706  -3.6986   3.0144  -3.0321   0.00    0.0    2.43299    0.29536    2.50504   0.00000  0.00000  0.00000  0.00000  0.00000  0.00000
2032 273404.000  -3963372.5431   3350886.3097   3694911.7866   5  24   3.7278   4.6705   3.1996  -3.6833   2.9889  -2.8041   0.00    0.0    2.81870    0.28777    2.82541   0.00000  0.00000  0.00000  0.00000  0.00000  0.00000
2032 273405.000  -3963369.7010   3350886.7817   3694914.8554   5  24   3.7278   4.6703   3.1994  -3.6832   2.9886  -2.8039   0.00    0.0    3.42391    0.74038    3.03900   0.00000  0.00000  0.00000  0.00000  0.00000  0.00000
2032 273406.000  -3963366.2761   3350886.7513   3694918.7903   5  23   3.7508   4.6854   3.2849  -3.6617   2.9409  -2.8583   0.00    0.0    3.85776    0.82006    3.36194   0.00000  0.00000  0.00000  0.00000  0.00000  0.00000
2032 273407.000  -3963362.4125   3350887.3102   3694922.9086   5  25   3.5862   4.6679   2.9683  -3.6058   2.8732  -2.5965   0.00    0.0    4.23869    0.76280    3.81226   0.00000  0.00000  0.00000  0.00000  0.00000  0.00000
2032 273408.000  -3963358.5946   3350888.3581   3694927.3337   5  23   4.0556   5.2588   3.1960  -4.1585   3.2490  -2.9831   0.00    0.0    4.25217    0.55955    3.93815   0.00000  0.00000  0.00000  0.00000  0.00000  0.00000
2032 273409.000  -3963355.2960   3350889.3390   3694932.5189   5  22   4.1654   5.2589   3.4276  -4.1619   3.2544  -3.1740   0.00    0.0    4.20135    0.58517    3.85656   0.00000  0.00000  0.00000  0.00000  0.00000  0.00000
2032 273410.000  -3963351.1439   3350889.3161   3694936.6448   5  22   4.1655   5.2589   3.4275  -4.1620   3.2543  -3.1740   0.00    0.0    4.21584    0.51343    3.78230   0.00000  0.00000  0.00000  0.00000  0.00000  0.00000
2032 273411.000  -3963346.6782   3350889.7535   3694940.1425   5  23   4.1416   5.2589   3.3609  -4.1607   3.2515  -3.1263   0.00    0.0    4.22064    0.65031    3.72126   0.00000  0.00000  0.00000  0.00000  0.00000  0.00000
2032 273412.000  -3963340.6639   3350889.1515   3694943.1301   5  25   3.9500   5.1794   3.1474  -4.0629   3.2670  -2.9736   0.00    0.0    4.19876    0.50722    3.89953   0.00000  0.00000  0.00000  0.00000  0.00000  0.00000
2032 273413.000  -3963335.9793   3350889.2248   3694947.0985   5  26   3.8986   5.0377   3.1442  -3.9678   3.2924  -2.9883   0.00    0.0    4.64303    0.56495    4.25620   0.00000  0.00000  0.00000  0.00000  0.00000  0.00000
2032 273414.000  -3963331.3446   3350889.6413   3694951.7653   5  25   4.0269   5.0415   3.3442  -3.9930   3.3267  -3.1746   0.00    0.0    4.99672    0.78300    4.40332   0.00000  0.00000  0.00000  0.00000  0.00000  0.00000
2032 273415.000  -3963326.3024   3350890.5423   3694956.2119   5  24   4.1287   5.0526   3.5639  -4.0312   3.3883  -3.3467   0.00    0.0    5.34469    1.01416    4.41124   0.00000  0.00000  0.00000  0.00000  0.00000  0.00000
2032 273416.000  -3963320.7251   3350891.3898   3694960.4567   5  24   4.1288   5.0524   3.5639  -4.0311   3.3882  -3.3467   0.00    0.0    5.52293    0.94546    4.62696   0.00000  0.00000  0.00000  0.00000  0.00000  0.00000
2032 273417.000  -3963315.1085   3350892.2179   3694965.0692   5  24   4.1289   5.0523   3.5639  -4.0311   3.3881  -3.3467   0.00    0.0    5.44728    0.88857    4.66751   0.00000  0.00000  0.00000  0.00000  0.00000  0.00000
2032 273418.000  -3963309.6881   3350893.2999   3694970.1242   5  24   4.1290   5.0521   3.5639  -4.0310   3.3880  -3.3467   0.00    0.0    5.67044    0.72558    4.95785   0.00000  0.00000  0.00000  0.00000  0.00000  0.00000
2032 273419.000  -3963303.7155   3350893.0350   3694975.0615   5  24   4.1291   5.0520   3.5638  -4.0310   3.3879  -3.3467   0.00    0.0    5.82284    0.72141    5.12158   0.00000  0.00000  0.00000  0.00000  0.00000  0.00000
2032 273420.000  -3963299.2134   3350895.8346   3694981.5581   5  26   3.9290   5.0397   3.2420  -4.0073   3.3553  -3.0530   0.00    0.0    5.76455    0.84938    5.29877   0.00000  0.00000  0.00000  0.00000  0.00000  0.00000
2032 273421.000  -3963291.9672   3350896.2152   3694985.5539   5  27   3.8795   5.0280   3.1146  -3.9808   3.3092  -2.9599   0.00    0.0    5.88251    0.76204    5.27613   0.00000  0.00000  0.00000  0.00000  0.00000  0.00000
2032 273422.000  -3963284.8593   3350896.7135   3694989.9318   5  26   4.0553   5.0831   3.1218  -4.0900   3.3332  -3.0023   0.00    0.0    5.92785    0.73302    5.33594   0.00000  0.00000  0.00000  0.00000  0.00000  0.00000
2032 273423.000  -3963278.9973   3350897.6514   3694995.2275   5  24   4.2592   5.0970   3.3504  -4.1009   3.3590  -3.2502   0.00    0.0    6.06821    0.83592    5.35314   0.00000  0.00000  0.00000  0.00000  0.00000  0.00000
2032 273424.000  -3963274.1392   3350896.7381   3695002.1373   5  22   4.3605   5.1663   3.4839  -4.0465   3.2617  -3.3777   0.00    0.0    6.15842    0.87101    5.32987   0.00000  0.00000  0.00000  0.00000  0.00000  0.00000
2032 273425.000  -3963272.0769   3350899.1896   3695009.6994   5  21   4.3193   5.1372   3.9033  -3.9523   3.2274  -3.6180   0.00    0.0    6.14690    0.83626    5.42977   0.00000  0.00000  0.00000  0.00000  0.00000  0.00000
2032 273426.000  -3963264.1251   3350898.8575   3695014.4819   5  20   4.3639   5.1410   4.0252  -3.9681   3.2578  -3.7016   0.00    0.0    6.25283    0.77198    5.37897   0.00000  0.00000  0.00000  0.00000  0.00000  0.00000
2032 273427.000  -3963256.4075   3350899.6114   3695018.6219   5  20   4.3641   5.1408   4.0254  -3.9681   3.2577  -3.7018   0.00    0.0    5.74905    0.83099    4.93994   0.00000  0.00000  0.00000  0.00000  0.00000  0.00000
2032 273428.000  -3963251.9112   3350898.9102   3695024.7294   5  18   4.2891   5.8059   3.9868  -4.1757   3.0717  -3.5426   0.00    0.0    4.85068    0.76649    4.32104   0.00000  0.00000  0.00000  0.00000  0.00000  0.00000
2032 273429.000  -3963247.5248   3350902.8861   3695027.8281   5  18   4.3463   6.0019   3.9742  -4.4091   3.5055  -3.5918   0.00    0.0    3.69059    0.64368    3.19330   0.00000  0.00000  0.00000  0.00000  0.00000  0.00000
2032 273430.000  -3963244.2167   3350902.4243   3695030.4368   5  17   4.3548   6.1856   4.0585  -4.3639   3.3254  -3.6224   0.00    0.0    2.48139    0.32286    2.21141   0.00000  0.00000  0.00000  0.00000  0.00000  0.00000
2032 273431.000  -3963241.6589   3350902.4612   3695032.4931   5  19   4.3335   6.0013   3.9469  -4.4136   3.5124  -3.5699   0.00    0.0    2.52535    0.35837    2.28087   0.00000  0.00000  0.00000  0.00000  0.00000  0.00000
2032 273432.000  -3963239.4898   3350903.3485   3695034.9682   5  19   4.3337   6.0015   3.9469  -4.4138   3.5125  -3.5700   0.00    0.0    2.56288    0.33895    2.27355   0.00000  0.00000  0.00000  0.00000  0.00000  0.00000
2032 273433.000  -3963237.5882   3350906.4395   3695037.5493   5  20   4.2881   5.5861   3.9419  -4.2549   3.4493  -3.5524   0.00    0.0    2.51761    0.26879    2.31995   0.00000  0.00000  0.00000  0.00000  0.00000  0.00000
2032 273434.000  -3963234.2317   3350905.2623   3695037.9836   5  21   4.2827   5.4783   3.8246  -4.2830   3.5972  -3.5229   0.00    0.0    1.50434    0.36614    1.43086   0.00000  0.00000  0.00000  0.00000  0.00000  0.00000
2032 273435.000  -3963233.4359   3350905.7592   3695039.8647   5  21   4.2829   5.4783   3.8247  -4.2831   3.5972  -3.5230   0.00    0.0    0.60065    0.12397    0.55851   0.00000  0.00000  0.00000  0.00000  0.00000  0.00000
2032 273436.000  -3963230.7039   3350903.8837   3695038.6593   5  20   4.6853   5.6802   3.9920  -4.6040   3.8284  -3.8189   0.00    0.0    0.56255    0.13632    0.49832   0.00000  0.00000  0.00000  0.00000  0.00000  0.00000
2032 273437.000  -3963231.3629   3350905.2012   3695039.9254   5  20   4.6855   5.6801   3.9920  -4.6040   3.8283  -3.8189   0.00    0.0    0.65944    0.13312    0.59122   0.00000  0.00000  0.00000  0.00000  0.00000  0.00000
2032 273438.000  -3963231.0595   3350905.9816   3695039.5402   5  20   4.6856   5.6801   3.9920  -4.6041   3.8283  -3.8189   0.00    0.0   -0.04995   -0.03356   -0.10339   0.00000  0.00000  0.00000  0.00000  0.00000  0.00000
2032 273439.000  -3963230.4977   3350905.5865   3695039.4387   5  22   4.0382   4.6457   3.6324  -3.6943   3.2483  -3.3287   0.00    0.0   -0.01457   -0.00544   -0.00932   0.00000  0.00000  0.00000  0.00000  0.00000  0.00000
2032 273440.000  -3963231.0199   3350905.7356   3695039.8065   5  22   4.0381   4.6454   3.6324  -3.6941   3.2481  -3.3286   0.00    0.0   -0.00294   -0.00715    0.00640   0.00000  0.00000  0.00000  0.00000  0.00000  0.00000
2032 273441.000  -3963231.3619   3350905.4343   3695039.3326   5  25   3.5905   4.5731   3.2959  -3.4862   3.0751  -2.9064   0.00    0.0   -0.09108    0.01948    0.10646   0.00000  0.00000  0.00000  0.00000  0.00000  0.00000
2032 273442.000  -3963230.4147   3350905.7024   3695038.3953   5  26   3.5601   4.5648   3.2433  -3.5041   3.1006  -2.8589   0.00    0.0    0.00396   -0.00505    0.01084   0.00000  0.00000  0.00000  0.00000  0.00000  0.00000
2032 273443.000  -3963231.4927   3350906.6552   3695039.2993   5  27   3.5146   4.5562   3.1119  -3.4815   3.0595  -2.7667   0.00    0.0    0.00840   -0.01334    0.00019   0.00000  0.00000  0.00000  0.00000  0.00000  0.00000
2032 273444.000  -3963231.1590   3350906.3230   3695038.8347   5  27   3.5145   4.5559   3.1118  -3.4813   3.0593  -2.7665   0.00    0.0   -0.00367    0.00640   -0.00205   0.00000  0.00000  0.00000  0.00000  0.00000  0.00000
2032 273445.000  -3963231.6484   3350906.6623   3695039.3719   5  27   3.5144   4.5557   3.1117  -3.4811   3.0591  -2.7664   0.00    0.0   -0.00679   -0.00208    0.00778   0.00000  0.00000  0.00000  0.00000  0.00000  0.00000
2032 273446.000  -3963231.0764   3350906.4794   3695039.1678   5  26   3.6754   4.5889   3.2352  -3.5654   3.1380  -2.9335   0.00    0.0    0.01416   -0.02580   -0.02608   0.00000  0.00000  0.00000  0.00000  0.00000  0.00000
2032 273447.000  -3963231.0594   3350906.2881   3695039.0048   5  27   3.5142   4.5552   3.1115  -3.4807   3.0587  -2.7661   0.00    0.0   -0.03017    0.01536    0.01095   0.00000  0.00000  0.00000  0.00000  0.00000  0.00000
2032 273448.000  -3963231.6368   3350906.6748   3695039.2803   5  26   3.6751   4.5884   3.2350  -3.5650   3.1376  -2.9331   0.00    0.0    0.00261    0.00505    0.00773   0.00000  0.00000  0.00000  0.00000  0.00000  0.00000
2032 273449.000  -3963230.8550   3350905.7692   3695039.0256   5  26   3.6750   4.5881   3.2349  -3.5647   3.1373  -2.9329   0.00    0.0    0.00289   -0.00051   -0.00457   0.00000  0.00000  0.00000  0.00000  0.00000  0.00000
2032 273450.000  -3963231.3586   3350906.1514   3695039.1762   5  26   3.6749   4.5878   3.2348  -3.5645   3.1371  -2.9328   0.00    0.0   -0.00499   -0.00615   -0.00024   0.00000  0.00000  0.00000  0.00000  0.00000  0.00000
2032 273451.000  -3963230.6976   3350905.9815   3695038.9186   5  27   3.5138   4.5541   3.1111  -3.4799   3.0579  -2.7655   0.00    0.0    0.01871   -0.01804   -0.00886   0.00000  0.00000  0.00000  0.00000  0.00000  0.00000
2032 273452.000  -3963230.5052   3350905.7920   3695038.9677   5  27   3.5138   4.5539   3.1110  -3.4797   3.0577  -2.7653   0.00    0.0   -0.03783    0.02573    0.04007   0.00000  0.00000  0.00000  0.00000  0.00000  0.00000
2032 273453.000  -3963230.9370   3350906.1239   3695039.0655   5  26   3.6746   4.5870   3.2344  -3.5638   3.1364  -2.9322   0.00    0.0   -0.00534    0.00860    0.01919   0.00000  0.00000  0.00000  0.00000  0.00000  0.00000
2032 273454.000  -3963231.0652   3350906.5207   3695039.4934   5  26   3.6745   4.5867   3.2343  -3.5636   3.1362  -2.9321   0.00    0.0   -0.00074   -0.00487    0.00173   0.00000  0.00000  0.00000  0.00000  0.00000  0.00000
2032 273455.000  -3963230.8325   3350906.1488   3695039.1211   5  26   3.6744   4.5865   3.2342  -3.5634   3.1359  -2.9319   0.00    0.0   -0.00102   -0.00295    0.00322   0.00000  0.00000  0.00000  0.00000  0.00000  0.00000
2032 273456.000  -3963230.6318   3350906.3808   3695039.1045   5  27   3.5134   4.5529   3.1107  -3.4789   3.0568  -2.7647   0.00    0.0    0.01094   -0.01705   -0.00101   0.00000  0.00000  0.00000  0.00000  0.00000  0.00000
2032 273457.000  -3963231.4463   3350906.8500   3695039.8065   5  26   3.6742   4.5859   3.2340  -3.5629   3.1355  -2.9316   0.00    0.0   -0.00581   -0.01226    0.00712   0.00000  0.00000  0.00000  0.00000  0.00000  0.00000
2032 273458.000  -3963231.4501   3350906.7102   3695039.4774   5  26   3.6741   4.5856   3.2339  -3.5627   3.1352  -2.9314   0.00    0.0   -0.01301    0.00350    0.02141   0.00000  0.00000  0.00000  0.00000  0.00000  0.00000
2032 273459.000  -3963231.1288   3350906.7528   3695039.4436   5  27   3.5131   4.5521   3.1104  -3.4782   3.0562  -2.7642   0.00    0.0    0.05140    0.04977    0.09252   0.00000  0.00000  0.00000  0.00000  0.00000  0.00000
2032 273460.000  -3963230.8226   3350906.4231   3695039.8024   5  26   3.6738   4.5851   3.2336  -3.5622   3.1348  -2.9310   0.00    0.0    0.68549    0.21738    0.63208   0.00000  0.00000  0.00000  0.00000  0.00000  0.00000
2032 273461.000  -3963228.9093   3350906.9124   3695041.3291   5  25   3.8120   4.6162   3.2505  -3.6379   3.1628  -2.9878   0.00    0.0    1.68118    0.61099    1.39834   0.00000  0.00000  0.00000  0.00000  0.00000  0.00000
2032 273462.000  -3963226.3597   3350906.1694   3695041.8121   5  25   3.8119   4.6159   3.2503  -3.6376   3.1625  -2.9876   0.00    0.0    1.87052    0.89314    1.17151   0.00000  0.00000  0.00000  0.00000  0.00000  0.00000
2032 273463.000  -3963225.4283   3350908.2502   3695043.0556   5  25   3.8117   4.6156   3.2502  -3.6374   3.1623  -2.9874   0.00    0.0    1.59754    1.17933    0.84702   0.00000  0.00000  0.00000  0.00000  0.00000  0.00000
2032 273464.000  -3963223.2501   3350910.2186   3695043.9313   5  26   3.6310   4.5767   3.1202  -3.5409   3.0752  -2.8051   0.00    0.0    2.11259    2.00888    0.56681   0.00000  0.00000  0.00000  0.00000  0.00000  0.00000
2032 273465.000  -3963220.0338   3350912.2706   3695043.9989   5  25   3.9432   4.7333   3.1547  -3.7941   3.1653  -2.9300   0.00    0.0    2.76680    3.03265   -0.26916   0.00000  0.00000  0.00000  0.00000  0.00000  0.00000
2032 273466.000  -3963217.0548   3350915.2192   3695042.8675   5  24   4.7568   5.9281   3.4390  -4.8878   3.8607  -3.4967   0.00    0.0    2.22474    4.68173   -1.65546   0.00000  0.00000  0.00000  0.00000  0.00000  0.00000
2032 273467.000  -3963214.0572   3350919.4459   3695039.9491   5  24   4.7565   5.9277   3.4388  -4.8874   3.8604  -3.4964   0.00    0.0    1.96774    5.34528   -2.54679   0.00000  0.00000  0.00000  0.00000  0.00000  0.00000
2032 273468.000  -3963213.8667   3350928.7326   3695039.1173   5  22   5.7946   8.5989   5.0446  -6.6245   6.1551  -4.8977   0.00    0.0    2.08299    6.22505   -3.15672   0.00000  0.00000  0.00000  0.00000  0.00000  0.00000
2032 273469.000  -3963211.8374   3350935.7231   3695036.1873   5  22   5.7940   8.5977   5.0442  -6.6237   6.1543  -4.8971   0.00    0.0    2.38043    7.13077   -3.52661   0.00000  0.00000  0.00000  0.00000  0.00000  0.00000
2032 273470.000  -3963208.9677   3350942.0127   3695031.5695   5  23   5.7484   8.1297   4.7321  -6.4689   5.7435  -4.7663   0.00    0.0    2.57420    8.06114   -4.15327   0.00000  0.00000  0.00000  0.00000  0.00000  0.00000
2032 273471.000  -3963206.0509   3350950.3723   3695027.0655   5  23   5.7479   8.1288   4.7318  -6.4681   5.7429  -4.7658   0.00    0.0    2.86466    8.81276   -4.52809   0.00000  0.00000  0.00000  0.00000  0.00000  0.00000
2032 273472.000  -3963203.3398   3350958.6687   3695022.0183   5  25   4.3447   6.0717   3.8591  -4.6751   4.2654  -3.5599   0.00    0.0    3.02914    9.02098   -4.59148   0.00000  0.00000  0.00000  0.00000  0.00000  0.00000
2032 273473.000  -3963199.6399   3350966.7907   3695016.6035   5  26   4.0346   5.0676   3.1752  -4.0578   3.2951  -3.0227   0.00    0.0    3.17177    9.02582   -5.15437   0.00000  0.00000  0.00000  0.00000  0.00000  0.00000
2032 273474.000  -3963197.1475   3350977.8471   3695012.0654   5  25   4.2378   5.5535   3.3449  -4.4058   3.6397  -3.2405   0.00    0.0    3.33352    9.80805   -5.14547   0.00000  0.00000  0.00000  0.00000  0.00000  0.00000
2032 273475.000  -3963193.9026   3350987.6846   3695006.8021   5  25   4.2379   5.5534   3.3449  -4.4057   3.6397  -3.2404   0.00    0.0    3.22858   10.62775   -5.03902   0.00000  0.00000  0.00000  0.00000  0.00000  0.00000
2032 273476.000  -3963190.1025   3350997.6473   3695001.4078   5  25   4.2379   5.5533   3.3449  -4.4057   3.6396  -3.2404   0.00    0.0    3.59662   10.33241   -5.40976   0.00000  0.00000  0.00000  0.00000  0.00000  0.00000
2032 273477.000  -3963187.4902   3351008.9769   3694996.4904   5  27   3.5115   4.5475   3.1088  -3.4746   3.0524  -2.7615   0.00    0.0    3.61841   10.34909   -5.60977   0.00000  0.00000  0.00000  0.00000  0.00000  0.00000
2032 273478.000  -3963183.7579   3351019.1629   3694990.7925   5  27   3.5114   4.5472   3.1087  -3.4744   3.0522  -2.7613   0.00    0.0    3.60537   10.50136   -5.53357   0.00000  0.00000  0.00000  0.00000  0.00000  0.00000
2032 273479.000  -3963179.9042   3351029.0860   3694984.6793   5  28   3.4909   4.4057   3.0464  -3.4125   2.9358  -2.7185   0.00    0.0    3.52782   10.84474   -5.52943   0.00000  0.00000  0.00000  0.00000  0.00000  0.00000
2032 273480.000  -3963176.5933   3351039.9234   3694979.1074   5  28   3.4908   4.4054   3.0463  -3.4123   2.9356  -2.7183   0.00    0.0    3.43550   11.02209   -5.56387   0.00000  0.00000  0.00000  0.00000  0.00000  0.00000
2032 273481.000  -3963172.7477   3351050.7721   3694973.5126   5  28   3.4908   4.4052   3.0462  -3.4121   2.9353  -2.7181   0.00    0.0    3.45331   10.53717   -5.45237   0.00000  0.00000  0.00000  0.00000  0.00000  0.00000
2032 273482.000  -3963169.4489   3351060.7260   3694968.3405   5  27   3.6513   4.4380   3.1702  -3.4957   3.0149  -2.8859   0.00    0.0    3.37695   10.31144   -5.33491   0.00000  0.00000  0.00000  0.00000  0.00000  0.00000
2032 273483.000  -3963166.4305   3351071.7473   3694962.9147   5  27   3.6511   4.4377   3.1701  -3.4955   3.0147  -2.8857   0.00    0.0    3.25582   10.01308   -5.25788   0.00000  0.00000  0.00000  0.00000  0.00000  0.00000
2032 273484.000  -3963163.1401   3351081.1286   3694957.8849   5  27   3.6510   4.4374   3.1699  -3.4952   3.0144  -2.8855   0.00    0.0    3.29425    9.69960   -5.08219   0.00000  0.00000  0.00000  0.00000  0.00000  0.00000
2032 273485.000  -3963159.2401   3351090.3259   3694952.3655   5  28   3.4904   4.4040   3.0456  -3.4112   2.9343  -2.7174   0.00    0.0    3.23955    9.55298   -5.02868   0.00000  0.00000  0.00000  0.00000  0.00000  0.00000
2032 273486.000  -3963155.5388   3351099.4864   3694947.1943   5  27   3.5903   4.4134   3.0489  -3.4468   2.9412  -2.7394   0.00    0.0    3.29506    9.65360   -5.12015   0.00000  0.00000  0.00000  0.00000  0.00000  0.00000
2032 273487.000  -3963151.8088   3351109.1079   3694941.7140   5  27   3.5902   4.4131   3.0488  -3.4465   2.9409  -2.7392   0.00    0.0    3.40476    9.99061   -5.30585   0.00000  0.00000  0.00000  0.00000  0.00000  0.00000
2032 273488.000  -3963149.0104   3351120.1104   3694936.9823   5  27   3.5900   4.4129   3.0486  -3.4463   2.9406  -2.7390   0.00    0.0    3.51521   10.12823   -5.36449   0.00000  0.00000  0.00000  0.00000  0.00000  0.00000
2032 273489.000  -3963145.6971   3351130.2032   3694931.9189   5  26   3.7683   4.4488   3.1767  -3.5389   3.0252  -2.9196   0.00    0.0    3.34444    9.68707   -5.16530   0.00000  0.00000  0.00000  0.00000  0.00000  0.00000
2032 273490.000  -3963142.0792   3351138.4795   3694926.6741   5  25   3.7685   4.4874   3.2026  -3.5342   2.9849  -2.9232   0.00    0.0    3.23106    9.29632   -5.04680   0.00000  0.00000  0.00000  0.00000  0.00000  0.00000
2032 273491.000  -3963138.8562   3351147.4776   3694921.5227   5  25   3.7683   4.4871   3.2024  -3.5339   2.9846  -2.9229   0.00    0.0    3.15348    9.15622   -4.99685   0.00000  0.00000  0.00000  0.00000  0.00000  0.00000
2032 273492.000  -3963136.1514   3351158.4720   3694917.6485   5  22   5.1028   6.0591   3.6948  -5.1201   4.0683  -3.8308   0.00    0.0    3.15282    9.01087   -4.87047   0.00000  0.00000  0.00000  0.00000  0.00000  0.00000
2032 273493.000  -3963133.9629   3351168.1455   3694912.8923   5  23   4.4975   5.6349   3.5618  -4.5658   3.7898  -3.5082   0.00    0.0    3.48782    9.01949   -5.01471   0.00000  0.00000  0.00000  0.00000  0.00000  0.00000
2032 273494.000  -3963130.4257   3351176.9482   3694907.2518   5  24   4.4648   5.6302   3.5035  -4.5522   3.7703  -3.4582   0.00    0.0    3.47948    9.53086   -5.24332   0.00000  0.00000  0.00000  0.00000  0.00000  0.00000
2032 273495.000  -3963126.5008   3351186.7247   3694901.8433   5  24   4.4648   5.6301   3.5034  -4.5521   3.7702  -3.4581   0.00    0.0    3.60449    9.93577   -5.50165   0.00000  0.00000  0.00000  0.00000  0.00000  0.00000
2032 273496.000  -3963122.2438   3351195.9242   3694895.6382   5  25   4.2386   5.5511   3.3441  -4.4050   3.6378  -3.2392   0.00    0.0    3.66790   10.32564   -5.52956   0.00000  0.00000  0.00000  0.00000  0.00000  0.00000
2032 273497.000  -3963119.0532   3351206.4859   3694890.6610   5  25   4.1837   5.0799   3.2972  -4.1201   3.3661  -3.1727   0.00    0.0    3.69075   10.50534   -5.57238   0.00000  0.00000  0.00000  0.00000  0.00000  0.00000
2032 273498.000  -3963115.1495   3351217.3778   3694885.1321   5  24   4.2866   5.4429   3.4295  -4.3359   3.6297  -3.3086   0.00    0.0    3.91669   10.31663   -5.78591   0.00000  0.00000  0.00000  0.00000  0.00000  0.00000
2032 273499.000  -3963110.8009   3351227.7413   3694879.1067   5  25   4.0536   5.3732   3.2829  -4.1940   3.5090  -3.0925   0.00    0.0    3.83088   10.55937   -5.60004   0.00000  0.00000  0.00000  0.00000  0.00000  0.00000
2032 273500.000  -3963108.2491   3351239.4010   3694874.1539   5  24   4.2868   5.4428   3.4295  -4.3359   3.6295  -3.3085   0.00    0.0    3.86913   10.39561   -5.94290   0.00000  0.00000  0.00000  0.00000  0.00000  0.00000
2032 273501.000  -3963102.8195   3351248.5568   3694867.6612   5  23   4.8111   5.7814   3.5247  -4.8019   3.8418  -3.5669   0.00    0.0    3.69983   10.57767   -5.86535   0.00000  0.00000  0.00000  0.00000  0.00000  0.00000
2032 273502.000  -3963098.9382   3351258.4615   3694861.5576   5  19   5.8494   6.5692   3.7542  -5.6953   4.1931  -3.9205   0.00    0.0    3.74650   10.54945   -5.86058   0.00000  0.00000  0.00000  0.00000  0.00000  0.00000
2032 273503.000  -3963094.5762   3351267.7704   3694855.2191   5  20   5.5205   5.8834   3.5185  -5.1754   3.7090  -3.5830   0.00    0.0    3.76968   10.65242   -5.73261   0.00000  0.00000  0.00000  0.00000  0.00000  0.00000
2032 273504.000  -3963090.7393   3351278.6437   3694849.0163   5  20   5.5202   5.8829   3.5182  -5.1749   3.7085  -3.5825   0.00    0.0    3.76493   10.86456   -5.72545   0.00000  0.00000  0.00000  0.00000  0.00000  0.00000
2032 273505.000  -3963085.6008   3351289.8592   3694843.0866   5  22   4.5477   4.7278   3.5129  -4.0185   3.2218  -3.3907   0.00    0.0    3.64237   10.78941   -5.76577   0.00000  0.00000  0.00000  0.00000  0.00000  0.00000
2032 273506.000  -3963084.8168   3351300.1959   3694839.5995   5  17   5.4264   6.0840   4.8028  -4.8274   4.4048  -4.5877   0.00    0.0    3.85482   11.19703   -5.95412   0.00000  0.00000  0.00000  0.00000  0.00000  0.00000
2032 273507.000  -3963079.1405   3351312.2194   3694832.1752   5  22   4.6807   5.6231   3.9217  -4.5395   4.0610  -3.6720   0.00    0.0    4.10093   11.44245   -6.20788   0.00000  0.00000  0.00000  0.00000  0.00000  0.00000
2032 273508.000  -3963076.6867   3351324.9230   3694826.9564   5  19   5.3795   6.0859   4.6211  -4.9456   4.6167  -4.4428   0.00    0.0    4.20567   11.64379   -6.11957   0.00000  0.00000  0.00000  0.00000  0.00000  0.00000
2032 273509.000  -3963074.0490   3351337.6640   3694821.5785   5  20   5.0089   6.0205   4.5651  -4.7664   4.5471  -4.2814   0.00    0.0    3.90848   11.58902   -6.19310   0.00000  0.00000  0.00000  0.00000  0.00000  0.00000
2032 273510.000  -3963070.4013   3351349.2673   3694815.1753   5  21   4.3883   5.6284   4.3246  -4.1903   4.1894  -3.8470   0.00    0.0    3.91871   11.34830   -6.11731   0.00000  0.00000  0.00000  0.00000  0.00000  0.00000
2032 273511.000  -3963066.0384   3351359.8329   3694808.8804   5  22   4.2248   5.6145   4.3015  -4.1345   4.1684  -3.7774   0.00    0.0    3.91622   11.25517   -5.96261   0.00000  0.00000  0.00000  0.00000  0.00000  0.00000
2032 273512.000  -3963062.9931   3351371.7487   3694803.2274   5  22   4.2248   5.6142   4.3016  -4.1343   4.1683  -3.7774   0.00    0.0    3.96056   11.35745   -5.99619   0.00000  0.00000  0.00000  0.00000  0.00000  0.00000
2032 273513.000  -3963060.4182   3351384.3824   3694800.2721   5  20   4.2649   6.1825   4.8440  -4.2336   4.6956  -3.9350   0.00    0.0    3.81829   11.30102   -6.08609   0.00000  0.00000  0.00000  0.00000  0.00000  0.00000
2032 273514.000  -3963056.4891   3351393.8301   3694791.2559   5  19   4.2665   6.4059   5.5240  -4.2107   5.1482  -3.8963   0.00    0.0    3.88539   11.34239   -6.03339   0.00000  0.00000  0.00000  0.00000  0.00000  0.00000
2032 273515.000  -3963051.3434   3351404.2906   3694784.3396   5  21   4.1262   5.5413   4.9693  -4.1305   4.3322  -3.8088   0.00    0.0    3.85574   11.26356   -5.88037   0.00000  0.00000  0.00000  0.00000  0.00000  0.00000
2032 273516.000  -3963047.1110   3351415.4826   3694778.5375   5  21   4.1262   5.5408   4.9693  -4.1302   4.3318  -3.8087   0.00    0.0    4.02676   11.43179   -5.93726   0.00000  0.00000  0.00000  0.00000  0.00000  0.00000
2032 273517.000  -3963042.2957   3351426.3244   3694773.3120   5  22   4.1983   5.2720   4.2154  -4.0332   3.8809  -3.6845   0.00    0.0    3.99259   11.47108   -5.86313   0.00000  0.00000  0.00000  0.00000  0.00000  0.00000
2032 273518.000  -3963038.4198   3351438.6633   3694766.7904   5  19   4.5347   5.5703   5.1148  -4.2371   4.4116  -4.0353   0.00    0.0    4.02660   11.26481   -5.82480   0.00000  0.00000  0.00000  0.00000  0.00000  0.00000
2032 273519.000  -3963034.8240   3351451.0464   3694760.7890   5  18   4.5347   5.6487   5.1847  -4.2329   4.5008  -4.0314   0.00    0.0    3.81407   11.04445   -5.89130   0.00000  0.00000  0.00000  0.00000  0.00000  0.00000
2032 273520.000  -3963031.0259   3351461.3572   3694754.9305   5  18   4.6442   5.7715   5.5186  -4.4122   4.7533  -4.2849   0.00    0.0    3.86659   11.11702   -5.80771   0.00000  0.00000  0.00000  0.00000  0.00000  0.00000
2032 273521.000  -3963027.9350   3351469.9104   3694748.4132   5  13   5.9143   7.0223   7.2960  -5.3284   5.5667  -4.9707   0.00    0.0    4.06455   11.00803   -5.98752   0.00000  0.00000  0.00000  0.00000  0.00000  0.00000
2032 273524.000  -3963015.5073   3351503.9752   3694731.4895   5   8   6.8554   6.8005   5.0790  -6.0158   4.2577  -4.7055   0.00    0.0    4.08870   10.31101   -5.43444   0.00000  0.00000  0.00000  0.00000  0.00000  0.00000
2032 273525.000  -3963011.9673   3351515.2656   3694727.4602   5   9   6.8550   6.7999   5.0786  -6.0153   4.2571  -4.7049   0.00    0.0    3.97251   10.53609   -5.29858   0.00000  0.00000  0.00000  0.00000  0.00000  0.00000
2032 273526.000  -3963007.7944   3351525.2102   3694721.6796   5  11   6.8520   6.7962   4.9370  -6.0114   4.2277  -4.6796   0.00    0.0    3.82551   10.74401   -5.27402   0.00000  0.00000  0.00000  0.00000  0.00000  0.00000
2032 273527.000  -3963001.7030   3351535.2179   3694716.7611   5  17   6.0795   6.5772   4.2614  -5.7168   4.2407  -4.3983   0.00    0.0    4.03333   10.77984   -5.41316   0.00000  0.00000  0.00000  0.00000  0.00000  0.00000
2032 273528.000  -3962996.9433   3351545.1212   3694710.3502   5  16   6.1682   6.6095   4.3281  -5.7761   4.2987  -4.4870   0.00    0.0    3.77240   10.79495   -5.57207   0.00000  0.00000  0.00000  0.00000  0.00000  0.00000
2032 273529.000  -3962989.1736   3351554.1131   3694703.3540   5  19   5.7708   6.3573   4.0685  -5.6023   4.3607  -4.2145   0.00    0.0    3.65939   10.63570   -5.66537   0.00000  0.00000  0.00000  0.00000  0.00000  0.00000
2032 273530.000  -3962991.6782   3351570.6001   3694698.4476   5  20   5.0051   5.8574   3.7760  -4.9337   3.9515  -3.7710   0.00    0.0    3.43190   10.82058   -5.57686   0.00000  0.00000  0.00000  0.00000  0.00000  0.00000
2032 273531.000  -3962987.7883   3351580.5442   3694693.4194   5  22   4.8544   5.8077   3.5245  -4.8395   3.8254  -3.5495   0.00    0.0    3.67910   10.38445   -5.50327   0.00000  0.00000  0.00000  0.00000  0.00000  0.00000
2032 273532.000  -3962983.6114   3351590.7920   3694688.1521   5  25   4.0562   5.3706   3.2821  -4.1941   3.5067  -3.0912   0.00    0.0    3.65418   10.17210   -5.40849   0.00000  0.00000  0.00000  0.00000  0.00000  0.00000
2032 273533.000  -3962980.9454   3351602.7793   3694684.5939   5  24   4.5131   6.8122   4.2211  -5.0875   4.8395  -3.8480   0.00    0.0    3.47763    9.64568   -5.11037   0.00000  0.00000  0.00000  0.00000  0.00000  0.00000
2032 273534.000  -3962975.9278   3351608.1028   3694677.7079   5  23   4.7339   5.7238   3.5242  -4.7290   3.8221  -3.5458   0.00    0.0    2.95015    8.76533   -4.44864   0.00000  0.00000  0.00000  0.00000  0.00000  0.00000
2032 273535.000  -3962970.7650   3351614.7992   3694672.1140   5  24   4.3744   4.6618   3.2274  -3.9496   3.1535  -3.1288   0.00    0.0    3.16650    8.34891   -4.07473   0.00000  0.00000  0.00000  0.00000  0.00000  0.00000
2032 273536.000  -3962967.2016   3351623.0325   3694667.5558   5  24   4.1394   4.5993   3.2119  -3.8110   3.0738  -2.9846   0.00    0.0    3.13854    8.11786   -3.64005   0.00000  0.00000  0.00000  0.00000  0.00000  0.00000
2032 273537.000  -3962963.7185   3351630.4660   3694664.2174   5  23   4.5112   4.6922   3.4322  -4.0238   3.2516  -3.3282   0.00    0.0    3.21170    7.31249   -3.14964   0.00000  0.00000  0.00000  0.00000  0.00000  0.00000
2032 273538.000  -3962961.0592   3351637.9208   3694661.4236   5  23   4.4432   4.8756   3.2288  -4.0881   3.1250  -3.1125   0.00    0.0    2.97613    6.87061   -3.08659   0.00000  0.00000  0.00000  0.00000  0.00000  0.00000
2032 273539.000  -3962959.2117   3351645.5827   3694659.4220   5  22   4.4626   4.9654   3.3101  -4.1357   3.2328  -3.1609   0.00    0.0    2.52521    6.27643   -2.94484   0.00000  0.00000  0.00000  0.00000  0.00000  0.00000
2032 273540.000  -3962956.3331   3351650.7812   3694655.9626   5  22   4.4622   4.9650   3.3099  -4.1352   3.2324  -3.1604   0.00    0.0    2.07846    5.55094   -2.79097   0.00000  0.00000  0.00000  0.00000  0.00000  0.00000
2032 273541.000  -3962954.5640   3351655.4780   3694653.6943   5  24   4.1064   4.7394   3.1438  -3.8595   3.1482  -2.9265   0.00    0.0    1.53072    4.28573   -2.20465   0.00000  0.00000  0.00000  0.00000  0.00000  0.00000
2032 273542.000  -3962953.6215   3351659.7080   3694652.0758   5  24   4.1061   4.7389   3.1437  -3.8591   3.1478  -2.9261   0.00    0.0    1.05211    3.14367   -1.64534   0.00000  0.00000  0.00000  0.00000  0.00000  0.00000
2032 273543.000  -3962952.4262   3351661.6167   3694650.4683   5  25   4.0699   4.5823   3.0717  -3.7730   3.0167  -2.8632   0.00    0.0    0.74916    2.07079   -1.13885   0.00000  0.00000  0.00000  0.00000  0.00000  0.00000
2032 273544.000  -3962952.7073   3351663.9087   3694650.0523   5  25   4.0696   4.5819   3.0715  -3.7725   3.0163  -2.8628   0.00    0.0    0.21069    0.96983   -0.43680   0.00000  0.00000  0.00000  0.00000  0.00000  0.00000
2032 273545.000  -3962952.4871   3351664.1534   3694649.2621   5  26   3.8773   4.5368   3.0692  -3.6662   3.0039  -2.8380   0.00    0.0    0.04250    0.16789   -0.08747   0.00000  0.00000  0.00000  0.00000  0.00000  0.00000
2032 273546.000  -3962952.5731   3351663.7108   3694648.7843   5  26   3.8770   4.5363   3.0690  -3.6657   3.0035  -2.8376   0.00    0.0    0.09914    0.28792   -0.14652   0.00000  0.00000  0.00000  0.00000  0.00000  0.00000
2032 273547.000  -3962952.6347   3351664.3385   3694648.8953   5  26   3.8767   4.5359   3.0689  -3.6653   3.0031  -2.8373   0.00    0.0    0.06417    0.11752   -0.09425   0.00000  0.00000  0.00000  0.00000  0.00000  0.00000
2032 273548.000  -3962952.2505   3351664.2223   3694648.4557   5  26   3.8764   4.5354   3.0687  -3.6648   3.0028  -2.8369   0.00    0.0    0.01761    0.11599   -0.03827   0.00000  0.00000  0.00000  0.00000  0.00000  0.00000
2032 273549.000  -3962952.8948   3351664.8387   3694648.8794   5  26   3.8760   4.5350   3.0685  -3.6644   3.0024  -2.8366   0.00    0.0    0.00538    0.01036    0.00301   0.00000  0.00000  0.00000  0.00000  0.00000  0.00000
2032 273550.000  -3962952.5917   3351664.7833   3694649.0309   5  26   3.8757   4.5345   3.0683  -3.6639   3.0020  -2.8363   0.00    0.0    0.00677   -0.00757   -0.00431   0.00000  0.00000  0.00000  0.00000  0.00000  0.00000
2032 273551.000  -3962952.3828   3351665.3912   3694649.0225   5  26   3.8754   4.5341   3.0681  -3.6634   3.0016  -2.8359   0.00    0.0    0.09621    0.31970   -0.16576   0.00000  0.00000  0.00000  0.00000  0.00000  0.00000
2032 273552.000  -3962952.4983   3351665.3311   3694648.5486   5  26   3.8751   4.5336   3.0679  -3.6630   3.0012  -2.8356   0.00    0.0    0.24141    0.72794   -0.39004   0.00000  0.00000  0.00000  0.00000  0.00000  0.00000
2032 273553.000  -3962951.3690   3351666.4057   3694647.2529   5  26   3.8748   4.5332   3.0677  -3.6625   3.0008  -2.8352   0.00    0.0    0.73197    2.05977   -1.11008   0.00000  0.00000  0.00000  0.00000  0.00000  0.00000
2032 273554.000  -3962950.2918   3351668.8286   3694646.1620   5  26   3.8745   4.5327   3.0675  -3.6621   3.0004  -2.8349   0.00    0.0    1.08966    3.15190   -1.63415   0.00000  0.00000  0.00000  0.00000  0.00000  0.00000
2032 273555.000  -3962949.3844   3351673.3007   3694644.8421   5  26   3.8741   4.5323   3.0673  -3.6616   3.0000  -2.8345   0.00    0.0    1.43014    4.07255   -2.13321   0.00000  0.00000  0.00000  0.00000  0.00000  0.00000
2032 273556.000  -3962948.5126   3351677.0876   3694641.7227   5  27   3.5810   4.3933   3.0393  -3.4296   2.9223  -2.7247   0.00    0.0    1.65065    4.72564   -2.47893   0.00000  0.00000  0.00000  0.00000  0.00000  0.00000
2032 273557.000  -3962947.2528   3351682.7675   3694639.5304   5  27   3.5809   4.3931   3.0392  -3.4293   2.9220  -2.7244   0.00    0.0    1.92909    5.56896   -2.94404   0.00000  0.00000  0.00000  0.00000  0.00000  0.00000
2032 273558.000  -3962944.0694   3351687.5525   3694636.2252   5  26   4.0338   5.0536   3.1661  -4.0495   3.2795  -3.0117   0.00    0.0    1.98862    5.83709   -3.04269   0.00000  0.00000  0.00000  0.00000  0.00000  0.00000
2032 273559.000  -3962942.8246   3351694.4290   3694633.4172   5  26   4.0338   5.0534   3.1660  -4.0494   3.2793  -3.0116   0.00    0.0    1.85762    5.78233   -3.04154   0.00000  0.00000  0.00000  0.00000  0.00000  0.00000
2032 273560.000  -3962939.1834   3351697.7942   3694629.8092   5  24   4.5032   5.2021   3.3303  -4.3439   3.4429  -3.2980   0.00    0.0    1.89612    5.82349   -3.09717   0.00000  0.00000  0.00000  0.00000  0.00000  0.00000
2032 273561.000  -3962938.0764   3351705.2585   3694626.2949   5  24   4.2978   5.0959   3.4832  -4.1755   3.4403  -3.3368   0.00    0.0    1.82542    5.85763   -3.04203   0.00000  0.00000  0.00000  0.00000  0.00000  0.00000
2032 273562.000  -3962939.4244   3351712.4190   3694627.0437   5  19   5.0720   5.8421   4.1030  -4.7725   3.7953  -4.0138   0.00    0.0    1.67529    5.41096   -2.85650   0.00000  0.00000  0.00000  0.00000  0.00000  0.00000
2032 273563.000  -3962936.7110   3351715.8108   3694625.0212   5  12  10.3196  14.8124   6.7533 -11.9823   8.4290  -7.1290   0.00    0.0    1.75356    5.19954   -3.01115   0.00000  0.00000  0.00000  0.00000  0.00000  0.00000
2032 273564.000  -3962908.2302   3351711.3903   3694609.2984   5   9  24.9248  11.7750   9.7608 -14.2776   8.7427 -14.7165   0.00    0.0    1.47056    5.87806   -1.39133   0.00000  0.00000  0.00000  0.00000  0.00000  0.00000
2032 273565.000  -3962929.7998   3351729.3191   3694613.3587   5  14   6.2519   7.2999   3.8951  -6.2197   4.2918  -4.0996   0.00    0.0    2.27589    4.54113   -1.48177   0.00000  0.00000  0.00000  0.00000  0.00000  0.00000
2032 273566.000  -3962927.1909   3351728.9593   3694616.5340   5  14   7.2778   6.6083   5.2597  -6.0967   4.6957  -5.6951   0.00    0.0    3.19635    4.21451   -0.24866   0.00000  0.00000  0.00000  0.00000  0.00000  0.00000
2032 273567.000  -3962927.3582   3351734.2568   3694617.1328   5  15   6.3149   6.5294   4.1586  -5.7688   4.2344  -4.2618   0.00    0.0    3.90060    3.32453    0.26872   0.00000  0.00000  0.00000  0.00000  0.00000  0.00000
2032 273568.000  -3962907.1765   3351723.5216   3694614.0123   5   7  24.4552  26.8827   6.3213 -25.4260   9.6095  -9.3540   0.00    0.0    4.55536    2.11823    0.55507   0.00000  0.00000  0.00000  0.00000  0.00000  0.00000
2032 273569.000  -3962917.9379   3351743.3873   3694615.7235   5   9   8.3041   7.8630   4.6575  -6.8342   4.1065  -4.5228   0.00    0.0    3.24861    2.31770    2.67534   0.00000  0.00000  0.00000  0.00000  0.00000  0.00000
2032 273570.000  -3962919.3245   3351755.0454   3694624.2068   5  10  12.6506  27.8685  12.1842 -17.9921  17.9112 -11.9252   0.00    0.0    3.89972    1.10425    3.04396   0.00000  0.00000  0.00000  0.00000  0.00000  0.00000
2032 273571.000  -3962911.0993   3351741.4472   3694622.4998   5  12   8.5163  13.6684   7.6123  -9.8757   9.6771  -7.3190   0.00    0.0    3.00882    0.97676    2.62549   0.00000  0.00000  0.00000  0.00000  0.00000  0.00000
2032 273572.000  -3962906.7869   3351740.5265   3694624.2700   5  13   8.4485  12.7855   7.4529  -9.6104   9.2822  -7.2046   0.00    0.0    2.62526    0.54752    2.37730   0.00000  0.00000  0.00000  0.00000  0.00000  0.00000
2032 273573.000  -3962906.0113   3351745.4059   3694630.4799   5  20   6.0611   8.1050   5.2066  -6.4895   5.9465  -5.1702   0.00    0.0    1.45170    0.17593    1.25134   0.00000  0.00000  0.00000  0.00000  0.00000  0.00000
2032 273574.000  -3962906.0053   3351746.4843   3694630.6941   5  17   6.8212  11.3502   6.7407  -8.1636   8.2584  -6.2533   0.00    0.0    0.53809    0.11180    0.49562   0.00000  0.00000  0.00000  0.00000  0.00000  0.00000
2032 273575.000  -3962905.7429   3351745.4337   3694631.1900   5  17   6.7870  10.5576   6.6074  -7.9824   7.8684  -6.1776   0.00    0.0    0.22147    0.00987    0.21188   0.00000  0.00000  0.00000  0.00000  0.00000  0.00000
2032 273576.000  -3962904.7359   3351743.9681   3694629.0137   5  18   6.4252   9.3588   5.7450  -7.2824   6.7796  -5.5701   0.00    0.0   -0.06141   -0.01832   -0.06249   0.00000  0.00000  0.00000  0.00000  0.00000  0.00000
2032 273577.000  -3962905.1568   3351744.5975   3694629.3234   5  18   6.4251   9.3582   5.7450  -7.2821   6.7793  -5.5700   0.00    0.0   -0.01377   -0.02450    0.00506   0.00000  0.00000  0.00000  0.00000  0.00000  0.00000
2032 273578.000  -3962905.6375   3351745.5059   3694629.8034   5  18   6.4250   9.3576   5.7450  -7.2818   6.7790  -5.5698   0.00    0.0    0.02156   -0.04300   -0.02346   0.00000  0.00000  0.00000  0.00000  0.00000  0.00000
2032 273579.000  -3962905.0263   3351745.5457   3694629.0965   5  19   6.4196   9.1944   5.7447  -7.2505   6.7724  -5.5685   0.00    0.0    0.01028   -0.01034    0.00299   0.00000  0.00000  0.00000  0.00000  0.00000  0.00000
2032 273580.000  -3962905.1627   3351744.5664   3694628.9603   5  19   6.4195   9.1939   5.7447  -7.2502   6.7721  -5.5684   0.00    0.0   -0.00600    0.00608    0.00957   0.00000  0.00000  0.00000  0.00000  0.00000  0.00000
2032 273581.000  -3962904.3636   3351744.8170   3694629.4140   5  20   6.4188   9.1161   5.5541  -7.2424   6.6418  -5.5563   0.00    0.0    0.00971    0.02003   -0.02874   0.00000  0.00000  0.00000  0.00000  0.00000  0.00000
2032 273582.000  -3962905.0790   3351747.1312   3694630.9340   5  19   6.7808  10.3719   6.3845  -7.9540   7.7259  -6.1445   0.00    0.0    0.02016   -0.05885   -0.02613   0.00000  0.00000  0.00000  0.00000  0.00000  0.00000
2032 273583.000  -3962905.0406   3351746.7435   3694630.9827   5  19   6.7805  10.3707   6.3841  -7.9533   7.7251  -6.1440   0.00    0.0   -0.00734    0.01314    0.00795   0.00000  0.00000  0.00000  0.00000  0.00000  0.00000
2032 273584.000  -3962904.6020   3351745.4299   3694630.4696   5  19   6.7801  10.3695   6.3837  -7.9526   7.7244  -6.1436   0.00    0.0   -0.00703    0.02509    0.00823   0.00000  0.00000  0.00000  0.00000  0.00000  0.00000
2032 273585.000  -3962902.0099   3351741.3272   3694628.1167   5  20   6.7862   9.6340   5.7725  -7.7018   7.0009  -5.8596   0.00    0.0   -0.00416    0.00380    0.00356   0.00000  0.00000  0.00000  0.00000  0.00000  0.00000
2032 273586.000  -3962901.7817   3351741.3172   3694627.7114   5  20   6.7861   9.6335   5.7724  -7.7015   7.0006  -5.8595   0.00    0.0    0.00793   -0.03916   -0.01507   0.00000  0.00000  0.00000  0.00000  0.00000  0.00000
2032 273587.000  -3962901.7531   3351740.1364   3694628.0476   5  19   6.7959   9.7838   5.7731  -7.7418   6.9897  -5.8566   0.00    0.0    0.00182   -0.03596   -0.00826   0.00000  0.00000  0.00000  0.00000  0.00000  0.00000
2032 273588.000  -3962909.1467   3351750.8923   3694635.6354   5  21   5.1481   6.6117   3.6954  -5.3460   4.2107  -3.8253   0.00    0.0   -0.01267    0.02478    0.01995   0.00000  0.00000  0.00000  0.00000  0.00000  0.00000
2032 273589.000  -3962909.1724   3351751.5156   3694635.8629   5  21   5.1479   6.6115   3.6952  -5.3458   4.2105  -3.8251   0.00    0.0    0.00253    0.00237    0.00187   0.00000  0.00000  0.00000  0.00000  0.00000  0.00000
2032 273590.000  -3962910.0211   3351753.9733   3694636.5545   5  22   5.1407   6.4910   3.6915  -5.3138   4.2345  -3.8306   0.00    0.0   -0.00806    0.00942    0.02074   0.00000  0.00000  0.00000  0.00000  0.00000  0.00000
2032 273591.000  -3962910.6203   3351754.9444   3694636.5850   5  22   5.1406   6.4907   3.6914  -5.3136   4.2343  -3.8304   0.00    0.0    0.00520   -0.15052    0.04001   0.00000  0.00000  0.00000  0.00000  0.00000  0.00000
2032 273592.000  -3962909.6886   3351753.9573   3694636.2630   5  22   5.1404   6.4904   3.6913  -5.3134   4.2340  -3.8302   0.00    0.0    0.00033   -0.01229    0.01118   0.00000  0.00000  0.00000  0.00000  0.00000  0.00000
2032 273593.000  -3962909.5638   3351753.5074   3694636.3853   5  22   5.1403   6.4901   3.6911  -5.3131   4.2338  -3.8300   0.00    0.0   -0.00965    0.02291    0.01358   0.00000  0.00000  0.00000  0.00000  0.00000  0.00000
2032 273594.000  -3962909.5411   3351753.5245   3694636.1940   5  22   5.1401   6.4898   3.6910  -5.3129   4.2336  -3.8298   0.00    0.0    0.01112   -0.00534   -0.00157   0.00000  0.00000  0.00000  0.00000  0.00000  0.00000
2032 273595.000  -3962908.7090   3351752.3635   3694635.2347   5  22   5.1400   6.4895   3.6909  -5.3127   4.2333  -3.8296   0.00    0.0    0.01132   -0.04010   -0.01545   0.00000  0.00000  0.00000  0.00000  0.00000  0.00000
2032 273596.000  -3962908.4537   3351751.4257   3694634.8352   5  22   5.1398   6.4892   3.6908  -5.3124   4.2331  -3.8293   0.00    0.0   -0.00243    0.00535    0.01521   0.00000  0.00000  0.00000  0.00000  0.00000  0.00000
2032 273597.000  -3962907.9308   3351750.3708   3694634.4978   5  22   5.1397   6.4889   3.6906  -5.3122   4.2328  -3.8291   0.00    0.0    0.02470   -0.03340   -0.01766   0.00000  0.00000  0.00000  0.00000  0.00000  0.00000
2032 273598.000  -3962906.6645   3351748.8331   3694633.2421   5  22   5.1396   6.4887   3.6905  -5.3119   4.2326  -3.8289   0.00    0.0    0.00562    0.03286   -0.02181   0.00000  0.00000  0.00000  0.00000  0.00000  0.00000
2032 273599.000  -3962906.9541   3351748.7709   3694633.3049   5  22   5.1394   6.4884   3.6904  -5.3117   4.2324  -3.8287   0.00    0.0   -0.00336   -0.02568   -0.00930   0.00000  0.00000  0.00000  0.00000  0.00000  0.00000
2032 273600.000  -3962906.7717   3351748.8940   3694633.2808   5  22   5.1393   6.4881   3.6903  -5.3115   4.2321  -3.8285   0.00    0.0   -0.00086    0.01362    0.00862   0.00000  0.00000  0.00000  0.00000  0.00000  0.00000
2032 273601.000  -3962907.1760   3351749.0910   3694633.8358   5  22   5.1391   6.4878   3.6901  -5.3112   4.2319  -3.8283   0.00    0.0    0.00192   -0.01365    0.00819   0.00000  0.00000  0.00000  0.00000  0.00000  0.00000
2032 273602.000  -3962907.9320   3351750.7656   3694634.6587   5  22   5.1390   6.4875   3.6900  -5.3110   4.2317  -3.8281   0.00    0.0   -0.00978    0.01311    0.02689   0.00000  0.00000  0.00000  0.00000  0.00000  0.00000
2032 273603.000  -3962908.2203   3351751.3676   3694634.6721   5  22   5.1388   6.4872   3.6899  -5.3108   4.2314  -3.8279   0.00    0.0    0.01001   -0.02115   -0.01075   0.00000  0.00000  0.00000  0.00000  0.00000  0.00000
2032 273604.000  -3962908.0921   3351751.3882   3694634.6307   5  22   5.1387   6.4869   3.6898  -5.3105   4.2312  -3.8277   0.00    0.0    0.01129    0.04042    0.03454   0.00000  0.00000  0.00000  0.00000  0.00000  0.00000
2032 273605.000  -3962908.4611   3351751.9041   3694635.2819   5  22   5.1385   6.4866   3.6896  -5.3103   4.2310  -3.8274   0.00    0.0   -0.00954    0.01807    0.02637   0.00000  0.00000  0.00000  0.00000  0.00000  0.00000
2032 273606.000  -3962908.5801   3351752.1500   3694635.2480   5  22   5.1384   6.4864   3.6895  -5.3100   4.2307  -3.8272   0.00    0.0    0.00074   -0.00221    0.00580   0.00000  0.00000  0.00000  0.00000  0.00000  0.00000
2032 273607.000  -3962910.2552   3351754.2666   3694636.5065   5  22   5.1382   6.4861   3.6894  -5.3098   4.2305  -3.8270   0.00    0.0    0.00779   -0.01302    0.00849   0.00000  0.00000  0.00000  0.00000  0.00000  0.00000
2032 273608.000  -3962910.7994   3351755.3350   3694636.6459   5  22   5.1381   6.4858   3.6893  -5.3096   4.2302  -3.8268   0.00    0.0    0.00823   -0.03131   -0.00476   0.00000  0.00000  0.00000  0.00000  0.00000  0.00000
2032 273609.000  -3962911.3206   3351756.3380   3694637.3050   5  22   5.1380   6.4855   3.6891  -5.3093   4.2300  -3.8266   0.00    0.0   -0.00818   -0.00867    0.01215   0.00000  0.00000  0.00000  0.00000  0.00000  0.00000
2032 273610.000  -3962912.3833   3351758.5467   3694638.3381   5  22   5.1378   6.4852   3.6890  -5.3091   4.2298  -3.8264   0.00    0.0   -0.01280    0.03702    0.03459   0.00000  0.00000  0.00000  0.00000  0.00000  0.00000
2032 273611.000  -3962912.9190   3351762.0149   3694641.1922   5  20   5.1448   6.7167   3.7846  -5.3418   4.3237  -3.8214   0.00    0.0   -0.00097   -0.00180   -0.00361   0.00000  0.00000  0.00000  0.00000  0.00000  0.00000
2032 273612.000  -3962916.0612   3351767.2915   3694644.3235   5  20   5.1446   6.7164   3.7844  -5.3416   4.3235  -3.8212   0.00    0.0    0.00769    0.00805   -0.00316   0.00000  0.00000  0.00000  0.00000  0.00000  0.00000
2032 273613.000  -3962919.9709   3351772.0840   3694646.4223   5  21   5.1445   6.6051   3.6922  -5.3404   4.2049  -3.8200   0.00    0.0   -0.01396    0.03237    0.02728   0.00000  0.00000  0.00000  0.00000  0.00000  0.00000
2032 273615.000  -3962901.6687   3351740.0005   3694629.3200   5  20   6.4587   9.5411   5.3240  -7.4435   6.6401  -5.4379   0.00    0.0    0.01510   -0.00996   -0.01303   0.00000  0.00000  0.00000  0.00000  0.00000  0.00000
2032 273616.000  -3962901.5235   3351740.7918   3694628.9400   5  21   6.4121   9.2985   5.3133  -7.3315   6.5857  -5.4138   0.00    0.0    0.02847   -0.04334   -0.01946   0.00000  0.00000  0.00000  0.00000  0.00000  0.00000
2032 273617.000  -3962902.3977   3351743.5633   3694629.8697   5  20   6.6550  10.3273   5.9273  -7.8584   7.4281  -5.8300   0.00    0.0   -0.00042   -0.00191    0.01683   0.00000  0.00000  0.00000  0.00000  0.00000  0.00000
2032 273618.000  -3962900.5746   3351740.8996   3694629.0666   5  20   6.6545  10.3259   5.9268  -7.8575   7.4271  -5.8294   0.00    0.0    0.00052   -0.00797   -0.00103   0.00000  0.00000  0.00000  0.00000  0.00000  0.00000
2032 273619.000  -3962899.9843   3351738.8048   3694627.4334   5  21   6.4113   9.2962   5.3126  -7.3300   6.5843  -5.4129   0.00    0.0    0.00552   -0.00820   -0.00855   0.00000  0.00000  0.00000  0.00000  0.00000  0.00000
2032 273620.000  -3962901.1027   3351740.4258   3694628.4307   5  21   6.4110   9.2954   5.3124  -7.3295   6.5838  -5.4125   0.00    0.0   -0.00249    0.00971    0.00703   0.00000  0.00000  0.00000  0.00000  0.00000  0.00000
2032 273621.000  -3962901.3887   3351740.6539   3694628.5619   5  21   6.4108   9.2946   5.3121  -7.3290   6.5833  -5.4122   0.00    0.0    0.01354   -0.02135   -0.00867   0.00000  0.00000  0.00000  0.00000  0.00000  0.00000
2032 273622.000  -3962900.6562   3351738.7685   3694628.1929   5  20   6.4568   9.5356   5.3223  -7.4399   6.6366  -5.4356   0.00    0.0   -0.01900    0.02452    0.02525   0.00000  0.00000  0.00000  0.00000  0.00000  0.00000
2032 273623.000  -3962900.8365   3351738.8352   3694628.2955   5  20   6.4565   9.5348   5.3221  -7.4394   6.6360  -5.4353   0.00    0.0    0.01148   -0.03324   -0.00945   0.00000  0.00000  0.00000  0.00000  0.00000  0.00000
2032 273624.000  -3962901.2569   3351739.9862   3694628.5112   5  20   6.4562   9.5340   5.3218  -7.4389   6.6355  -5.4350   0.00    0.0    0.01916   -0.03034   -0.01107   0.00000  0.00000  0.00000  0.00000  0.00000  0.00000
2032 273625.000  -3962901.5660   3351739.8627   3694629.0500   5  20   6.4559   9.5332   5.3216  -7.4384   6.6350  -5.4346   0.00    0.0   -0.00142    0.00080    0.00795   0.00000  0.00000  0.00000  0.00000  0.00000  0.00000
2032 273626.000  -3962901.2831   3351739.4906   3694629.0815   5  20   6.4556   9.5324   5.3213  -7.4379   6.6345  -5.4343   0.00    0.0    0.02336   -0.01753   -0.01402   0.00000  0.00000  0.00000  0.00000  0.00000  0.00000
2032 273627.000  -3962900.6007   3351738.4294   3694628.5725   5  20   6.4554   9.5316   5.3211  -7.4374   6.6340  -5.4340   0.00    0.0    0.01613   -0.01734   -0.01070   0.00000  0.00000  0.00000  0.00000  0.00000  0.00000
2032 273628.000  -3962899.4732   3351737.1453   3694628.1708   5  20   6.4551   9.5308   5.3208  -7.4369   6.6335  -5.4337   0.00    0.0    0.00247    0.01542    0.00888   0.00000  0.00000  0.00000  0.00000  0.00000  0.00000
2032 273629.000  -3962900.1051   3351739.0841   3694628.1388   5  21   6.4086   9.2884   5.3102  -7.3249   6.5793  -5.4097   0.00    0.0    0.02917   -0.03835   -0.00634   0.00000  0.00000  0.00000  0.00000  0.00000  0.00000
2032 273630.000  -3962900.6415   3351739.2608   3694629.0937   5  20   6.4545   9.5292   5.3203  -7.4359   6.6325  -5.4330   0.00    0.0    0.00402   -0.00058    0.00222   0.00000  0.00000  0.00000  0.00000  0.00000  0.00000
2032 273631.000  -3962900.1814   3351738.5491   3694628.8896   5  20   6.4543   9.5285   5.3201  -7.4353   6.6320  -5.4327   0.00    0.0   -0.00422    0.00021    0.00596   0.00000  0.00000  0.00000  0.00000  0.00000  0.00000
2032 273632.000  -3962901.8985   3351741.7270   3694629.6660   5  22   5.9316   8.1010   4.9058  -6.5292   5.8352  -4.9328   0.00    0.0    0.00338    0.01326    0.00823   0.00000  0.00000  0.00000  0.00000  0.00000  0.00000
2032 273633.000  -3962902.0718   3351741.2495   3694629.3302   5  22   5.9312   8.1000   4.9055  -6.5285   5.8346  -4.9323   0.00    0.0    0.00027    0.01443    0.00940   0.00000  0.00000  0.00000  0.00000  0.00000  0.00000
2032 273634.000  -3962903.9498   3351744.2553   3694630.8588   5  22   5.9308   8.0991   4.9052  -6.5279   5.8340  -4.9319   0.00    0.0    0.01682   -0.03467   -0.01763   0.00000  0.00000  0.00000  0.00000  0.00000  0.00000
2032 273635.000  -3962903.2278   3351743.5619   3694630.0839   5  22   5.9304   8.0982   4.9049  -6.5272   5.8335  -4.9315   0.00    0.0   -0.01414    0.02621    0.01750   0.00000  0.00000  0.00000  0.00000  0.00000  0.00000
2032 273636.000  -3962903.8240   3351744.1476   3694630.6326   5  22   5.9300   8.0973   4.9046  -6.5265   5.8329  -4.9311   0.00    0.0   -0.01956    0.01743    0.02655   0.00000  0.00000  0.00000  0.00000  0.00000  0.00000
2032 273637.000  -3962903.7078   3351744.0137   3694630.3783   5  22   5.9296   8.0964   4.9044  -6.5259   5.8323  -4.9307   0.00    0.0    0.02726   -0.03612   -0.01768   0.00000  0.00000  0.00000  0.00000  0.00000  0.00000
2032 273638.000  -3962905.1888   3351747.2392   3694633.3132   5  20   6.0314   8.7476   5.2933  -6.7993   6.3250  -5.1355   0.00    0.0    0.00329    0.00719    0.01291   0.00000  0.00000  0.00000  0.00000  0.00000  0.00000
2032 273639.000  -3962905.7769   3351748.1777   3694634.1518   5  20   6.0309   8.7463   5.2928  -6.7984   6.3241  -5.1349   0.00    0.0    0.03073   -0.04065   -0.02635   0.00000  0.00000  0.00000  0.00000  0.00000  0.00000
2032 273640.000  -3962904.7796   3351746.2630   3694631.7509   5  22   5.9284   8.0937   4.9035  -6.5239   5.8306  -4.9294   0.00    0.0   -0.00087   -0.00496    0.01692   0.00000  0.00000  0.00000  0.00000  0.00000  0.00000
2032 273641.000  -3962905.4073   3351747.2225   3694632.6112   5  22   5.9280   8.0928   4.9032  -6.5232   5.8300  -4.9290   0.00    0.0   -0.02982    0.03367    0.02427   0.00000  0.00000  0.00000  0.00000  0.00000  0.00000
