% program   : GINav v0.1.0
% obs start : 2018/12/19 03:56:15.0
% obs end   : 2018/12/19 04:16:56.0
% mode      : PPK
% system    : GPS GLONASS GALILEO BDS QZSS
% nfreqs    : 1
% elev mask : 15.0 deg
% ephemeris : broadcast
% ionos opt : broadcast model
% trops opt : Saastamoinen model
%
%  GPST              x-ecef(m)      y-ecef(m)      z-ecef(m)   Q  ns   sdx(m)   sdy(m)   sdz(m)  sdxy(m)  sdyz(m)  sdzx(m) age(s)  ratio    vx(m/s)    vy(m/s)    vz(m/s)      sdvx     sdvy     sdvz    sdvxy    sdvyz    sdvzx
2032 273375.000  -3963426.7841   3350882.1503   3694865.5306   1  21   0.0085   0.0096   0.0072  -0.0074   0.0060  -0.0067   0.00   10.7    0.00594   -0.02602   -0.00092   0.00000  0.00000  0.00000  0.00000  0.00000  0.00000
2032 273376.000  -3963426.7841   3350882.1541   3694865.5293   1  20   0.0085   0.0098   0.0075  -0.0074   0.0057  -0.0068   0.00   11.4    0.01733    0.04339   -0.05325   0.00000  0.00000  0.00000  0.00000  0.00000  0.00000
2032 273377.000  -3963426.7843   3350882.1515   3694865.5317   1  21   0.0085   0.0099   0.0074  -0.0073   0.0057  -0.0068   0.00   10.7   -0.02059   -0.05380    0.08347   0.00000  0.00000  0.00000  0.00000  0.00000  0.00000
2032 273378.000  -3963426.7852   3350882.1521   3694865.5311   1  21   0.0084   0.0098   0.0072  -0.0073   0.0057  -0.0064   0.00   11.6    0.00095    0.00006    0.00901   0.00000  0.00000  0.00000  0.00000  0.00000  0.00000
2032 273379.000  -3963426.7822   3350882.1497   3694865.5296   1  22   0.0083   0.0098   0.0071  -0.0075   0.0059  -0.0065   0.00   11.0    0.01449   -0.01888   -0.01354   0.00000  0.00000  0.00000  0.00000  0.00000  0.00000
2032 273380.000  -3963426.7850   3350882.1492   3694865.5323   1  22   0.0083   0.0098   0.0071  -0.0074   0.0059  -0.0064   0.00   10.3   -0.00134    0.00709    0.00215   0.00000  0.00000  0.00000  0.00000  0.00000  0.00000
2032 273381.000  -3963426.7854   3350882.1533   3694865.5319   1  21   0.0086   0.0097   0.0071  -0.0074   0.0060  -0.0069   0.00   11.4   -0.00982    0.01180    0.01115   0.00000  0.00000  0.00000  0.00000  0.00000  0.00000
2032 273382.000  -3963426.7649   3350882.1539   3694865.5506   1  22   0.0081   0.0096   0.0071  -0.0075   0.0059  -0.0066   0.00   11.3    0.06312   -0.00204    0.06236   0.00000  0.00000  0.00000  0.00000  0.00000  0.00000
2032 273383.000  -3963427.3099   3350882.5421   3694866.5298   2  22   0.2737   0.3217   0.2330  -0.2466   0.1997  -0.2154   0.00    2.4    0.24437    0.04040    0.30330   0.00000  0.00000  0.00000  0.00000  0.00000  0.00000
2032 273384.000  -3963426.7345   3350882.6642   3694867.2578   2  21   0.2592   0.3056   0.2210  -0.2340   0.1890  -0.2039   0.00    2.6    0.87192    0.08049    0.91233   0.00000  0.00000  0.00000  0.00000  0.00000  0.00000
2032 273385.000  -3963425.0720   3350882.3151   3694867.3078   1  21   0.0082   0.0098   0.0069  -0.0075   0.0060  -0.0064   0.00    3.2    1.18311   -0.00358    1.27134   0.00000  0.00000  0.00000  0.00000  0.00000  0.00000
2032 273386.000  -3963423.6394   3350882.3296   3694868.8855   1  20   0.0083   0.0099   0.0077  -0.0075   0.0058  -0.0067   0.00    3.3    1.54961   -0.06363    1.91882   0.00000  0.00000  0.00000  0.00000  0.00000  0.00000
2032 273387.000  -3963421.8110   3350882.3005   3694870.9461   1  20   0.0084   0.0098   0.0076  -0.0075   0.0058  -0.0068   0.00    3.7    2.04105   -0.04527    2.25053   0.00000  0.00000  0.00000  0.00000  0.00000  0.00000
2032 273388.000  -3963419.6347   3350882.3141   3694873.3284   1  20   0.0082   0.0097   0.0078  -0.0076   0.0059  -0.0067   0.00    4.2    2.31120   -0.00800    2.53668   0.00000  0.00000  0.00000  0.00000  0.00000  0.00000
2032 273389.000  -3963417.2432   3350882.4460   3694875.9518   1  20   0.0083   0.0098   0.0077  -0.0076   0.0057  -0.0067   0.00    4.7    2.49965    0.13438    2.70529   0.00000  0.00000  0.00000  0.00000  0.00000  0.00000
2032 273390.000  -3963414.7852   3350882.5953   3694878.5463   1  19   0.0087   0.0107   0.0077  -0.0082   0.0062  -0.0071   0.00    5.2    2.40518    0.19529    2.57604   0.00000  0.00000  0.00000  0.00000  0.00000  0.00000
2032 273391.000  -3963412.3186   3350882.7904   3694881.0725   1  19   0.0088   0.0106   0.0078  -0.0081   0.0063  -0.0070   0.00    5.6    2.50399    0.22021    2.52485   0.00000  0.00000  0.00000  0.00000  0.00000  0.00000
2032 273392.000  -3963409.6918   3350883.0833   3694883.7509   1  19   0.0086   0.0106   0.0078  -0.0082   0.0063  -0.0071   0.00    6.2    2.79056    0.34069    2.77586   0.00000  0.00000  0.00000  0.00000  0.00000  0.00000
2032 273393.000  -3963406.7753   3350883.4748   3694886.6374   1  20   0.0088   0.0106   0.0078  -0.0082   0.0063  -0.0069   0.00    6.9    3.04410    0.46345    3.00872   0.00000  0.00000  0.00000  0.00000  0.00000  0.00000
2032 273394.000  -3963403.6729   3350883.9581   3694889.6556   1  20   0.0085   0.0102   0.0078  -0.0079   0.0059  -0.0069   0.00    7.4    3.13850    0.52320    3.02556   0.00000  0.00000  0.00000  0.00000  0.00000  0.00000
2032 273395.000  -3963400.5206   3350884.4443   3694892.7036   1  19   0.0088   0.0106   0.0079  -0.0081   0.0061  -0.0069   0.00    7.9    3.16417    0.47708    3.07695   0.00000  0.00000  0.00000  0.00000  0.00000  0.00000
2032 273396.000  -3963397.4272   3350884.9151   3694895.7074   1  19   0.0087   0.0106   0.0079  -0.0082   0.0063  -0.0069   0.00    8.5    3.04842    0.44197    2.91158   0.00000  0.00000  0.00000  0.00000  0.00000  0.00000
2032 273397.000  -3963394.5286   3350885.3565   3694898.5294   1  20   0.0087   0.0106   0.0077  -0.0081   0.0061  -0.0069   0.00    8.8    2.73707    0.47189    2.75022   0.00000  0.00000  0.00000  0.00000  0.00000  0.00000
2032 273398.000  -3963391.8542   3350885.7703   3694901.1502   1  19   0.0093   0.0105   0.0081  -0.0079   0.0063  -0.0075   0.00   12.9    2.52879    0.38168    2.53271   0.00000  0.00000  0.00000  0.00000  0.00000  0.00000
2032 273399.000  -3963389.3804   3350886.1410   3694903.5461   1  21   0.0093   0.0105   0.0081  -0.0081   0.0063  -0.0075   0.00   12.9    2.36871    0.37121    2.33165   0.00000  0.00000  0.00000  0.00000  0.00000  0.00000
2032 273400.000  -3963386.8340   3350886.5406   3694906.0206   1  20   0.0090   0.0104   0.0079  -0.0083   0.0064  -0.0073   0.00   12.7    2.65627    0.40696    2.57302   0.00000  0.00000  0.00000  0.00000  0.00000  0.00000
2032 273401.000  -3963384.2932   3350886.9421   3694908.4771   1  20   0.0089   0.0106   0.0081  -0.0081   0.0061  -0.0074   0.00   12.4    2.40484    0.37621    2.44021   0.00000  0.00000  0.00000  0.00000  0.00000  0.00000
2032 273402.000  -3963381.9318   3350887.2767   3694910.8019   1  20   0.0089   0.0105   0.0078  -0.0081   0.0064  -0.0071   0.00   12.1    2.33461    0.31327    2.32253   0.00000  0.00000  0.00000  0.00000  0.00000  0.00000
2032 273403.000  -3963379.5298   3350887.5585   3694913.2067   1  21   0.0088   0.0104   0.0079  -0.0082   0.0064  -0.0072   0.00   12.3    2.43300    0.29533    2.50500   0.00000  0.00000  0.00000  0.00000  0.00000  0.00000
2032 273404.000  -3963376.8981   3350887.8656   3694915.8081   1  22   0.0086   0.0101   0.0077  -0.0078   0.0063  -0.0070   0.00   12.4    2.81871    0.28775    2.82538   0.00000  0.00000  0.00000  0.00000  0.00000  0.00000
2032 273405.000  -3963373.7276   3350888.4427   3694918.7530   1  22   0.0083   0.0099   0.0073  -0.0076   0.0062  -0.0067   0.00   13.8    3.42392    0.74036    3.03897   0.00000  0.00000  0.00000  0.00000  0.00000  0.00000
2032 273406.000  -3963370.0649   3350889.1961   3694922.0017   1  22   0.0082   0.0098   0.0072  -0.0075   0.0062  -0.0065   0.00   13.4    3.85777    0.82004    3.36192   0.00000  0.00000  0.00000  0.00000  0.00000  0.00000
2032 273407.000  -3963365.9714   3350889.9675   3694925.6399   1  21   0.0085   0.0104   0.0074  -0.0081   0.0066  -0.0065   0.00   13.4    4.23870    0.76278    3.81224   0.00000  0.00000  0.00000  0.00000  0.00000  0.00000
2032 273408.000  -3963361.7049   3350890.6102   3694929.5147   1  21   0.0087   0.0103   0.0076  -0.0081   0.0066  -0.0070   0.00   13.6    4.25218    0.55953    3.93813   0.00000  0.00000  0.00000  0.00000  0.00000  0.00000
2032 273409.000  -3963357.4865   3350891.1389   3694933.3761   1  20   0.0087   0.0103   0.0076  -0.0080   0.0066  -0.0069   0.00   13.6    4.20136    0.58515    3.85653   0.00000  0.00000  0.00000  0.00000  0.00000  0.00000
2032 273410.000  -3963353.2742   3350891.6905   3694937.1987   1  19   0.0090   0.0104   0.0081  -0.0082   0.0065  -0.0075   0.00   14.0    4.21584    0.51342    3.78227   0.00000  0.00000  0.00000  0.00000  0.00000  0.00000
2032 273411.000  -3963349.0553   3350892.2407   3694940.9810   1  21   0.0091   0.0107   0.0083  -0.0080   0.0061  -0.0076   0.00   12.7    4.22064    0.65029    3.72123   0.00000  0.00000  0.00000  0.00000  0.00000  0.00000
2032 273412.000  -3963344.8638   3350892.7918   3694944.8061   1  23   0.0089   0.0105   0.0078  -0.0080   0.0062  -0.0073   0.00   12.7    4.19877    0.50720    3.89951   0.00000  0.00000  0.00000  0.00000  0.00000  0.00000
2032 273413.000  -3963340.4360   3350893.2910   3694948.8762   1  24   0.0085   0.0104   0.0075  -0.0079   0.0066  -0.0068   0.00   12.9    4.64304    0.56493    4.25618   0.00000  0.00000  0.00000  0.00000  0.00000  0.00000
2032 273414.000  -3963335.6290   3350893.9602   3694953.1914   1  23   0.0086   0.0104   0.0074  -0.0080   0.0066  -0.0070   0.00   13.2    4.99672    0.78298    4.40330   0.00000  0.00000  0.00000  0.00000  0.00000  0.00000
2032 273415.000  -3963330.4618   3350894.8624   3694957.6056   1  23   0.0086   0.0102   0.0074  -0.0079   0.0065  -0.0069   0.00   13.5    5.34470    1.01414    4.41121   0.00000  0.00000  0.00000  0.00000  0.00000  0.00000
2032 273416.000  -3963325.0390   3350895.8277   3694962.1677   1  23   0.0085   0.0102   0.0073  -0.0080   0.0066  -0.0067   0.00   12.1    5.52293    0.94544    4.62694   0.00000  0.00000  0.00000  0.00000  0.00000  0.00000
2032 273417.000  -3963319.5838   3350896.7433   3694966.8282   1  23   0.0083   0.0100   0.0068  -0.0081   0.0069  -0.0068   0.00   11.4    5.44728    0.88856    4.66750   0.00000  0.00000  0.00000  0.00000  0.00000  0.00000
2032 273418.000  -3963314.0218   3350897.5483   3694971.6503   1  23   0.0084   0.0101   0.0072  -0.0079   0.0068  -0.0068   0.00    8.5    5.67044    0.72557    4.95784   0.00000  0.00000  0.00000  0.00000  0.00000  0.00000
2032 273419.000  -3963308.2762   3350898.2967   3694976.7011   1  23   0.0084   0.0101   0.0071  -0.0079   0.0069  -0.0067   0.00    9.4    5.82284    0.72140    5.12157   0.00000  0.00000  0.00000  0.00000  0.00000  0.00000
2032 273420.000  -3963302.4214   3350899.0377   3694981.8873   1  24   0.0083   0.0102   0.0073  -0.0079   0.0068  -0.0068   0.00    9.7    5.76456    0.84937    5.29875   0.00000  0.00000  0.00000  0.00000  0.00000  0.00000
2032 273421.000  -3963296.5029   3350899.7805   3694987.1066   1  24   0.0082   0.0101   0.0069  -0.0080   0.0068  -0.0067   0.00   10.2    5.88252    0.76204    5.27611   0.00000  0.00000  0.00000  0.00000  0.00000  0.00000
2032 273422.000  -3963290.5887   3350900.5360   3694992.3728   1  22   0.0090   0.0102   0.0069  -0.0082   0.0068  -0.0071   0.00   10.9    5.92786    0.73300    5.33592   0.00000  0.00000  0.00000  0.00000  0.00000  0.00000
2032 273423.000  -3963284.6077   3350901.2940   3694997.6482   1  23   0.0093   0.0102   0.0078  -0.0083   0.0069  -0.0075   0.00   11.4    6.06822    0.83590    5.35311   0.00000  0.00000  0.00000  0.00000  0.00000  0.00000
2032 273424.000  -3963278.5216   3350902.1258   3695003.0054   1  20   0.0095   0.0103   0.0079  -0.0081   0.0068  -0.0075   0.00   13.9    6.15843    0.87098    5.32984   0.00000  0.00000  0.00000  0.00000  0.00000  0.00000
2032 273425.000  -3963272.3595   3350902.9647   3695008.3994   1  19   0.0098   0.0103   0.0082  -0.0082   0.0068  -0.0081   0.00   16.8    6.14689    0.83624    5.42976   0.00000  0.00000  0.00000  0.00000  0.00000  0.00000
2032 273426.000  -3963266.1652   3350903.7975   3695013.8285   1  18   0.0097   0.0103   0.0085  -0.0083   0.0068  -0.0084   0.00   10.1    6.25282    0.77195    5.37896   0.00000  0.00000  0.00000  0.00000  0.00000  0.00000
2032 273427.000  -3963260.1503   3350904.6290   3695019.0779   1  18   0.0099   0.0103   0.0084  -0.0082   0.0069  -0.0084   0.00   10.6    5.74904    0.83096    4.93993   0.00000  0.00000  0.00000  0.00000  0.00000  0.00000
2032 273428.000  -3963254.8149   3350905.4177   3695023.7130   1  15   0.0106   0.0123   0.0098  -0.0070   0.0045  -0.0093   0.00    8.0    4.85069    0.76647    4.32100   0.00000  0.00000  0.00000  0.00000  0.00000  0.00000
2032 273429.000  -3963250.5147   3350906.0655   3695027.4350   1  16   0.0107   0.0135   0.0098  -0.0075   0.0049  -0.0094   0.00    6.4    3.69059    0.64367    3.19327   0.00000  0.00000  0.00000  0.00000  0.00000  0.00000
2032 273430.000  -3963247.4607   3350906.5339   3695030.1325   1  16   0.0098   0.0132   0.0091  -0.0080   0.0058  -0.0086   0.00    6.6    2.48140    0.32285    2.21137   0.00000  0.00000  0.00000  0.00000  0.00000  0.00000
2032 273431.000  -3963244.9343   3350906.8685   3695032.3857   1  18   0.0095   0.0131   0.0089  -0.0082   0.0062  -0.0083   0.00    6.7    2.52536    0.35836    2.28085   0.00000  0.00000  0.00000  0.00000  0.00000  0.00000
2032 273432.000  -3963242.3902   3350907.2200   3695034.6700   1  18   0.0094   0.0127   0.0087  -0.0084   0.0066  -0.0081   0.00    6.7    2.56289    0.33895    2.27352   0.00000  0.00000  0.00000  0.00000  0.00000  0.00000
2032 273433.000  -3963239.8401   3350907.6021   3695036.9918   1  19   0.0094   0.0126   0.0084  -0.0085   0.0068  -0.0079   0.00    6.9    2.51761    0.26878    2.31993   0.00000  0.00000  0.00000  0.00000  0.00000  0.00000
2032 273434.000  -3963237.7280   3350907.9915   3695038.8951   1  20   0.0089   0.0118   0.0082  -0.0085   0.0070  -0.0076   0.00    7.6    1.50434    0.36613    1.43084   0.00000  0.00000  0.00000  0.00000  0.00000  0.00000
2032 273435.000  -3963236.6281   3350908.2125   3695039.8426   1  20   0.0087   0.0115   0.0078  -0.0085   0.0071  -0.0075   0.00    7.6    0.60066    0.12396    0.55849   0.00000  0.00000  0.00000  0.00000  0.00000  0.00000
2032 273436.000  -3963236.1072   3350908.3254   3695040.3071   1  19   0.0097   0.0116   0.0082  -0.0090   0.0076  -0.0080   0.00    7.3    0.56256    0.13630    0.49829   0.00000  0.00000  0.00000  0.00000  0.00000  0.00000
2032 273437.000  -3963235.5050   3350908.4695   3695040.8416   1  19   0.0097   0.0115   0.0083  -0.0090   0.0077  -0.0079   0.00    7.6    0.65945    0.13310    0.59119   0.00000  0.00000  0.00000  0.00000  0.00000  0.00000
2032 273438.000  -3963235.2265   3350908.5478   3695041.1028   1  19   0.0096   0.0112   0.0081  -0.0090   0.0075  -0.0080   0.00    8.1   -0.04994   -0.03358   -0.10342   0.00000  0.00000  0.00000  0.00000  0.00000  0.00000
2032 273439.000  -3963235.2330   3350908.5522   3695041.0994   1  21   0.0095   0.0112   0.0082  -0.0091   0.0077  -0.0080   0.00    8.6   -0.01455   -0.00547   -0.00935   0.00000  0.00000  0.00000  0.00000  0.00000  0.00000
2032 273440.000  -3963235.2292   3350908.5483   3695041.0973   1  21   0.0091   0.0107   0.0077  -0.0086   0.0074  -0.0076   0.00    9.2   -0.00292   -0.00718    0.00638   0.00000  0.00000  0.00000  0.00000  0.00000  0.00000
2032 273441.000  -3963235.2322   3350908.5521   3695041.0993   1  23   0.0091   0.0105   0.0080  -0.0083   0.0073  -0.0074   0.00    9.6   -0.09107    0.01946    0.10644   0.00000  0.00000  0.00000  0.00000  0.00000  0.00000
2032 273442.000  -3963235.2282   3350908.5488   3695041.0964   1  25   0.0085   0.0102   0.0075  -0.0081   0.0069  -0.0072   0.00    9.7    0.00397   -0.00506    0.01082   0.00000  0.00000  0.00000  0.00000  0.00000  0.00000
2032 273443.000  -3963235.2351   3350908.5520   3695041.1002   1  25   0.0083   0.0101   0.0071  -0.0079   0.0069  -0.0068   0.00    9.8    0.00841   -0.01336    0.00016   0.00000  0.00000  0.00000  0.00000  0.00000  0.00000
2032 273444.000  -3963235.2340   3350908.5552   3695041.0997   1  25   0.0079   0.0098   0.0069  -0.0075   0.0067  -0.0066   0.00    3.8   -0.00365    0.00637   -0.00208   0.00000  0.00000  0.00000  0.00000  0.00000  0.00000
2032 273445.000  -3963235.2290   3350908.5463   3695041.0955   1  25   0.0078   0.0099   0.0067  -0.0076   0.0067  -0.0066   0.00    4.1   -0.00677   -0.00211    0.00775   0.00000  0.00000  0.00000  0.00000  0.00000  0.00000
2032 273446.000  -3963235.6744   3350908.7390   3695041.5829   2  24   0.0960   0.1154   0.0828  -0.0880   0.0727  -0.0768   0.00    2.6    0.01418   -0.02583   -0.02611   0.00000  0.00000  0.00000  0.00000  0.00000  0.00000
2032 273447.000  -3963235.6761   3350908.7466   3695041.5744   2  26   0.0951   0.1144   0.0819  -0.0872   0.0721  -0.0760   0.00    2.4   -0.03016    0.01534    0.01092   0.00000  0.00000  0.00000  0.00000  0.00000  0.00000
2032 273448.000  -3963235.6824   3350908.7507   3695041.5692   2  25   0.0943   0.1135   0.0812  -0.0865   0.0715  -0.0753   0.00    2.5    0.00263    0.00502    0.00770   0.00000  0.00000  0.00000  0.00000  0.00000  0.00000
2032 273449.000  -3963235.6839   3350908.7508   3695041.5635   2  25   0.0935   0.1125   0.0804  -0.0857   0.0710  -0.0746   0.00    2.6    0.00290   -0.00053   -0.00461   0.00000  0.00000  0.00000  0.00000  0.00000  0.00000
2032 273450.000  -3963235.6760   3350908.7364   3695041.5461   2  25   0.0927   0.1116   0.0797  -0.0850   0.0704  -0.0739   0.00    2.7   -0.00498   -0.00618   -0.00027   0.00000  0.00000  0.00000  0.00000  0.00000  0.00000
2032 273451.000  -3963235.6735   3350908.7342   3695041.5365   2  26   0.0918   0.1107   0.0789  -0.0843   0.0698  -0.0732   0.00    2.8    0.01873   -0.01807   -0.00889   0.00000  0.00000  0.00000  0.00000  0.00000  0.00000
2032 273452.000  -3963235.6695   3350908.7248   3695041.5295   2  25   0.0910   0.1098   0.0783  -0.0836   0.0693  -0.0726   0.00    2.8   -0.03782    0.02571    0.04005   0.00000  0.00000  0.00000  0.00000  0.00000  0.00000
2032 273453.000  -3963235.6611   3350908.7209   3695041.5138   2  25   0.0903   0.1090   0.0776  -0.0829   0.0688  -0.0719   0.00    2.9   -0.00532    0.00857    0.01916   0.00000  0.00000  0.00000  0.00000  0.00000  0.00000
2032 273454.000  -3963235.6628   3350908.7159   3695041.5120   2  25   0.0895   0.1081   0.0769  -0.0822   0.0683  -0.0713   0.00    3.0   -0.00072   -0.00490    0.00170   0.00000  0.00000  0.00000  0.00000  0.00000  0.00000
2032 273455.000  -3963235.2360   3350908.5560   3695041.1008   1  25   0.0080   0.0098   0.0063  -0.0075   0.0067  -0.0062   0.00    3.0   -0.00099   -0.00298    0.00319   0.00000  0.00000  0.00000  0.00000  0.00000  0.00000
2032 273456.000  -3963235.2321   3350908.5516   3695041.0972   1  26   0.0079   0.0098   0.0065  -0.0077   0.0065  -0.0063   0.00    3.1    0.01095   -0.01707   -0.00103   0.00000  0.00000  0.00000  0.00000  0.00000  0.00000
2032 273457.000  -3963235.2370   3350908.5575   3695041.0971   1  25   0.0077   0.0098   0.0067  -0.0075   0.0067  -0.0062   0.00    3.2   -0.00579   -0.01229    0.00709   0.00000  0.00000  0.00000  0.00000  0.00000  0.00000
2032 273458.000  -3963235.2389   3350908.5601   3695041.1020   1  25   0.0079   0.0098   0.0068  -0.0075   0.0065  -0.0063   0.00    3.2   -0.01299    0.00347    0.02137   0.00000  0.00000  0.00000  0.00000  0.00000  0.00000
2032 273459.000  -3963235.2138   3350908.5660   3695041.1269   1  26   0.0077   0.0098   0.0066  -0.0076   0.0067  -0.0061   0.00    3.2    0.05141    0.04974    0.09249   0.00000  0.00000  0.00000  0.00000  0.00000  0.00000
2032 273460.000  -3963234.9182   3350908.6465   3695041.3840   1  25   0.0079   0.0097   0.0065  -0.0076   0.0068  -0.0063   0.00    3.3    0.68551    0.21735    0.63205   0.00000  0.00000  0.00000  0.00000  0.00000  0.00000
2032 273461.000  -3963233.7635   3350908.9713   3695042.3547   1  24   0.0082   0.0100   0.0068  -0.0078   0.0068  -0.0066   0.00    5.2    1.68122    0.61096    1.39830   0.00000  0.00000  0.00000  0.00000  0.00000  0.00000
2032 273462.000  -3963232.0033   3350909.7106   3695043.6331   1  24   0.0081   0.0099   0.0067  -0.0078   0.0068  -0.0065   0.00    5.4    1.87056    0.89310    1.17147   0.00000  0.00000  0.00000  0.00000  0.00000  0.00000
2032 273463.000  -3963230.3337   3350910.7069   3695044.6730   1  24   0.0083   0.0100   0.0064  -0.0079   0.0066  -0.0065   0.00    5.6    1.59757    1.17929    0.84699   0.00000  0.00000  0.00000  0.00000  0.00000  0.00000
2032 273464.000  -3963228.2423   3350912.2952   3695045.5963   1  24   0.0093   0.0105   0.0069  -0.0086   0.0073  -0.0070   0.00    7.1    2.11262    2.00885    0.56678   0.00000  0.00000  0.00000  0.00000  0.00000  0.00000
2032 273465.000  -3963225.7256   3350914.9794   3695045.9975   1  23   0.0099   0.0127   0.0084  -0.0101   0.0092  -0.0081   0.00    6.7    2.76684    3.03261   -0.26920   0.00000  0.00000  0.00000  0.00000  0.00000  0.00000
2032 273466.000  -3963223.3253   3350919.0614   3695045.1285   1  23   0.0116   0.0155   0.0095  -0.0124   0.0111  -0.0096   0.00    8.7    2.22477    4.68170   -1.65549   0.00000  0.00000  0.00000  0.00000  0.00000  0.00000
2032 273467.000  -3963221.3476   3350924.0070   3695042.9745   1  23   0.0109   0.0138   0.0084  -0.0112   0.0096  -0.0087   0.00    8.9    1.96777    5.34525   -2.54682   0.00000  0.00000  0.00000  0.00000  0.00000  0.00000
2032 273468.000  -3963219.3000   3350929.8241   3695040.1391   1  21   0.0116   0.0165   0.0099  -0.0126   0.0118  -0.0096   0.00    9.3    2.08300    6.22504   -3.15674   0.00000  0.00000  0.00000  0.00000  0.00000  0.00000
2032 273469.000  -3963216.9860   3350936.5293   3695036.8800   1  21   0.0115   0.0164   0.0097  -0.0124   0.0117  -0.0094   0.00    4.7    2.38044    7.13076   -3.52663   0.00000  0.00000  0.00000  0.00000  0.00000  0.00000
2032 273470.000  -3963214.4775   3350944.1389   3695033.0378   1  22   0.0114   0.0164   0.0097  -0.0125   0.0117  -0.0096   0.00    5.3    2.57422    8.06113   -4.15329   0.00000  0.00000  0.00000  0.00000  0.00000  0.00000
2032 273471.000  -3963211.7366   3350952.6134   3695028.6731   1  22   0.0114   0.0159   0.0093  -0.0124   0.0113  -0.0095   0.00    5.8    2.86468    8.81274   -4.52810   0.00000  0.00000  0.00000  0.00000  0.00000  0.00000
2032 273472.000  -3963208.8232   3350961.5845   3695024.0878   1  22   0.0117   0.0159   0.0098  -0.0126   0.0116  -0.0098   0.00    6.8    3.02915    9.02096   -4.59150   0.00000  0.00000  0.00000  0.00000  0.00000  0.00000
2032 273473.000  -3963205.8625   3350970.7588   3695019.3104   1  22   0.0108   0.0159   0.0098  -0.0118   0.0115  -0.0093   0.00    7.4    3.17179    9.02579   -5.15440   0.00000  0.00000  0.00000  0.00000  0.00000  0.00000
2032 273474.000  -3963202.6791   3350980.4343   3695014.3132   1  22   0.0105   0.0150   0.0093  -0.0113   0.0109  -0.0089   0.00    8.3    3.33353    9.80803   -5.14549   0.00000  0.00000  0.00000  0.00000  0.00000  0.00000
2032 273475.000  -3963199.3104   3350990.5096   3695009.1415   1  22   0.0100   0.0146   0.0090  -0.0112   0.0106  -0.0088   0.00    8.8    3.22860   10.62773   -5.03905   0.00000  0.00000  0.00000  0.00000  0.00000  0.00000
2032 273476.000  -3963195.7866   3351000.8568   3695003.8120   1  22   0.0101   0.0144   0.0090  -0.0110   0.0103  -0.0089   0.00    9.5    3.59664   10.33239   -5.40979   0.00000  0.00000  0.00000  0.00000  0.00000  0.00000
2032 273477.000  -3963192.2202   3351011.2981   3694998.3636   1  25   0.0098   0.0139   0.0089  -0.0105   0.0100  -0.0084   0.00    7.7    3.61843   10.34906   -5.60979   0.00000  0.00000  0.00000  0.00000  0.00000  0.00000
2032 273478.000  -3963188.6277   3351021.7975   3694992.8830   1  25   0.0088   0.0126   0.0082  -0.0096   0.0091  -0.0075   0.00    8.7    3.60538   10.50133   -5.53360   0.00000  0.00000  0.00000  0.00000  0.00000  0.00000
2032 273479.000  -3963185.0642   3351032.5154   3694987.3320   1  27   0.0085   0.0122   0.0079  -0.0092   0.0088  -0.0075   0.00    9.8    3.52783   10.84471   -5.52946   0.00000  0.00000  0.00000  0.00000  0.00000  0.00000
2032 273480.000  -3963181.5139   3351043.4125   3694981.6740   1  27   0.0081   0.0110   0.0071  -0.0085   0.0078  -0.0069   0.00   10.8    3.43551   11.02206   -5.56390   0.00000  0.00000  0.00000  0.00000  0.00000  0.00000
2032 273481.000  -3963177.9821   3351054.0632   3694976.1319   1  27   0.0082   0.0106   0.0070  -0.0082   0.0073  -0.0066   0.00   12.0    3.45332   10.53714   -5.45240   0.00000  0.00000  0.00000  0.00000  0.00000  0.00000
2032 273482.000  -3963174.9413   3351064.7046   3694971.0600   2  26   0.0762   0.0937   0.0645  -0.0711   0.0602  -0.0602   0.00    2.3    3.37697   10.31141   -5.33495   0.00000  0.00000  0.00000  0.00000  0.00000  0.00000
2032 273483.000  -3963171.6135   3351074.8244   3694965.6852   2  26   0.0757   0.0931   0.0641  -0.0707   0.0599  -0.0598   0.00    2.5    3.25583   10.01305   -5.25791   0.00000  0.00000  0.00000  0.00000  0.00000  0.00000
2032 273484.000  -3963168.3367   3351084.6654   3694960.5016   2  26   0.0753   0.0926   0.0637  -0.0703   0.0595  -0.0594   0.00    3.0    3.29427    9.69957   -5.08222   0.00000  0.00000  0.00000  0.00000  0.00000  0.00000
2032 273485.000  -3963164.7258   3351094.0823   3694955.1077   1  26   0.0081   0.0094   0.0065  -0.0075   0.0063  -0.0062   0.00    3.1    3.23956    9.55295   -5.02871   0.00000  0.00000  0.00000  0.00000  0.00000  0.00000
2032 273486.000  -3963161.4589   3351103.6728   3694950.0422   1  26   0.0081   0.0094   0.0062  -0.0074   0.0064  -0.0065   0.00    3.4    3.29509    9.65356   -5.12018   0.00000  0.00000  0.00000  0.00000  0.00000  0.00000
2032 273487.000  -3963158.0935   3351113.5104   3694944.8358   1  26   0.0080   0.0094   0.0067  -0.0075   0.0063  -0.0061   0.00    3.6    3.40478    9.99058   -5.30588   0.00000  0.00000  0.00000  0.00000  0.00000  0.00000
2032 273488.000  -3963154.6584   3351123.5859   3694939.4425   1  26   0.0078   0.0094   0.0065  -0.0075   0.0062  -0.0061   0.00    3.9    3.51524   10.12819   -5.36452   0.00000  0.00000  0.00000  0.00000  0.00000  0.00000
2032 273489.000  -3963151.2019   3351133.5241   3694934.1153   1  25   0.0082   0.0095   0.0067  -0.0074   0.0063  -0.0061   0.00    4.1    3.34448    9.68702   -5.16535   0.00000  0.00000  0.00000  0.00000  0.00000  0.00000
2032 273490.000  -3963147.9404   3351142.9015   3694929.0737   1  24   0.0080   0.0095   0.0066  -0.0075   0.0063  -0.0061   0.00    4.6    3.23109    9.29628   -5.04684   0.00000  0.00000  0.00000  0.00000  0.00000  0.00000
2032 273491.000  -3963144.7582   3351152.1115   3694924.0517   1  24   0.0080   0.0095   0.0067  -0.0074   0.0063  -0.0063   0.00    4.9    3.15352    9.15618   -4.99690   0.00000  0.00000  0.00000  0.00000  0.00000  0.00000
2032 273492.000  -3963141.6147   3351161.1655   3694919.0749   1  21   0.0107   0.0133   0.0079  -0.0108   0.0087  -0.0082   0.00   11.7    3.15288    9.01082   -4.87052   0.00000  0.00000  0.00000  0.00000  0.00000  0.00000
2032 273493.000  -3963138.3923   3351170.2220   3694914.1533   1  21   0.0106   0.0127   0.0078  -0.0105   0.0085  -0.0081   0.00   12.3    3.48784    9.01946   -5.01474   0.00000  0.00000  0.00000  0.00000  0.00000  0.00000
2032 273494.000  -3963134.9972   3351179.5469   3694909.0928   1  22   0.0106   0.0125   0.0079  -0.0103   0.0085  -0.0082   0.00   12.9    3.47951    9.53083   -5.24335   0.00000  0.00000  0.00000  0.00000  0.00000  0.00000
2032 273495.000  -3963131.4671   3351189.2740   3694903.7784   1  22   0.0099   0.0119   0.0074  -0.0098   0.0081  -0.0078   0.00   13.7    3.60452    9.93574   -5.50169   0.00000  0.00000  0.00000  0.00000  0.00000  0.00000
2032 273496.000  -3963127.7831   3351199.3971   3694898.2855   1  22   0.0096   0.0118   0.0076  -0.0095   0.0080  -0.0077   0.00   14.4    3.66792   10.32561   -5.52958   0.00000  0.00000  0.00000  0.00000  0.00000  0.00000
2032 273497.000  -3963124.0025   3351209.7842   3694892.6445   1  22   0.0112   0.0144   0.0091  -0.0117   0.0106  -0.0093   0.00   19.2    3.69076   10.50532   -5.57240   0.00000  0.00000  0.00000  0.00000  0.00000  0.00000
2032 273498.000  -3963120.1115   3351220.0918   3694886.8872   1  21   0.0106   0.0141   0.0090  -0.0112   0.0102  -0.0090   0.00   22.2    3.91670   10.31662   -5.78594   0.00000  0.00000  0.00000  0.00000  0.00000  0.00000
2032 273499.000  -3963116.3106   3351230.5439   3694881.2196   1  24   0.0100   0.0136   0.0089  -0.0105   0.0098  -0.0084   0.00   11.4    3.83089   10.55936   -5.60006   0.00000  0.00000  0.00000  0.00000  0.00000  0.00000
2032 273500.000  -3963112.5375   3351241.0152   3694875.3613   1  23   0.0093   0.0123   0.0079  -0.0097   0.0087  -0.0076   0.00   13.3    3.86914   10.39560   -5.94292   0.00000  0.00000  0.00000  0.00000  0.00000  0.00000
2032 273501.000  -3963108.7218   3351251.6075   3694869.5545   1  22   0.0108   0.0131   0.0083  -0.0108   0.0092  -0.0084   0.00   25.6    3.69985   10.57766   -5.86537   0.00000  0.00000  0.00000  0.00000  0.00000  0.00000
2032 273502.000  -3963104.9455   3351262.1359   3694863.7632   1  18   0.0126   0.0140   0.0083  -0.0118   0.0096  -0.0089   0.00   17.5    3.74654   10.54941   -5.86062   0.00000  0.00000  0.00000  0.00000  0.00000  0.00000
2032 273503.000  -3963101.1575   3351272.7852   3694857.9270   1  18   0.0126   0.0140   0.0091  -0.0119   0.0099  -0.0091   0.00   17.6    3.76972   10.65238   -5.73265   0.00000  0.00000  0.00000  0.00000  0.00000  0.00000
2032 273504.000  -3963097.3988   3351283.4943   3694851.9556   1  17   0.0133   0.0163   0.0107  -0.0132   0.0121  -0.0103   0.00   17.4    3.76498   10.86451   -5.72550   0.00000  0.00000  0.00000  0.00000  0.00000  0.00000
2032 273505.000  -3963093.6375   3351294.2453   3694846.0373   1  20   0.0133   0.0160   0.0114  -0.0131   0.0121  -0.0107   0.00   18.6    3.64240   10.78937   -5.76580   0.00000  0.00000  0.00000  0.00000  0.00000  0.00000
2032 273506.000  -3963089.7235   3351305.1844   3694840.0261   1  15   0.0210   0.0249   0.0141  -0.0210   0.0167  -0.0147   0.00    7.4    3.85485   11.19699   -5.95414   0.00000  0.00000  0.00000  0.00000  0.00000  0.00000
2032 273507.000  -3963085.6649   3351316.4686   3694833.8883   1  19   0.0215   0.0277   0.0154  -0.0227   0.0190  -0.0164   0.00    7.3    4.10096   11.44243   -6.20789   0.00000  0.00000  0.00000  0.00000  0.00000  0.00000
2032 273508.000  -3963081.5617   3351327.9870   3694827.7602   1  18   0.0199   0.0255   0.0145  -0.0210   0.0176  -0.0153   0.00    7.3    4.20568   11.64379   -6.11957   0.00000  0.00000  0.00000  0.00000  0.00000  0.00000
2032 273509.000  -3963077.4984   3351339.6051   3694821.5505   1  18   0.0190   0.0243   0.0139  -0.0201   0.0170  -0.0147   0.00    7.4    3.90848   11.58901   -6.19310   0.00000  0.00000  0.00000  0.00000  0.00000  0.00000
2032 273510.000  -3963073.9138   3351351.2988   3694815.7402   2  19   0.0701   0.0861   0.0582  -0.0661   0.0562  -0.0549   0.00    2.9    3.91871   11.34828   -6.11732   0.00000  0.00000  0.00000  0.00000  0.00000  0.00000
2032 273511.000  -3963069.6133   3351362.3840   3694809.3751   1  21   0.0117   0.0140   0.0098  -0.0114   0.0104  -0.0099   0.00    4.4    3.91622   11.25516   -5.96261   0.00000  0.00000  0.00000  0.00000  0.00000  0.00000
2032 273512.000  -3963065.7002   3351373.6769   3694803.3812   1  21   0.0103   0.0124   0.0092  -0.0100   0.0092  -0.0087   0.00    7.7    3.96056   11.35745   -5.99619   0.00000  0.00000  0.00000  0.00000  0.00000  0.00000
2032 273513.000  -3963061.8234   3351384.9544   3694797.2790   1  19   0.0101   0.0137   0.0110  -0.0101   0.0108  -0.0090   0.00    8.0    3.81829   11.30101   -6.08609   0.00000  0.00000  0.00000  0.00000  0.00000  0.00000
2032 273514.000  -3963057.9364   3351396.2618   3694791.2118   1  19   0.0097   0.0136   0.0108  -0.0097   0.0106  -0.0086   0.00    8.5    3.88539   11.34238   -6.03338   0.00000  0.00000  0.00000  0.00000  0.00000  0.00000
2032 273515.000  -3963054.0469   3351407.5558   3694785.2314   1  20   0.0091   0.0133   0.0105  -0.0092   0.0104  -0.0081   0.00    9.8    3.85574   11.26355   -5.88036   0.00000  0.00000  0.00000  0.00000  0.00000  0.00000
2032 273516.000  -3963050.0854   3351418.8910   3694779.2815   1  20   0.0087   0.0125   0.0099  -0.0088   0.0096  -0.0077   0.00    9.2    4.02676   11.43179   -5.93727   0.00000  0.00000  0.00000  0.00000  0.00000  0.00000
2032 273517.000  -3963046.0742   3351430.3419   3694773.3254   1  21   0.0091   0.0123   0.0098  -0.0087   0.0094  -0.0076   0.00    9.3    3.99260   11.47106   -5.86315   0.00000  0.00000  0.00000  0.00000  0.00000  0.00000
2032 273518.000  -3963042.0176   3351441.6705   3694767.4424   1  18   0.0094   0.0122   0.0100  -0.0089   0.0095  -0.0079   0.00    9.9    4.02660   11.26482   -5.82481   0.00000  0.00000  0.00000  0.00000  0.00000  0.00000
2032 273519.000  -3963038.1959   3351452.8146   3694761.5718   1  15   0.0095   0.0123   0.0104  -0.0090   0.0097  -0.0080   0.00    9.5    3.81407   11.04445   -5.89131   0.00000  0.00000  0.00000  0.00000  0.00000  0.00000
2032 273520.000  -3963034.3716   3351463.8948   3694755.6899   1  15   0.0095   0.0120   0.0102  -0.0088   0.0095  -0.0079   0.00    9.8    3.86658   11.11703   -5.80773   0.00000  0.00000  0.00000  0.00000  0.00000  0.00000
2032 273521.000  -3963031.2909   3351475.3758   3694750.3533   2   5   1.3705   0.3797   0.1752  -0.7143   0.2478  -0.4640   0.00    2.3    4.06455   11.00803   -5.98752   0.00000  0.00000  0.00000  0.00000  0.00000  0.00000
2032 273524.000  -3963017.7447   3351506.6413   3694732.9015   2   7   1.6344   2.0391   1.6839  -1.7024   1.7034  -1.4985   0.00    0.0    4.08870   10.31101   -5.43444   0.00000  0.00000  0.00000  0.00000  0.00000  0.00000
2032 273525.000  -3963014.0822   3351517.3337   3694728.2133   2   7   1.1658   1.4519   1.2020  -1.2126   1.2151  -1.0693   0.00    0.0    3.97251   10.53609   -5.29858   0.00000  0.00000  0.00000  0.00000  0.00000  0.00000
2032 273526.000  -3963010.1961   3351527.9122   3694722.9523   2   7   0.9545   1.1881   0.9844  -0.9924   0.9950  -0.8757   0.00    0.0    3.82551   10.74401   -5.27402   0.00000  0.00000  0.00000  0.00000  0.00000  0.00000
2032 273527.000  -3963006.1079   3351538.4043   3694717.4642   2   9   0.8260   1.0284   0.8356  -0.8586   0.8572  -0.7531   0.00    0.0    4.03333   10.77984   -5.41316   0.00000  0.00000  0.00000  0.00000  0.00000  0.00000
2032 273528.000  -3963002.1551   3351549.0376   3694711.7573   2   9   0.7385   0.9196   0.7398  -0.7676   0.7647  -0.6713   0.00    0.0    3.77241   10.79493   -5.57209   0.00000  0.00000  0.00000  0.00000  0.00000  0.00000
2032 273529.000  -3962998.7893   3351560.1553   3694706.5231   2  16   0.6100   0.7169   0.5594  -0.6082   0.5714  -0.5187   0.00    1.4    3.65942   10.63567   -5.66539   0.00000  0.00000  0.00000  0.00000  0.00000  0.00000
2032 273530.000  -3962995.5487   3351571.3679   3694701.2971   2  15   0.5412   0.6170   0.4717  -0.5289   0.4795  -0.4438   0.00    1.2    3.43192   10.82056   -5.57688   0.00000  0.00000  0.00000  0.00000  0.00000  0.00000
2032 273531.000  -3962992.0735   3351582.0598   3694695.7987   2  20   0.4858   0.5463   0.3955  -0.4704   0.4100  -0.3846   0.00    1.2    3.67911   10.38443   -5.50329   0.00000  0.00000  0.00000  0.00000  0.00000  0.00000
2032 273532.000  -3962988.3319   3351592.3468   3694690.2020   2  22   0.4383   0.4943   0.3455  -0.4242   0.3627  -0.3415   0.00    1.5    3.65419   10.17209   -5.40851   0.00000  0.00000  0.00000  0.00000  0.00000  0.00000
2032 273533.000  -3962984.9791   3351602.5267   3694685.0385   2  22   0.4026   0.4660   0.3195  -0.3949   0.3402  -0.3160   0.00    1.3    3.47763    9.64567   -5.11038   0.00000  0.00000  0.00000  0.00000  0.00000  0.00000
2032 273534.000  -3962981.4874   3351611.2605   3694679.7217   1  20   0.0135   0.0167   0.0106  -0.0139   0.0125  -0.0109   0.00    4.5    2.95017    8.76531   -4.44867   0.00000  0.00000  0.00000  0.00000  0.00000  0.00000
2032 273535.000  -3962978.3557   3351619.6964   3694675.3755   1  23   0.0133   0.0164   0.0105  -0.0138   0.0121  -0.0107   0.00    9.3    3.16654    8.34887   -4.07477   0.00000  0.00000  0.00000  0.00000  0.00000  0.00000
2032 273536.000  -3962975.1732   3351627.8629   3694671.4669   1  22   0.0118   0.0137   0.0088  -0.0117   0.0100  -0.0094   0.00   14.7    3.13856    8.11783   -3.64007   0.00000  0.00000  0.00000  0.00000  0.00000  0.00000
2032 273537.000  -3962971.9055   3351635.5279   3694668.0339   1  20   0.0116   0.0129   0.0084  -0.0110   0.0092  -0.0086   0.00   13.8    3.21173    7.31246   -3.14967   0.00000  0.00000  0.00000  0.00000  0.00000  0.00000
2032 273538.000  -3962968.8715   3351642.6201   3694664.8789   1  20   0.0124   0.0137   0.0089  -0.0115   0.0090  -0.0083   0.00   10.3    2.97616    6.87058   -3.08663   0.00000  0.00000  0.00000  0.00000  0.00000  0.00000
2032 273539.000  -3962966.1422   3351649.1800   3694661.8430   1  20   0.0115   0.0130   0.0085  -0.0110   0.0088  -0.0083   0.00    9.7    2.52524    6.27639   -2.94488   0.00000  0.00000  0.00000  0.00000  0.00000  0.00000
2032 273540.000  -3962963.8296   3351655.0888   3694658.9403   1  20   0.0105   0.0111   0.0076  -0.0094   0.0075  -0.0073   0.00    7.8    2.07850    5.55090   -2.79102   0.00000  0.00000  0.00000  0.00000  0.00000  0.00000
2032 273541.000  -3962962.0350   3351659.9668   3694656.4174   1  22   0.0103   0.0110   0.0073  -0.0093   0.0074  -0.0074   0.00    7.7    1.53075    4.28570   -2.20468   0.00000  0.00000  0.00000  0.00000  0.00000  0.00000
2032 273542.000  -3962960.7396   3351663.6107   3694654.4995   1  21   0.0102   0.0110   0.0075  -0.0094   0.0074  -0.0076   0.00    7.3    1.05214    3.14363   -1.64537   0.00000  0.00000  0.00000  0.00000  0.00000  0.00000
2032 273543.000  -3962959.8197   3351666.2226   3694653.0956   1  23   0.0100   0.0108   0.0073  -0.0092   0.0076  -0.0077   0.00    5.8    0.74919    2.07075   -1.13888   0.00000  0.00000  0.00000  0.00000  0.00000  0.00000
2032 273544.000  -3962959.3027   3351667.7217   3694652.2835   1  24   0.0096   0.0104   0.0071  -0.0089   0.0071  -0.0073   0.00    5.6    0.21072    0.96979   -0.43683   0.00000  0.00000  0.00000  0.00000  0.00000  0.00000
2032 273545.000  -3962959.1221   3351668.2421   3694651.9996   1  24   0.0094   0.0102   0.0070  -0.0086   0.0069  -0.0070   0.00    5.7    0.04252    0.16786   -0.08749   0.00000  0.00000  0.00000  0.00000  0.00000  0.00000
2032 273546.000  -3962959.0316   3351668.5132   3694651.8596   1  24   0.0094   0.0101   0.0069  -0.0085   0.0069  -0.0068   0.00    6.0    0.09917    0.28788   -0.14655   0.00000  0.00000  0.00000  0.00000  0.00000  0.00000
2032 273547.000  -3962958.9535   3351668.7391   3694651.7331   1  24   0.0093   0.0100   0.0065  -0.0084   0.0069  -0.0068   0.00    5.8    0.06420    0.11749   -0.09427   0.00000  0.00000  0.00000  0.00000  0.00000  0.00000
2032 273548.000  -3962958.8906   3351668.9183   3694651.6339   1  24   0.0091   0.0100   0.0064  -0.0083   0.0066  -0.0066   0.00    5.8    0.01765    0.11595   -0.03831   0.00000  0.00000  0.00000  0.00000  0.00000  0.00000
2032 273549.000  -3962958.8853   3351668.9217   3694651.6267   1  25   0.0090   0.0098   0.0065  -0.0083   0.0067  -0.0066   0.00    5.9    0.00541    0.01032    0.00299   0.00000  0.00000  0.00000  0.00000  0.00000  0.00000
2032 273550.000  -3962958.8849   3351668.9208   3694651.6254   1  25   0.0089   0.0097   0.0064  -0.0081   0.0065  -0.0065   0.00    5.9    0.00680   -0.00761   -0.00433   0.00000  0.00000  0.00000  0.00000  0.00000  0.00000
2032 273551.000  -3962958.8417   3351669.0550   3694651.5572   1  24   0.0091   0.0099   0.0068  -0.0083   0.0068  -0.0069   0.00    5.7    0.09624    0.31966   -0.16580   0.00000  0.00000  0.00000  0.00000  0.00000  0.00000
2032 273552.000  -3962958.6639   3351669.5760   3694651.2755   1  24   0.0091   0.0099   0.0069  -0.0082   0.0066  -0.0068   0.00    5.7    0.24144    0.72790   -0.39007   0.00000  0.00000  0.00000  0.00000  0.00000  0.00000
2032 273553.000  -3962958.2030   3351670.9132   3694650.5588   1  25   0.0091   0.0098   0.0067  -0.0083   0.0068  -0.0070   0.00    5.5    0.73200    2.05973   -1.11011   0.00000  0.00000  0.00000  0.00000  0.00000  0.00000
2032 273554.000  -3962957.3330   3351673.4145   3694649.2312   1  25   0.0088   0.0098   0.0066  -0.0081   0.0067  -0.0066   0.00    5.4    1.08969    3.15186   -1.63418   0.00000  0.00000  0.00000  0.00000  0.00000  0.00000
2032 273555.000  -3962956.0276   3351677.0698   3694647.2943   1  25   0.0086   0.0098   0.0069  -0.0081   0.0066  -0.0066   0.00    5.2    1.43017    4.07251   -2.13324   0.00000  0.00000  0.00000  0.00000  0.00000  0.00000
2032 273556.000  -3962954.4726   3351681.3935   3694645.0027   1  25   0.0087   0.0097   0.0067  -0.0081   0.0064  -0.0065   0.00    5.5    1.65068    4.72561   -2.47896   0.00000  0.00000  0.00000  0.00000  0.00000  0.00000
2032 273557.000  -3962952.6494   3351686.5457   3694642.2895   1  25   0.0086   0.0098   0.0066  -0.0080   0.0065  -0.0065   0.00    5.7    1.92912    5.56893   -2.94407   0.00000  0.00000  0.00000  0.00000  0.00000  0.00000
2032 273558.000  -3962950.6674   3351692.2618   3694639.2871   1  25   0.0093   0.0107   0.0069  -0.0090   0.0070  -0.0070   0.00    5.0    1.98864    5.83706   -3.04272   0.00000  0.00000  0.00000  0.00000  0.00000  0.00000
2032 273559.000  -3962948.7317   3351698.0743   3694636.2213   1  23   0.0098   0.0108   0.0068  -0.0092   0.0072  -0.0075   0.00    7.4    1.85765    5.78230   -3.04158   0.00000  0.00000  0.00000  0.00000  0.00000  0.00000
2032 273560.000  -3962946.8402   3351703.8520   3694633.1756   1  22   0.0098   0.0107   0.0073  -0.0091   0.0074  -0.0073   0.00    7.8    1.89615    5.82346   -3.09721   0.00000  0.00000  0.00000  0.00000  0.00000  0.00000
2032 273561.000  -3962944.9417   3351709.7922   3694630.0409   1  21   0.0100   0.0107   0.0076  -0.0091   0.0072  -0.0077   0.00    5.0    1.82542    5.85761   -3.04205   0.00000  0.00000  0.00000  0.00000  0.00000  0.00000
2032 273562.000  -3962943.1950   3351715.4769   3694627.0790   1  16   0.0122   0.0147   0.0109  -0.0121   0.0109  -0.0106   0.00    3.9    1.67530    5.41095   -2.85652   0.00000  0.00000  0.00000  0.00000  0.00000  0.00000
2032 273563.000  -3962941.7147   3351720.9304   3694624.4968   2   9   0.1561   0.1766   0.1228  -0.1465   0.1192  -0.1174   0.00    1.4    1.75356    5.19954   -3.01116   0.00000  0.00000  0.00000  0.00000  0.00000  0.00000
2032 273565.000  -3962937.5075   3351729.7749   3694619.7766   2   7   2.2428   2.9436   2.4690  -2.3785  -2.2334   1.6432   0.00    0.0    2.27594    4.54110   -1.48181   0.00000  0.00000  0.00000  0.00000  0.00000  0.00000
2032 273566.000  -3962935.3336   3351735.1885   3694619.2574   2  11   1.1149   0.9991   0.8498  -0.8936   0.5967  -0.7582   0.00    0.0    3.19638    4.21445   -0.24871   0.00000  0.00000  0.00000  0.00000  0.00000  0.00000
2032 273567.000  -3962931.9364   3351739.0325   3694619.4165   2   9   1.0207   0.7952   0.6937  -0.7480   0.5533  -0.7346   0.00    0.0    3.90063    3.32449    0.26870   0.00000  0.00000  0.00000  0.00000  0.00000  0.00000
2032 273568.000  -3962929.3762   3351743.9970   3694616.6767   2   4   6.1044   9.9223  27.7367   7.4323 -16.5347 -12.6669   0.00    0.0    4.55543    2.11814    0.55502   0.00000  0.00000  0.00000  0.00000  0.00000  0.00000
2032 273571.000  -3962917.2414   3351746.7059   3694628.0125   2   8   1.6112   2.4739   1.4440  -1.8534   1.7200  -1.4368   0.00    0.0    3.00884    0.97677    2.62548   0.00000  0.00000  0.00000  0.00000  0.00000  0.00000
2032 273572.000  -3962914.0904   3351747.5228   3694630.3580   2   9   1.1464   1.6968   1.0406  -1.2985   1.2221  -1.0133   0.00    0.0    2.62529    0.54749    2.37728   0.00000  0.00000  0.00000  0.00000  0.00000  0.00000
2032 273573.000  -3962912.3955   3351748.3825   3694632.5282   2  20   0.8096   1.1193   0.7052  -0.8831   0.8148  -0.6983   0.00    0.0    1.45170    0.17593    1.25135   0.00000  0.00000  0.00000  0.00000  0.00000  0.00000
2032 273574.000  -3962911.3207   3351748.0209   3694633.1522   2  17   0.6856   0.9810   0.6057  -0.7604   0.7121  -0.5950   0.00    0.0    0.53808    0.11182    0.49564   0.00000  0.00000  0.00000  0.00000  0.00000  0.00000
2032 273575.000  -3962910.9859   3351748.0100   3694633.4837   2  16   0.6062   0.8856   0.5414  -0.6790   0.6416  -0.5287   0.00   14.5    0.22146    0.00988    0.21189   0.00000  0.00000  0.00000  0.00000  0.00000  0.00000
2032 273576.000  -3962910.9156   3351747.8297   3694633.3234   2  17   0.5454   0.7929   0.4833  -0.6096   0.5725  -0.4736   0.00    1.1   -0.06142   -0.01830   -0.06249   0.00000  0.00000  0.00000  0.00000  0.00000  0.00000
2032 273577.000  -3962911.0283   3351747.8717   3694633.2892   2  17   0.4999   0.7246   0.4407  -0.5580   0.5219  -0.4328   0.00    1.2   -0.01378   -0.02448    0.00506   0.00000  0.00000  0.00000  0.00000  0.00000  0.00000
2032 273578.000  -3962910.4892   3351747.7939   3694633.0920   1  17   0.0130   0.0192   0.0113  -0.0146   0.0137  -0.0111   0.00    3.4    0.02155   -0.04299   -0.02346   0.00000  0.00000  0.00000  0.00000  0.00000  0.00000
2032 273579.000  -3962910.4895   3351747.7914   3694633.0924   1  18   0.0129   0.0189   0.0113  -0.0145   0.0135  -0.0111   0.00    3.3    0.01028   -0.01032    0.00299   0.00000  0.00000  0.00000  0.00000  0.00000  0.00000
2032 273580.000  -3962910.4839   3351747.7882   3694633.0891   1  18   0.0128   0.0186   0.0111  -0.0144   0.0134  -0.0110   0.00    3.6   -0.00600    0.00609    0.00956   0.00000  0.00000  0.00000  0.00000  0.00000  0.00000
2032 273581.000  -3962910.4891   3351747.7804   3694633.0892   1  18   0.0127   0.0181   0.0109  -0.0141   0.0128  -0.0108   0.00    4.8    0.00971    0.02005   -0.02875   0.00000  0.00000  0.00000  0.00000  0.00000  0.00000
2032 273582.000  -3962910.4855   3351747.7772   3694633.0879   1  18   0.0133   0.0211   0.0123  -0.0155   0.0151  -0.0118   0.00    3.6    0.02017   -0.05886   -0.02616   0.00000  0.00000  0.00000  0.00000  0.00000  0.00000
2032 273583.000  -3962910.4848   3351747.7852   3694633.0884   1  18   0.0132   0.0211   0.0122  -0.0155   0.0151  -0.0119   0.00    3.5   -0.00734    0.01314    0.00793   0.00000  0.00000  0.00000  0.00000  0.00000  0.00000
2032 273584.000  -3962910.4905   3351747.7901   3694633.0923   1  18   0.0132   0.0211   0.0122  -0.0155   0.0151  -0.0119   0.00    3.6   -0.00702    0.02509    0.00820   0.00000  0.00000  0.00000  0.00000  0.00000  0.00000
2032 273585.000  -3962910.4884   3351747.7860   3694633.0917   1  19   0.0132   0.0210   0.0123  -0.0155   0.0151  -0.0119   0.00    3.5   -0.00416    0.00381    0.00355   0.00000  0.00000  0.00000  0.00000  0.00000  0.00000
2032 273586.000  -3962910.4881   3351747.7853   3694633.0887   1  19   0.0129   0.0195   0.0115  -0.0148   0.0139  -0.0113   0.00    5.0    0.00794   -0.03916   -0.01509   0.00000  0.00000  0.00000  0.00000  0.00000  0.00000
2032 273587.000  -3962910.4900   3351747.7934   3694633.0959   1  18   0.0129   0.0190   0.0112  -0.0145   0.0135  -0.0111   0.00    5.0    0.00182   -0.03594   -0.00827   0.00000  0.00000  0.00000  0.00000  0.00000  0.00000
2032 273588.000  -3962910.4857   3351747.7840   3694633.0917   1  18   0.0128   0.0188   0.0110  -0.0144   0.0133  -0.0110   0.00    4.9   -0.01266    0.02477    0.01994   0.00000  0.00000  0.00000  0.00000  0.00000  0.00000
2032 273589.000  -3962910.4938   3351747.7949   3694633.1003   1  19   0.0127   0.0186   0.0109  -0.0143   0.0132  -0.0110   0.00    5.6    0.00254    0.00236    0.00184   0.00000  0.00000  0.00000  0.00000  0.00000  0.00000
2032 273590.000  -3962910.4935   3351747.7878   3694633.0971   1  20   0.0115   0.0157   0.0093  -0.0123   0.0108  -0.0095   0.00    5.0   -0.00805    0.00941    0.02071   0.00000  0.00000  0.00000  0.00000  0.00000  0.00000
2032 273591.000  -3962910.4905   3351747.7820   3694633.0946   1  20   0.0112   0.0148   0.0088  -0.0117   0.0101  -0.0090   0.00    4.1    0.00521   -0.15054    0.03999   0.00000  0.00000  0.00000  0.00000  0.00000  0.00000
2032 273592.000  -3962910.4952   3351747.7900   3694633.0995   1  21   0.0109   0.0144   0.0083  -0.0113   0.0096  -0.0086   0.00    3.4    0.00034   -0.01231    0.01115   0.00000  0.00000  0.00000  0.00000  0.00000  0.00000
2032 273593.000  -3962913.2519   3351751.5801   3694635.1562   2  21   0.2447   0.3393   0.2022  -0.2640   0.2372  -0.2031   0.00    2.9   -0.00964    0.02289    0.01355   0.00000  0.00000  0.00000  0.00000  0.00000  0.00000
2032 273594.000  -3962913.4980   3351751.9714   3694635.4120   2  21   0.2369   0.3266   0.1945  -0.2544   0.2276  -0.1956   0.00    1.8    0.01113   -0.00535   -0.00159   0.00000  0.00000  0.00000  0.00000  0.00000  0.00000
2032 273595.000  -3962913.6737   3351752.2743   3694635.5947   2  21   0.2298   0.3153   0.1876  -0.2458   0.2190  -0.1889   0.00    2.0    0.01134   -0.04012   -0.01548   0.00000  0.00000  0.00000  0.00000  0.00000  0.00000
2032 273596.000  -3962913.8081   3351752.4957   3694635.7178   2  21   0.2234   0.3051   0.1814  -0.2380   0.2113  -0.1828   0.00    2.1   -0.00241    0.00533    0.01518   0.00000  0.00000  0.00000  0.00000  0.00000  0.00000
2032 273597.000  -3962913.8822   3351752.6124   3694635.7983   2  21   0.2174   0.2958   0.1757  -0.2310   0.2043  -0.1773   0.00    2.1    0.02472   -0.03341   -0.01769   0.00000  0.00000  0.00000  0.00000  0.00000  0.00000
2032 273598.000  -3962913.9027   3351752.6569   3694635.8160   2  21   0.2119   0.2873   0.1705  -0.2245   0.1979  -0.1722   0.00    2.3    0.00563    0.03285   -0.02184   0.00000  0.00000  0.00000  0.00000  0.00000  0.00000
2032 273599.000  -3962913.9097   3351752.6711   3694635.8259   2  21   0.2069   0.2795   0.1657  -0.2185   0.1921  -0.1675   0.00    2.4   -0.00335   -0.02569   -0.00932   0.00000  0.00000  0.00000  0.00000  0.00000  0.00000
2032 273600.000  -3962913.8778   3351752.6657   3694635.8047   2  21   0.2021   0.2722   0.1613  -0.2130   0.1867  -0.1632   0.00    2.4   -0.00085    0.01360    0.00859   0.00000  0.00000  0.00000  0.00000  0.00000  0.00000
2032 273601.000  -3962913.9068   3351752.7083   3694635.8413   2  21   0.1977   0.2655   0.1573  -0.2078   0.1817  -0.1591   0.00    2.4    0.00192   -0.01367    0.00817   0.00000  0.00000  0.00000  0.00000  0.00000  0.00000
2032 273602.000  -3962913.9735   3351752.8190   3694635.9099   2  21   0.1935   0.2592   0.1534  -0.2030   0.1771  -0.1554   0.00    2.4   -0.00977    0.01309    0.02687   0.00000  0.00000  0.00000  0.00000  0.00000  0.00000
2032 273603.000  -3962914.0368   3351752.9358   3694635.9633   2  21   0.1896   0.2534   0.1499  -0.1984   0.1728  -0.1519   0.00    2.4    0.01002   -0.02116   -0.01077   0.00000  0.00000  0.00000  0.00000  0.00000  0.00000
2032 273604.000  -3962914.1014   3351753.0602   3694636.0278   2  21   0.1859   0.2479   0.1465  -0.1942   0.1687  -0.1485   0.00    2.5    0.01130    0.04040    0.03452   0.00000  0.00000  0.00000  0.00000  0.00000  0.00000
2032 273605.000  -3962914.1501   3351753.1560   3694636.0868   2  21   0.1823   0.2427   0.1434  -0.1902   0.1649  -0.1454   0.00    2.5   -0.00952    0.01806    0.02633   0.00000  0.00000  0.00000  0.00000  0.00000  0.00000
2032 273606.000  -3962914.2221   3351753.2891   3694636.1619   2  21   0.1790   0.2378   0.1404  -0.1864   0.1613  -0.1425   0.00    2.4    0.00075   -0.00222    0.00577   0.00000  0.00000  0.00000  0.00000  0.00000  0.00000
2032 273607.000  -3962914.3103   3351753.4584   3694636.2589   2  21   0.1758   0.2332   0.1376  -0.1828   0.1579  -0.1397   0.00    2.3    0.00781   -0.01303    0.00846   0.00000  0.00000  0.00000  0.00000  0.00000  0.00000
2032 273608.000  -3962914.3943   3351753.6194   3694636.3396   2  21   0.1728   0.2288   0.1350  -0.1794   0.1548  -0.1370   0.00    2.2    0.00824   -0.03133   -0.00479   0.00000  0.00000  0.00000  0.00000  0.00000  0.00000
2032 273609.000  -3962914.4916   3351753.8107   3694636.4381   2  21   0.1699   0.2246   0.1324  -0.1761   0.1517  -0.1345   0.00    2.0   -0.00816   -0.00868    0.01211   0.00000  0.00000  0.00000  0.00000  0.00000  0.00000
2032 273610.000  -3962914.6182   3351754.0525   3694636.5583   2  21   0.1671   0.2206   0.1300  -0.1730   0.1488  -0.1321   0.00    1.9   -0.01279    0.03701    0.03457   0.00000  0.00000  0.00000  0.00000  0.00000  0.00000
2032 273611.000  -3962914.7707   3351754.3652   3694636.7284   2  19   0.1645   0.2172   0.1279  -0.1701   0.1462  -0.1298   0.00    1.7   -0.00096   -0.00181   -0.00364   0.00000  0.00000  0.00000  0.00000  0.00000  0.00000
2032 273612.000  -3962914.9700   3351754.7673   3694636.9542   2  19   0.1620   0.2138   0.1258  -0.1673   0.1438  -0.1275   0.00    1.5    0.00770    0.00804   -0.00319   0.00000  0.00000  0.00000  0.00000  0.00000  0.00000
2032 273613.000  -3962915.2370   3351755.2854   3694637.2413   2  20   0.1595   0.2104   0.1237  -0.1646   0.1412  -0.1254   0.00    1.2   -0.01394    0.03236    0.02725   0.00000  0.00000  0.00000  0.00000  0.00000  0.00000
2032 273623.000  -3962915.1158   3351755.2159   3694637.1620   2  19   0.1574   0.2082   0.1221  -0.1626   0.1396  -0.1238   0.00    1.3    0.01148   -0.03323   -0.00946   0.00000  0.00000  0.00000  0.00000  0.00000  0.00000
2032 273624.000  -3962914.9721   3351754.9698   3694637.0098   2  19   0.1552   0.2057   0.1205  -0.1604   0.1379  -0.1221   0.00    1.4    0.01916   -0.03034   -0.01108   0.00000  0.00000  0.00000  0.00000  0.00000  0.00000
2032 273625.000  -3962914.8371   3351754.7533   3694636.8736   2  19   0.1532   0.2033   0.1189  -0.1584   0.1362  -0.1204   0.00    1.5   -0.00142    0.00082    0.00794   0.00000  0.00000  0.00000  0.00000  0.00000  0.00000
2032 273626.000  -3962914.7033   3351754.5408   3694636.7501   2  19   0.1511   0.2010   0.1174  -0.1564   0.1345  -0.1188   0.00    1.5    0.02335   -0.01751   -0.01403   0.00000  0.00000  0.00000  0.00000  0.00000  0.00000
2032 273627.000  -3962914.5900   3351754.3389   3694636.6356   2  19   0.1492   0.1988   0.1160  -0.1544   0.1329  -0.1173   0.00    1.1    0.01613   -0.01732   -0.01071   0.00000  0.00000  0.00000  0.00000  0.00000  0.00000
2032 273628.000  -3962914.4612   3351754.1336   3694636.5239   2  19   0.1473   0.1966   0.1146  -0.1525   0.1314  -0.1158   0.00    1.3    0.00246    0.01544    0.00888   0.00000  0.00000  0.00000  0.00000  0.00000  0.00000
2032 273629.000  -3962914.3232   3351753.9437   3694636.4030   2  20   0.1454   0.1944   0.1132  -0.1507   0.1299  -0.1143   0.00    1.5    0.02916   -0.03833   -0.00634   0.00000  0.00000  0.00000  0.00000  0.00000  0.00000
2032 273630.000  -3962914.2248   3351753.8011   3694636.3178   2  19   0.1437   0.1923   0.1118  -0.1489   0.1284  -0.1129   0.00    1.7    0.00401   -0.00056    0.00221   0.00000  0.00000  0.00000  0.00000  0.00000  0.00000
2032 273631.000  -3962914.1340   3351753.6605   3694636.2402   2  19   0.1419   0.1903   0.1105  -0.1472   0.1269  -0.1115   0.00    1.7   -0.00422    0.00023    0.00595   0.00000  0.00000  0.00000  0.00000  0.00000  0.00000
2032 273632.000  -3962914.0113   3351753.4772   3694636.1351   2  21   0.1401   0.1878   0.1092  -0.1452   0.1253  -0.1101   0.00    1.8    0.00338    0.01326    0.00822   0.00000  0.00000  0.00000  0.00000  0.00000  0.00000
2032 273633.000  -3962913.9318   3351753.3303   3694636.0555   2  21   0.1384   0.1853   0.1078  -0.1433   0.1237  -0.1087   0.00    1.9    0.00027    0.01443    0.00939   0.00000  0.00000  0.00000  0.00000  0.00000  0.00000
2032 273634.000  -3962913.8690   3351753.2149   3694635.9844   2  21   0.1367   0.1830   0.1065  -0.1414   0.1221  -0.1073   0.00    1.9    0.01682   -0.03467   -0.01765   0.00000  0.00000  0.00000  0.00000  0.00000  0.00000
2032 273635.000  -3962913.7991   3351753.1059   3694635.9122   2  21   0.1350   0.1807   0.1053  -0.1396   0.1206  -0.1059   0.00    2.0   -0.01413    0.02620    0.01748   0.00000  0.00000  0.00000  0.00000  0.00000  0.00000
2032 273636.000  -3962913.7433   3351753.0046   3694635.8521   2  21   0.1334   0.1785   0.1041  -0.1379   0.1192  -0.1046   0.00    2.0   -0.01955    0.01743    0.02654   0.00000  0.00000  0.00000  0.00000  0.00000  0.00000
2032 273637.000  -3962913.6808   3351752.9013   3694635.7843   2  21   0.1319   0.1763   0.1029  -0.1362   0.1177  -0.1034   0.00    2.0    0.02727   -0.03612   -0.01769   0.00000  0.00000  0.00000  0.00000  0.00000  0.00000
2032 273638.000  -3962913.6214   3351752.8225   3694635.7325   2  19   0.1303   0.1745   0.1018  -0.1346   0.1165  -0.1021   0.00    2.3    0.00330    0.00719    0.01289   0.00000  0.00000  0.00000  0.00000  0.00000  0.00000
2032 273639.000  -3962913.5874   3351752.7808   3694635.7046   2  19   0.1289   0.1726   0.1008  -0.1330   0.1152  -0.1010   0.00    2.3    0.03072   -0.04064   -0.02636   0.00000  0.00000  0.00000  0.00000  0.00000  0.00000
2032 273640.000  -3962913.5364   3351752.7063   3694635.6551   2  21   0.1274   0.1707   0.0996  -0.1314   0.1139  -0.0998   0.00    2.3   -0.00087   -0.00496    0.01691   0.00000  0.00000  0.00000  0.00000  0.00000  0.00000
2032 273641.000  -3962913.5013   3351752.6563   3694635.6252   2  20   0.1260   0.1687   0.0985  -0.1299   0.1126  -0.0986   0.00    2.3   -0.02982    0.03368    0.02426   0.00000  0.00000  0.00000  0.00000  0.00000  0.00000
2032 273642.000  -3962913.4607   3351752.6044   3694635.5916   2  21   0.1246   0.1668   0.0975  -0.1284   0.1113  -0.0975   0.00    2.3   -0.00982    0.02389    0.01893   0.00000  0.00000  0.00000  0.00000  0.00000  0.00000
2032 273643.000  -3962913.4265   3351752.5596   3694635.5620   2  19   0.1233   0.1652   0.0965  -0.1270   0.1102  -0.0964   0.00    2.3    0.00258   -0.01267   -0.00453   0.00000  0.00000  0.00000  0.00000  0.00000  0.00000
2032 273644.000  -3962913.4069   3351752.5360   3694635.5473   2  19   0.1220   0.1636   0.0956  -0.1255   0.1091  -0.0953   0.00    2.3    0.01166   -0.01400   -0.00754   0.00000  0.00000  0.00000  0.00000  0.00000  0.00000
2032 273645.000  -3962913.3727   3351752.4898   3694635.5118   2  21   0.1207   0.1618   0.0946  -0.1241   0.1079  -0.0943   0.00    2.3    0.00519   -0.00340    0.00219   0.00000  0.00000  0.00000  0.00000  0.00000  0.00000
2032 273646.000  -3962913.3326   3351752.4342   3694635.4678   2  21   0.1195   0.1600   0.0936  -0.1228   0.1067  -0.0933   0.00    2.3    0.02357   -0.02107   -0.00835   0.00000  0.00000  0.00000  0.00000  0.00000  0.00000
2032 273647.000  -3962913.3156   3351752.3918   3694635.4459   2  21   0.1182   0.1583   0.0926  -0.1214   0.1055  -0.0923   0.00    2.3   -0.00263   -0.02616   -0.00643   0.00000  0.00000  0.00000  0.00000  0.00000  0.00000
2032 273648.000  -3962913.2829   3351752.3578   3694635.4228   2  19   0.1171   0.1569   0.0918  -0.1202   0.1045  -0.0913   0.00    2.3   -0.00103    0.06892   -0.00450   0.00000  0.00000  0.00000  0.00000  0.00000  0.00000
2032 273649.000  -3962913.2733   3351752.3383   3694635.4180   2  19   0.1159   0.1554   0.0909  -0.1189   0.1035  -0.0903   0.00    2.3    0.00448   -0.01422   -0.00591   0.00000  0.00000  0.00000  0.00000  0.00000  0.00000
2032 273650.000  -3962913.2312   3351752.2933   3694635.3898   2  19   0.1147   0.1540   0.0900  -0.1176   0.1025  -0.0894   0.00    2.3    0.01424   -0.01141   -0.01117   0.00000  0.00000  0.00000  0.00000  0.00000  0.00000
2032 273651.000  -3962913.2026   3351752.2575   3694635.3662   2  20   0.1136   0.1524   0.0892  -0.1164   0.1014  -0.0884   0.00    2.3   -0.00617    0.01986    0.01530   0.00000  0.00000  0.00000  0.00000  0.00000  0.00000
2032 273652.000  -3962913.1805   3351752.2346   3694635.3583   2  19   0.1125   0.1511   0.0883  -0.1152   0.1005  -0.0875   0.00    2.3   -0.01317    0.01996    0.02962   0.00000  0.00000  0.00000  0.00000  0.00000  0.00000
