% program   : GINav v0.1.0
% obs start : 2019/12/01 00:00:00.0
% obs end   : 2019/12/01 23:59:30.0
% mode      : PPP Static
% system    : GPS 
% nfreqs    : 2
% elev mask : 10.0 deg
% ephemeris : precise
% ionos opt : iono-free LC
% trops opt : ZTD estimation
%
%  GPST              x-ecef(m)      y-ecef(m)      z-ecef(m)   Q  ns   sdx(m)   sdy(m)   sdz(m)  sdxy(m)  sdyz(m)  sdzx(m) age(s)  ratio    vx(m/s)    vy(m/s)    vz(m/s)      sdvx     sdvy     sdvz    sdvxy    sdvyz    sdvzx
2082      0.000  -2267749.1606   5009150.5279   3221293.2528   6   7   1.7832   3.5263   1.7116  -1.6635   1.8002  -1.0799   0.00    0.0   -0.04246    0.02244    0.03377   0.00000  0.00000  0.00000  0.00000  0.00000  0.00000
2082     30.000  -2267749.6791   5009151.5134   3221293.9072   6   6   1.2898   2.3321   1.1914  -1.1382   1.1952  -0.7933   0.00    0.0   -0.04946    0.06408    0.03894   0.00000  0.00000  0.00000  0.00000  0.00000  0.00000
2082     60.000  -2267749.4961   5009151.7164   3221294.0302   6   7   1.0265   1.7271   0.8992  -0.8545   0.8652  -0.5935   0.00    0.0   -0.02807    0.03917    0.01349   0.00000  0.00000  0.00000  0.00000  0.00000  0.00000
2082     90.000  -2267750.0920   5009152.6277   3221294.1692   6   7   0.8724   1.3495   0.7208  -0.6858   0.6661  -0.4796   0.00    0.0    0.00970    0.02917   -0.00623   0.00000  0.00000  0.00000  0.00000  0.00000  0.00000
2082    120.000  -2267750.2069   5009152.9057   3221294.2127   6   7   0.7686   1.0966   0.6000  -0.5772   0.5400  -0.4075   0.00    0.0   -0.00434   -0.02697   -0.01132   0.00000  0.00000  0.00000  0.00000  0.00000  0.00000
2082    150.000  -2267750.3693   5009153.0503   3221294.2742   6   7   0.6926   0.9199   0.5133  -0.5039   0.4580  -0.3588   0.00    0.0    0.01147    0.03980    0.02193   0.00000  0.00000  0.00000  0.00000  0.00000  0.00000
2082    180.000  -2267750.2913   5009153.3616   3221294.2503   6   7   0.6336   0.7912   0.4481  -0.4514   0.4019  -0.3237   0.00    0.0   -0.00888    0.00039   -0.00432   0.00000  0.00000  0.00000  0.00000  0.00000  0.00000
2082    210.000  -2267750.4958   5009153.5693   3221294.2812   6   7   0.5854   0.6932   0.3969  -0.4114   0.3604  -0.2966   0.00    0.0   -0.00205   -0.00428    0.01357   0.00000  0.00000  0.00000  0.00000  0.00000  0.00000
2082    240.000  -2267750.5984   5009153.7287   3221294.3044   6   6   0.5468   0.6172   0.3563  -0.3800   0.3291  -0.2764   0.00    0.0   -0.02329   -0.03202   -0.00881   0.00000  0.00000  0.00000  0.00000  0.00000  0.00000
2082    270.000  -2267750.5379   5009153.8855   3221294.3259   6   6   0.5131   0.5567   0.3230  -0.3543   0.3043  -0.2591   0.00    0.0    0.02168   -0.03044   -0.00461   0.00000  0.00000  0.00000  0.00000  0.00000  0.00000
2082    300.000  -2267750.6049   5009154.1013   3221294.3541   6   7   0.4828   0.5073   0.2951  -0.3329   0.2838  -0.2440   0.00    0.0   -0.00263   -0.00364   -0.00592   0.00000  0.00000  0.00000  0.00000  0.00000  0.00000
2082    330.000  -2267750.6399   5009154.2580   3221294.3928   6   7   0.4556   0.4658   0.2713  -0.3139   0.2660  -0.2304   0.00    0.0    0.01774    0.01526   -0.02254   0.00000  0.00000  0.00000  0.00000  0.00000  0.00000
2082    360.000  -2267750.6256   5009154.3785   3221294.3844   6   7   0.4309   0.4298   0.2506  -0.2967   0.2500  -0.2180   0.00    0.0    0.01444    0.01241    0.00826   0.00000  0.00000  0.00000  0.00000  0.00000  0.00000
2082    390.000  -2267750.6575   5009154.4187   3221294.3794   6   7   0.4081   0.3980   0.2323  -0.2807   0.2351  -0.2065   0.00    0.0   -0.00284    0.01985    0.00099   0.00000  0.00000  0.00000  0.00000  0.00000  0.00000
2082    420.000  -2267750.6936   5009154.4364   3221294.3847   6   7   0.3872   0.3695   0.2160  -0.2657   0.2210  -0.1957   0.00    0.0    0.00247    0.03511    0.02154   0.00000  0.00000  0.00000  0.00000  0.00000  0.00000
2082    450.000  -2267750.6835   5009154.4368   3221294.3839   6   7   0.3677   0.3436   0.2012  -0.2515   0.2078  -0.1854   0.00    0.0    0.00696    0.01121    0.00869   0.00000  0.00000  0.00000  0.00000  0.00000  0.00000
2082    480.000  -2267750.6881   5009154.4551   3221294.4022   6   7   0.3495   0.3200   0.1878  -0.2382   0.1952  -0.1758   0.00    0.0   -0.00567    0.01770    0.01350   0.00000  0.00000  0.00000  0.00000  0.00000  0.00000
2082    510.000  -2267750.6805   5009154.4727   3221294.4200   6   7   0.3326   0.2985   0.1756  -0.2256   0.1835  -0.1667   0.00    0.0   -0.00877   -0.00224    0.01526   0.00000  0.00000  0.00000  0.00000  0.00000  0.00000
2082    540.000  -2267750.6462   5009154.4920   3221294.4186   6   7   0.3168   0.2788   0.1644  -0.2137   0.1724  -0.1582   0.00    0.0    0.02333   -0.03536   -0.01280   0.00000  0.00000  0.00000  0.00000  0.00000  0.00000
2082    570.000  -2267750.5941   5009154.4871   3221294.4082   6   7   0.3021   0.2608   0.1543  -0.2027   0.1622  -0.1503   0.00    0.0   -0.02800    0.02002    0.02876   0.00000  0.00000  0.00000  0.00000  0.00000  0.00000
2082    600.000  -2267750.5670   5009154.4891   3221294.4079   6   7   0.2884   0.2443   0.1450  -0.1923   0.1526  -0.1428   0.00    0.0   -0.00161   -0.01203   -0.00015   0.00000  0.00000  0.00000  0.00000  0.00000  0.00000
2082    630.000  -2267750.5053   5009154.4693   3221294.4005   6   7   0.2755   0.2293   0.1365  -0.1828   0.1438  -0.1360   0.00    0.0   -0.00283    0.01008    0.00255   0.00000  0.00000  0.00000  0.00000  0.00000  0.00000
2082    660.000  -2267750.4674   5009154.4649   3221294.3984   6   7   0.2636   0.2155   0.1287  -0.1739   0.1357  -0.1296   0.00    0.0   -0.00447   -0.01860   -0.01465   0.00000  0.00000  0.00000  0.00000  0.00000  0.00000
2082    690.000  -2267750.4683   5009154.4958   3221294.3960   6   7   0.2524   0.2030   0.1217  -0.1656   0.1282  -0.1236   0.00    0.0   -0.00037    0.00978    0.00372   0.00000  0.00000  0.00000  0.00000  0.00000  0.00000
2082    720.000  -2267750.4595   5009154.5307   3221294.4009   6   7   0.2419   0.1915   0.1152  -0.1580   0.1214  -0.1182   0.00    0.0   -0.00388    0.00768    0.01461   0.00000  0.00000  0.00000  0.00000  0.00000  0.00000
2082    750.000  -2267750.4179   5009154.5432   3221294.3970   6   7   0.2322   0.1810   0.1092  -0.1509   0.1150  -0.1131   0.00    0.0    0.00472   -0.00413    0.01126   0.00000  0.00000  0.00000  0.00000  0.00000  0.00000
2082    780.000  -2267750.4316   5009154.5840   3221294.4154   6   7   0.2230   0.1714   0.1037  -0.1443   0.1092  -0.1084   0.00    0.0   -0.00005    0.05406    0.02061   0.00000  0.00000  0.00000  0.00000  0.00000  0.00000
2082    810.000  -2267750.4259   5009154.5903   3221294.4177   6   7   0.2145   0.1626   0.0987  -0.1383   0.1039  -0.1041   0.00    0.0    0.00799    0.00251   -0.00264   0.00000  0.00000  0.00000  0.00000  0.00000  0.00000
2082    840.000  -2267750.4129   5009154.5897   3221294.4154   6   7   0.2065   0.1544   0.0941  -0.1326   0.0990  -0.1000   0.00    0.0    0.01015   -0.01111   -0.01212   0.00000  0.00000  0.00000  0.00000  0.00000  0.00000
2082    870.000  -2267750.4170   5009154.6015   3221294.4146   6   7   0.1990   0.1470   0.0898  -0.1274   0.0944  -0.0963   0.00    0.0   -0.00766    0.03879    0.00041   0.00000  0.00000  0.00000  0.00000  0.00000  0.00000
2082    900.000  -2267750.3927   5009154.5812   3221294.4053   6   7   0.1920   0.1401   0.0859  -0.1226   0.0902  -0.0928   0.00    0.0    0.02050   -0.05040   -0.01913   0.00000  0.00000  0.00000  0.00000  0.00000  0.00000
2082    930.000  -2267750.3812   5009154.5685   3221294.4004   6   7   0.1854   0.1337   0.0822  -0.1181   0.0864  -0.0896   0.00    0.0    0.00480   -0.03281   -0.00413   0.00000  0.00000  0.00000  0.00000  0.00000  0.00000
2082    960.000  -2267750.3483   5009154.5330   3221294.3855   6   7   0.1791   0.1279   0.0789  -0.1139   0.0828  -0.0866   0.00    0.0    0.02140   -0.07265   -0.02331   0.00000  0.00000  0.00000  0.00000  0.00000  0.00000
2082    990.000  -2267750.3620   5009154.5457   3221294.3935   6   7   0.1748   0.1245   0.0766  -0.1122   0.0811  -0.0854   0.00    0.0    0.00689   -0.00077   -0.00125   0.00000  0.00000  0.00000  0.00000  0.00000  0.00000
2082   1020.000  -2267750.3520   5009154.5533   3221294.3985   6   7   0.1706   0.1213   0.0745  -0.1107   0.0795  -0.0842   0.00    0.0   -0.00800    0.02998    0.00881   0.00000  0.00000  0.00000  0.00000  0.00000  0.00000
2082   1050.000  -2267750.3567   5009154.5538   3221294.4016   6   7   0.1667   0.1183   0.0726  -0.1091   0.0780  -0.0830   0.00    0.0    0.00604   -0.07179   -0.01787   0.00000  0.00000  0.00000  0.00000  0.00000  0.00000
2082   1080.000  -2267750.3597   5009154.5583   3221294.4042   6   6   0.1631   0.1154   0.0707  -0.1076   0.0765  -0.0820   0.00    0.0    0.00661    0.01635    0.01177   0.00000  0.00000  0.00000  0.00000  0.00000  0.00000
2082   1110.000  -2267750.3642   5009154.5669   3221294.4092   6   7   0.1596   0.1128   0.0690  -0.1062   0.0751  -0.0809   0.00    0.0    0.01527   -0.00073    0.00315   0.00000  0.00000  0.00000  0.00000  0.00000  0.00000
2082   1140.000  -2267750.3600   5009154.5719   3221294.4116   6   7   0.1563   0.1102   0.0674  -0.1048   0.0738  -0.0799   0.00    0.0    0.00005    0.07433    0.03797   0.00000  0.00000  0.00000  0.00000  0.00000  0.00000
2082   1170.000  -2267750.3614   5009154.5836   3221294.4153   6   7   0.1532   0.1078   0.0658  -0.1034   0.0725  -0.0789   0.00    0.0   -0.00893    0.03705    0.01280   0.00000  0.00000  0.00000  0.00000  0.00000  0.00000
2082   1200.000  -2267750.3708   5009154.5904   3221294.4182   6   7   0.1502   0.1054   0.0643  -0.1021   0.0713  -0.0779   0.00    0.0    0.01054   -0.05345   -0.02080   0.00000  0.00000  0.00000  0.00000  0.00000  0.00000
2082   1230.000  -2267750.3841   5009154.6017   3221294.4252   6   7   0.1474   0.1032   0.0629  -0.1008   0.0701  -0.0770   0.00    0.0   -0.00060    0.01634    0.00733   0.00000  0.00000  0.00000  0.00000  0.00000  0.00000
2082   1260.000  -2267750.3905   5009154.6070   3221294.4293   6   7   0.1447   0.1011   0.0616  -0.0995   0.0689  -0.0760   0.00    0.0   -0.00071   -0.01514   -0.00354   0.00000  0.00000  0.00000  0.00000  0.00000  0.00000
2082   1290.000  -2267750.3853   5009154.6043   3221294.4334   6   7   0.1421   0.0990   0.0603  -0.0982   0.0677  -0.0751   0.00    0.0    0.00049   -0.01455   -0.00658   0.00000  0.00000  0.00000  0.00000  0.00000  0.00000
2082   1320.000  -2267750.3793   5009154.6013   3221294.4350   6   7   0.1396   0.0970   0.0590  -0.0969   0.0666  -0.0742   0.00    0.0   -0.00450   -0.01385    0.00357   0.00000  0.00000  0.00000  0.00000  0.00000  0.00000
2082   1350.000  -2267750.3797   5009154.5990   3221294.4379   6   7   0.1372   0.0951   0.0579  -0.0957   0.0655  -0.0733   0.00    0.0   -0.00453    0.03202    0.01952   0.00000  0.00000  0.00000  0.00000  0.00000  0.00000
2082   1380.000  -2267750.3848   5009154.6043   3221294.4406   6   7   0.1349   0.0932   0.0567  -0.0944   0.0644  -0.0724   0.00    0.0    0.00712   -0.00252    0.01154   0.00000  0.00000  0.00000  0.00000  0.00000  0.00000
2082   1410.000  -2267750.3914   5009154.6131   3221294.4446   6   7   0.1327   0.0914   0.0556  -0.0932   0.0634  -0.0715   0.00    0.0    0.00244    0.01151    0.01072   0.00000  0.00000  0.00000  0.00000  0.00000  0.00000
2082   1440.000  -2267750.3989   5009154.6204   3221294.4471   6   7   0.1305   0.0896   0.0545  -0.0920   0.0624  -0.0706   0.00    0.0    0.01494   -0.02347   -0.00496   0.00000  0.00000  0.00000  0.00000  0.00000  0.00000
2082   1470.000  -2267750.4039   5009154.6272   3221294.4489   6   7   0.1284   0.0879   0.0535  -0.0907   0.0613  -0.0698   0.00    0.0   -0.00094    0.02096    0.01641   0.00000  0.00000  0.00000  0.00000  0.00000  0.00000
2082   1500.000  -2267750.4038   5009154.6291   3221294.4496   6   7   0.1264   0.0863   0.0525  -0.0896   0.0604  -0.0689   0.00    0.0   -0.01848    0.03353    0.01308   0.00000  0.00000  0.00000  0.00000  0.00000  0.00000
2082   1530.000  -2267750.4031   5009154.6293   3221294.4490   6   7   0.1244   0.0846   0.0516  -0.0884   0.0594  -0.0681   0.00    0.0   -0.02670    0.04287    0.01275   0.00000  0.00000  0.00000  0.00000  0.00000  0.00000
2082   1560.000  -2267750.3988   5009154.6304   3221294.4467   6   7   0.1225   0.0831   0.0506  -0.0872   0.0584  -0.0672   0.00    0.0    0.00345   -0.01350   -0.00138   0.00000  0.00000  0.00000  0.00000  0.00000  0.00000
2082   1590.000  -2267750.4004   5009154.6346   3221294.4453   6   7   0.1207   0.0815   0.0497  -0.0860   0.0575  -0.0664   0.00    0.0    0.01928   -0.02871   -0.00033   0.00000  0.00000  0.00000  0.00000  0.00000  0.00000
2082   1620.000  -2267750.3934   5009154.6358   3221294.4449   6   7   0.1189   0.0800   0.0488  -0.0849   0.0566  -0.0656   0.00    0.0   -0.01080    0.00008   -0.00284   0.00000  0.00000  0.00000  0.00000  0.00000  0.00000
2082   1650.000  -2267750.3914   5009154.6369   3221294.4447   6   7   0.1172   0.0786   0.0480  -0.0838   0.0557  -0.0648   0.00    0.0    0.01207   -0.00174    0.00996   0.00000  0.00000  0.00000  0.00000  0.00000  0.00000
2082   1680.000  -2267750.3851   5009154.6383   3221294.4448   6   7   0.1155   0.0772   0.0471  -0.0827   0.0548  -0.0640   0.00    0.0   -0.00129    0.01217    0.01098   0.00000  0.00000  0.00000  0.00000  0.00000  0.00000
2082   1710.000  -2267750.3784   5009154.6431   3221294.4451   6   7   0.1138   0.0758   0.0463  -0.0816   0.0539  -0.0632   0.00    0.0    0.00944   -0.00242    0.01502   0.00000  0.00000  0.00000  0.00000  0.00000  0.00000
2082   1740.000  -2267750.3733   5009154.6452   3221294.4469   6   7   0.1122   0.0744   0.0455  -0.0805   0.0531  -0.0624   0.00    0.0   -0.00187    0.00780    0.01060   0.00000  0.00000  0.00000  0.00000  0.00000  0.00000
2082   1770.000  -2267750.3685   5009154.6440   3221294.4480   6   7   0.1107   0.0731   0.0448  -0.0794   0.0522  -0.0616   0.00    0.0   -0.00683    0.03029    0.00554   0.00000  0.00000  0.00000  0.00000  0.00000  0.00000
2082   1800.000  -2267750.3645   5009154.6423   3221294.4494   6   7   0.1092   0.0718   0.0440  -0.0784   0.0514  -0.0609   0.00    0.0    0.00922   -0.03225   -0.01106   0.00000  0.00000  0.00000  0.00000  0.00000  0.00000
2082   1830.000  -2267750.3646   5009154.6439   3221294.4510   6   7   0.1077   0.0706   0.0433  -0.0773   0.0506  -0.0601   0.00    0.0   -0.00029    0.01893    0.00788   0.00000  0.00000  0.00000  0.00000  0.00000  0.00000
2082   1860.000  -2267750.3624   5009154.6482   3221294.4528   6   7   0.1062   0.0693   0.0426  -0.0763   0.0498  -0.0594   0.00    0.0    0.01347   -0.02720   -0.00643   0.00000  0.00000  0.00000  0.00000  0.00000  0.00000
2082   1890.000  -2267750.3520   5009154.6406   3221294.4517   6   7   0.1048   0.0681   0.0419  -0.0753   0.0491  -0.0587   0.00    0.0   -0.02773    0.05895    0.01500   0.00000  0.00000  0.00000  0.00000  0.00000  0.00000
2082   1920.000  -2267750.3419   5009154.6331   3221294.4498   6   7   0.1034   0.0670   0.0412  -0.0743   0.0483  -0.0579   0.00    0.0   -0.02038   -0.01668   -0.01449   0.00000  0.00000  0.00000  0.00000  0.00000  0.00000
2082   1950.000  -2267750.3419   5009154.6304   3221294.4490   6   7   0.1021   0.0658   0.0405  -0.0733   0.0476  -0.0572   0.00    0.0    0.00735   -0.00513    0.00506   0.00000  0.00000  0.00000  0.00000  0.00000  0.00000
2082   1980.000  -2267750.3431   5009154.6328   3221294.4504   6   7   0.1007   0.0647   0.0399  -0.0723   0.0468  -0.0565   0.00    0.0    0.00290    0.00763    0.00746   0.00000  0.00000  0.00000  0.00000  0.00000  0.00000
2082   2010.000  -2267750.3457   5009154.6366   3221294.4514   6   7   0.0994   0.0636   0.0392  -0.0714   0.0461  -0.0558   0.00    0.0    0.01032   -0.03166   -0.00458   0.00000  0.00000  0.00000  0.00000  0.00000  0.00000
2082   2040.000  -2267750.3400   5009154.6335   3221294.4505   6   7   0.0981   0.0626   0.0386  -0.0704   0.0454  -0.0551   0.00    0.0    0.00174    0.00969    0.00960   0.00000  0.00000  0.00000  0.00000  0.00000  0.00000
2082   2070.000  -2267750.3335   5009154.6301   3221294.4488   6   7   0.0969   0.0615   0.0380  -0.0695   0.0447  -0.0545   0.00    0.0    0.02202   -0.00654    0.00307   0.00000  0.00000  0.00000  0.00000  0.00000  0.00000
2082   2100.000  -2267750.3286   5009154.6285   3221294.4479   6   7   0.0956   0.0605   0.0374  -0.0686   0.0440  -0.0538   0.00    0.0   -0.00718    0.00307    0.00406   0.00000  0.00000  0.00000  0.00000  0.00000  0.00000
2082   2130.000  -2267750.3259   5009154.6290   3221294.4480   6   7   0.0944   0.0595   0.0368  -0.0677   0.0434  -0.0531   0.00    0.0   -0.00263    0.01055    0.01059   0.00000  0.00000  0.00000  0.00000  0.00000  0.00000
2082   2160.000  -2267750.3195   5009154.6258   3221294.4445   6   7   0.0932   0.0585   0.0363  -0.0668   0.0427  -0.0524   0.00    0.0    0.00902   -0.00540    0.01000   0.00000  0.00000  0.00000  0.00000  0.00000  0.00000
2082   2190.000  -2267750.3149   5009154.6240   3221294.4427   6   7   0.0920   0.0576   0.0357  -0.0659   0.0421  -0.0518   0.00    0.0   -0.00636    0.01031    0.01228   0.00000  0.00000  0.00000  0.00000  0.00000  0.00000
2082   2220.000  -2267750.3100   5009154.6211   3221294.4410   6   7   0.0909   0.0567   0.0351  -0.0650   0.0414  -0.0511   0.00    0.0    0.00050    0.01490    0.01556   0.00000  0.00000  0.00000  0.00000  0.00000  0.00000
2082   2250.000  -2267750.3040   5009154.6155   3221294.4380   6   7   0.0897   0.0557   0.0346  -0.0642   0.0408  -0.0505   0.00    0.0    0.00450   -0.00812    0.00617   0.00000  0.00000  0.00000  0.00000  0.00000  0.00000
2082   2280.000  -2267750.2930   5009154.6103   3221294.4338   6   7   0.0886   0.0548   0.0341  -0.0633   0.0402  -0.0498   0.00    0.0   -0.00208    0.01208    0.02001   0.00000  0.00000  0.00000  0.00000  0.00000  0.00000
2082   2310.000  -2267750.2923   5009154.6111   3221294.4332   6   7   0.0874   0.0539   0.0335  -0.0625   0.0396  -0.0492   0.00    0.0   -0.00555    0.01478    0.00625   0.00000  0.00000  0.00000  0.00000  0.00000  0.00000
2082   2340.000  -2267750.2875   5009154.6094   3221294.4317   6   7   0.0863   0.0531   0.0330  -0.0616   0.0390  -0.0486   0.00    0.0   -0.00787    0.00997   -0.00247   0.00000  0.00000  0.00000  0.00000  0.00000  0.00000
2082   2370.000  -2267750.2828   5009154.6074   3221294.4307   6   7   0.0852   0.0522   0.0325  -0.0608   0.0384  -0.0479   0.00    0.0   -0.02044    0.04437    0.01466   0.00000  0.00000  0.00000  0.00000  0.00000  0.00000
2082   2400.000  -2267750.2819   5009154.6083   3221294.4312   6   7   0.0841   0.0514   0.0320  -0.0599   0.0378  -0.0473   0.00    0.0   -0.00864    0.03648    0.01926   0.00000  0.00000  0.00000  0.00000  0.00000  0.00000
2082   2430.000  -2267750.2765   5009154.6052   3221294.4304   6   7   0.0830   0.0505   0.0315  -0.0591   0.0372  -0.0467   0.00    0.0   -0.00173    0.04960    0.01986   0.00000  0.00000  0.00000  0.00000  0.00000  0.00000
2082   2460.000  -2267750.2770   5009154.6043   3221294.4308   6   7   0.0820   0.0497   0.0310  -0.0583   0.0366  -0.0460   0.00    0.0   -0.00282    0.02017    0.00184   0.00000  0.00000  0.00000  0.00000  0.00000  0.00000
2082   2490.000  -2267750.2723   5009154.6011   3221294.4296   6   7   0.0809   0.0489   0.0305  -0.0575   0.0360  -0.0454   0.00    0.0   -0.00556    0.01073   -0.00322   0.00000  0.00000  0.00000  0.00000  0.00000  0.00000
2082   2520.000  -2267750.2652   5009154.5973   3221294.4273   6   7   0.0798   0.0481   0.0300  -0.0567   0.0355  -0.0448   0.00    0.0   -0.00404    0.00506    0.01603   0.00000  0.00000  0.00000  0.00000  0.00000  0.00000
2082   2550.000  -2267750.2547   5009154.5910   3221294.4236   6   7   0.0788   0.0474   0.0295  -0.0559   0.0349  -0.0442   0.00    0.0   -0.00790   -0.00125    0.01241   0.00000  0.00000  0.00000  0.00000  0.00000  0.00000
2082   2580.000  -2267750.2468   5009154.5849   3221294.4208   6   7   0.0777   0.0466   0.0291  -0.0551   0.0344  -0.0436   0.00    0.0   -0.00524    0.02063   -0.00084   0.00000  0.00000  0.00000  0.00000  0.00000  0.00000
2082   2610.000  -2267750.2413   5009154.5809   3221294.4195   6   7   0.0767   0.0458   0.0286  -0.0543   0.0338  -0.0429   0.00    0.0   -0.00707    0.00084    0.01456   0.00000  0.00000  0.00000  0.00000  0.00000  0.00000
2082   2640.000  -2267750.2340   5009154.5753   3221294.4166   6   7   0.0756   0.0451   0.0281  -0.0535   0.0333  -0.0423   0.00    0.0    0.00532    0.00137   -0.00687   0.00000  0.00000  0.00000  0.00000  0.00000  0.00000
2082   2670.000  -2267750.2252   5009154.5695   3221294.4134   6   7   0.0746   0.0443   0.0277  -0.0527   0.0327  -0.0417   0.00    0.0    0.00441    0.01493    0.00887   0.00000  0.00000  0.00000  0.00000  0.00000  0.00000
2082   2700.000  -2267750.2157   5009154.5645   3221294.4105   6   7   0.0735   0.0436   0.0272  -0.0519   0.0322  -0.0411   0.00    0.0   -0.00524    0.00704    0.00025   0.00000  0.00000  0.00000  0.00000  0.00000  0.00000
2082   2730.000  -2267750.2078   5009154.5596   3221294.4080   6   7   0.0725   0.0429   0.0268  -0.0511   0.0317  -0.0405   0.00    0.0   -0.00087    0.02130    0.02086   0.00000  0.00000  0.00000  0.00000  0.00000  0.00000
2082   2760.000  -2267750.2069   5009154.5582   3221294.4066   6   7   0.0715   0.0422   0.0263  -0.0503   0.0312  -0.0399   0.00    0.0   -0.00588    0.01214    0.00653   0.00000  0.00000  0.00000  0.00000  0.00000  0.00000
2082   2790.000  -2267750.2055   5009154.5568   3221294.4058   6   7   0.0705   0.0415   0.0259  -0.0496   0.0306  -0.0393   0.00    0.0   -0.00062    0.00454    0.00817   0.00000  0.00000  0.00000  0.00000  0.00000  0.00000
2082   2820.000  -2267750.1989   5009154.5525   3221294.4039   6   7   0.0694   0.0408   0.0255  -0.0488   0.0301  -0.0387   0.00    0.0    0.00376   -0.00853   -0.01904   0.00000  0.00000  0.00000  0.00000  0.00000  0.00000
2082   2850.000  -2267750.1964   5009154.5499   3221294.4027   6   7   0.0684   0.0401   0.0250  -0.0480   0.0296  -0.0381   0.00    0.0   -0.00889    0.01647    0.00875   0.00000  0.00000  0.00000  0.00000  0.00000  0.00000
2082   2880.000  -2267750.1942   5009154.5485   3221294.4019   6   7   0.0674   0.0395   0.0246  -0.0473   0.0291  -0.0375   0.00    0.0    0.00853   -0.00791   -0.00532   0.00000  0.00000  0.00000  0.00000  0.00000  0.00000
2082   2910.000  -2267750.1892   5009154.5457   3221294.4006   6   7   0.0664   0.0388   0.0242  -0.0465   0.0286  -0.0369   0.00    0.0   -0.00721    0.02325    0.01061   0.00000  0.00000  0.00000  0.00000  0.00000  0.00000
2082   2940.000  -2267750.1838   5009154.5431   3221294.3988   6   7   0.0654   0.0381   0.0238  -0.0458   0.0281  -0.0363   0.00    0.0   -0.00524    0.01570    0.01144   0.00000  0.00000  0.00000  0.00000  0.00000  0.00000
2082   2970.000  -2267750.1789   5009154.5407   3221294.3969   6   7   0.0644   0.0375   0.0234  -0.0450   0.0277  -0.0357   0.00    0.0   -0.00263   -0.00610    0.00346   0.00000  0.00000  0.00000  0.00000  0.00000  0.00000
2082   3000.000  -2267750.1699   5009154.5354   3221294.3936   6   7   0.0634   0.0369   0.0230  -0.0443   0.0272  -0.0351   0.00    0.0   -0.00185   -0.01084    0.00121   0.00000  0.00000  0.00000  0.00000  0.00000  0.00000
2082   3030.000  -2267750.1668   5009154.5349   3221294.3932   6   7   0.0625   0.0362   0.0226  -0.0436   0.0267  -0.0345   0.00    0.0    0.00695   -0.01814   -0.03149   0.00000  0.00000  0.00000  0.00000  0.00000  0.00000
2082   3060.000  -2267750.1636   5009154.5341   3221294.3926   6   7   0.0615   0.0356   0.0222  -0.0428   0.0262  -0.0339   0.00    0.0    0.01092   -0.00355    0.00807   0.00000  0.00000  0.00000  0.00000  0.00000  0.00000
2082   3090.000  -2267750.1598   5009154.5322   3221294.3923   6   7   0.0605   0.0350   0.0218  -0.0421   0.0258  -0.0334   0.00    0.0   -0.00103    0.00174    0.00409   0.00000  0.00000  0.00000  0.00000  0.00000  0.00000
2082   3120.000  -2267750.1567   5009154.5303   3221294.3918   6   7   0.0596   0.0344   0.0214  -0.0414   0.0253  -0.0328   0.00    0.0   -0.00211    0.04987    0.02062   0.00000  0.00000  0.00000  0.00000  0.00000  0.00000
2082   3150.000  -2267750.1577   5009154.5318   3221294.3921   6   7   0.0586   0.0338   0.0210  -0.0407   0.0248  -0.0322   0.00    0.0    0.00399    0.01751    0.01827   0.00000  0.00000  0.00000  0.00000  0.00000  0.00000
2082   3180.000  -2267750.1526   5009154.5291   3221294.3901   6   7   0.0577   0.0332   0.0206  -0.0400   0.0244  -0.0317   0.00    0.0    0.01032   -0.01295   -0.02063   0.00000  0.00000  0.00000  0.00000  0.00000  0.00000
2082   3210.000  -2267750.1482   5009154.5264   3221294.3890   6   7   0.0567   0.0326   0.0203  -0.0393   0.0240  -0.0311   0.00    0.0    0.01820   -0.03639   -0.04105   0.00000  0.00000  0.00000  0.00000  0.00000  0.00000
2082   3240.000  -2267750.1470   5009154.5264   3221294.3886   6   7   0.0558   0.0321   0.0199  -0.0386   0.0235  -0.0306   0.00    0.0    0.00781   -0.00853   -0.00350   0.00000  0.00000  0.00000  0.00000  0.00000  0.00000
2082   3270.000  -2267750.1449   5009154.5258   3221294.3880   6   7   0.0549   0.0315   0.0195  -0.0380   0.0231  -0.0300   0.00    0.0   -0.01011    0.05144    0.03940   0.00000  0.00000  0.00000  0.00000  0.00000  0.00000
2082   3300.000  -2267750.1404   5009154.5241   3221294.3867   6   7   0.0540   0.0310   0.0192  -0.0373   0.0227  -0.0295   0.00    0.0   -0.00280    0.02584   -0.00019   0.00000  0.00000  0.00000  0.00000  0.00000  0.00000
2082   3330.000  -2267750.1366   5009154.5224   3221294.3853   6   7   0.0531   0.0304   0.0188  -0.0366   0.0223  -0.0290   0.00    0.0   -0.00034   -0.00719   -0.01217   0.00000  0.00000  0.00000  0.00000  0.00000  0.00000
2082   3360.000  -2267750.1365   5009154.5227   3221294.3852   6   6   0.0523   0.0300   0.0186  -0.0361   0.0219  -0.0285   0.00    0.0   -0.00563    0.01375    0.02523   0.00000  0.00000  0.00000  0.00000  0.00000  0.00000
2082   3390.000  -2267750.1331   5009154.5224   3221294.3842   6   6   0.0515   0.0296   0.0183  -0.0356   0.0216  -0.0281   0.00    0.0    0.02005   -0.02561   -0.00395   0.00000  0.00000  0.00000  0.00000  0.00000  0.00000
2082   3420.000  -2267750.1321   5009154.5234   3221294.3842   6   6   0.0508   0.0292   0.0180  -0.0351   0.0213  -0.0277   0.00    0.0    0.00565    0.02620    0.00758   0.00000  0.00000  0.00000  0.00000  0.00000  0.00000
2082   3450.000  -2267750.1308   5009154.5232   3221294.3839   6   6   0.0500   0.0288   0.0178  -0.0346   0.0210  -0.0273   0.00    0.0    0.01402   -0.06632   -0.08299   0.00000  0.00000  0.00000  0.00000  0.00000  0.00000
2082   3480.000  -2267750.1285   5009154.5219   3221294.3831   6   6   0.0493   0.0284   0.0175  -0.0341   0.0208  -0.0269   0.00    0.0    0.02078   -0.03128   -0.04215   0.00000  0.00000  0.00000  0.00000  0.00000  0.00000
2082   3510.000  -2267750.1267   5009154.5214   3221294.3826   6   6   0.0486   0.0281   0.0173  -0.0336   0.0205  -0.0265   0.00    0.0    0.03754   -0.10066   -0.13043   0.00000  0.00000  0.00000  0.00000  0.00000  0.00000
2082   3540.000  -2267750.1245   5009154.5204   3221294.3823   6   6   0.0479   0.0277   0.0170  -0.0331   0.0202  -0.0261   0.00    0.0   -0.01725   -0.00750    0.00671   0.00000  0.00000  0.00000  0.00000  0.00000  0.00000
2082   3570.000  -2267750.1208   5009154.5189   3221294.3812   6   6   0.0472   0.0274   0.0168  -0.0327   0.0199  -0.0257   0.00    0.0   -0.01182    0.02499    0.02456   0.00000  0.00000  0.00000  0.00000  0.00000  0.00000
2082   3600.000  -2267750.1158   5009154.5166   3221294.3797   6   6   0.0465   0.0270   0.0166  -0.0322   0.0197  -0.0254   0.00    0.0   -0.02594    0.00724   -0.01119   0.00000  0.00000  0.00000  0.00000  0.00000  0.00000
2082   3630.000  -2267750.1134   5009154.5158   3221294.3791   6   6   0.0459   0.0267   0.0164  -0.0318   0.0194  -0.0250   0.00    0.0   -0.00713    0.01375    0.00840   0.00000  0.00000  0.00000  0.00000  0.00000  0.00000
2082   3660.000  -2267750.1128   5009154.5158   3221294.3791   6   6   0.0452   0.0263   0.0162  -0.0313   0.0192  -0.0247   0.00    0.0    0.00492   -0.00201    0.00235   0.00000  0.00000  0.00000  0.00000  0.00000  0.00000
2082   3690.000  -2267750.1087   5009154.5136   3221294.3776   6   6   0.0445   0.0260   0.0159  -0.0309   0.0189  -0.0243   0.00    0.0    0.00334   -0.00589    0.00760   0.00000  0.00000  0.00000  0.00000  0.00000  0.00000
2082   3720.000  -2267750.1046   5009154.5122   3221294.3765   6   6   0.0439   0.0257   0.0157  -0.0305   0.0187  -0.0240   0.00    0.0    0.01343    0.01320    0.00234   0.00000  0.00000  0.00000  0.00000  0.00000  0.00000
2082   3750.000  -2267750.1025   5009154.5114   3221294.3758   6   6   0.0433   0.0254   0.0155  -0.0301   0.0185  -0.0236   0.00    0.0    0.00018   -0.01268   -0.01079   0.00000  0.00000  0.00000  0.00000  0.00000  0.00000
2082   3780.000  -2267750.1000   5009154.5102   3221294.3752   6   6   0.0427   0.0251   0.0153  -0.0297   0.0182  -0.0233   0.00    0.0    0.01949   -0.02459   -0.01725   0.00000  0.00000  0.00000  0.00000  0.00000  0.00000
2082   3810.000  -2267750.0977   5009154.5093   3221294.3746   6   6   0.0421   0.0248   0.0151  -0.0293   0.0180  -0.0230   0.00    0.0    0.00279   -0.03440   -0.01922   0.00000  0.00000  0.00000  0.00000  0.00000  0.00000
2082   3840.000  -2267750.0935   5009154.5074   3221294.3732   6   6   0.0415   0.0245   0.0149  -0.0289   0.0178  -0.0227   0.00    0.0    0.00046   -0.00672   -0.00932   0.00000  0.00000  0.00000  0.00000  0.00000  0.00000
2082   3870.000  -2267750.0922   5009154.5067   3221294.3728   6   6   0.0409   0.0242   0.0148  -0.0285   0.0176  -0.0224   0.00    0.0   -0.00694    0.01641    0.01558   0.00000  0.00000  0.00000  0.00000  0.00000  0.00000
2082   3900.000  -2267750.0906   5009154.5061   3221294.3723   6   6   0.0403   0.0239   0.0146  -0.0281   0.0174  -0.0221   0.00    0.0   -0.00727    0.03188    0.02761   0.00000  0.00000  0.00000  0.00000  0.00000  0.00000
2082   3930.000  -2267750.0889   5009154.5055   3221294.3722   6   6   0.0398   0.0237   0.0144  -0.0278   0.0172  -0.0218   0.00    0.0   -0.00597    0.01782    0.01393   0.00000  0.00000  0.00000  0.00000  0.00000  0.00000
2082   3960.000  -2267750.0876   5009154.5048   3221294.3719   6   6   0.0392   0.0234   0.0142  -0.0274   0.0170  -0.0215   0.00    0.0    0.00363   -0.02797   -0.01626   0.00000  0.00000  0.00000  0.00000  0.00000  0.00000
2082   3990.000  -2267750.0839   5009154.5031   3221294.3708   6   6   0.0387   0.0232   0.0141  -0.0270   0.0168  -0.0212   0.00    0.0   -0.01576    0.00718    0.01473   0.00000  0.00000  0.00000  0.00000  0.00000  0.00000
2082   4020.000  -2267750.0799   5009154.5011   3221294.3696   6   6   0.0381   0.0229   0.0139  -0.0267   0.0166  -0.0209   0.00    0.0   -0.02240    0.00856    0.00153   0.00000  0.00000  0.00000  0.00000  0.00000  0.00000
2082   4050.000  -2267750.0777   5009154.5004   3221294.3692   6   6   0.0376   0.0227   0.0137  -0.0264   0.0164  -0.0207   0.00    0.0    0.02622   -0.02731   -0.01226   0.00000  0.00000  0.00000  0.00000  0.00000  0.00000
2082   4080.000  -2267750.0770   5009154.5009   3221294.3695   6   6   0.0371   0.0224   0.0136  -0.0260   0.0162  -0.0204   0.00    0.0    0.00363    0.02721    0.02063   0.00000  0.00000  0.00000  0.00000  0.00000  0.00000
2082   4110.000  -2267750.0760   5009154.5008   3221294.3694   6   6   0.0366   0.0222   0.0134  -0.0257   0.0160  -0.0201   0.00    0.0    0.01057    0.01077    0.01041   0.00000  0.00000  0.00000  0.00000  0.00000  0.00000
2082   4140.000  -2267750.0754   5009154.5006   3221294.3694   6   6   0.0361   0.0219   0.0133  -0.0254   0.0159  -0.0199   0.00    0.0   -0.01759    0.01105   -0.00192   0.00000  0.00000  0.00000  0.00000  0.00000  0.00000
2082   4170.000  -2267750.0747   5009154.5010   3221294.3692   6   6   0.0356   0.0217   0.0131  -0.0251   0.0157  -0.0196   0.00    0.0    0.00862    0.00157    0.00901   0.00000  0.00000  0.00000  0.00000  0.00000  0.00000
2082   4200.000  -2267750.0745   5009154.5016   3221294.3692   6   6   0.0351   0.0215   0.0130  -0.0248   0.0155  -0.0194   0.00    0.0    0.01696   -0.01527   -0.01388   0.00000  0.00000  0.00000  0.00000  0.00000  0.00000
2082   4230.000  -2267750.0756   5009154.5028   3221294.3698   6   6   0.0347   0.0213   0.0128  -0.0245   0.0154  -0.0191   0.00    0.0   -0.03800    0.05965    0.02955   0.00000  0.00000  0.00000  0.00000  0.00000  0.00000
2082   4260.000  -2267750.0766   5009154.5039   3221294.3701   6   6   0.0342   0.0211   0.0127  -0.0242   0.0152  -0.0189   0.00    0.0    0.00566   -0.00964   -0.00330   0.00000  0.00000  0.00000  0.00000  0.00000  0.00000
2082   4290.000  -2267750.0775   5009154.5045   3221294.3706   6   6   0.0338   0.0208   0.0126  -0.0239   0.0151  -0.0186   0.00    0.0    0.01976   -0.00770    0.00940   0.00000  0.00000  0.00000  0.00000  0.00000  0.00000
2082   4320.000  -2267750.0763   5009154.5041   3221294.3701   6   6   0.0333   0.0206   0.0124  -0.0236   0.0149  -0.0184   0.00    0.0   -0.00394    0.00880    0.01069   0.00000  0.00000  0.00000  0.00000  0.00000  0.00000
2082   4350.000  -2267750.0748   5009154.5033   3221294.3695   6   6   0.0329   0.0204   0.0123  -0.0233   0.0148  -0.0182   0.00    0.0    0.01588   -0.00169    0.00993   0.00000  0.00000  0.00000  0.00000  0.00000  0.00000
2082   4380.000  -2267750.0745   5009154.5036   3221294.3697   6   6   0.0324   0.0202   0.0122  -0.0230   0.0146  -0.0180   0.00    0.0   -0.02150    0.02595    0.02744   0.00000  0.00000  0.00000  0.00000  0.00000  0.00000
2082   4410.000  -2267750.0730   5009154.5026   3221294.3692   6   6   0.0320   0.0201   0.0120  -0.0228   0.0145  -0.0178   0.00    0.0    0.00101    0.00313    0.00403   0.00000  0.00000  0.00000  0.00000  0.00000  0.00000
2082   4440.000  -2267750.0736   5009154.5035   3221294.3696   6   6   0.0316   0.0199   0.0119  -0.0225   0.0143  -0.0175   0.00    0.0   -0.01637    0.05881    0.04053   0.00000  0.00000  0.00000  0.00000  0.00000  0.00000
2082   4470.000  -2267750.0731   5009154.5035   3221294.3698   6   6   0.0312   0.0197   0.0118  -0.0223   0.0142  -0.0173   0.00    0.0    0.01235   -0.00346   -0.00137   0.00000  0.00000  0.00000  0.00000  0.00000  0.00000
2082   4500.000  -2267750.0707   5009154.5025   3221294.3695   6   6   0.0308   0.0195   0.0117  -0.0220   0.0141  -0.0171   0.00    0.0   -0.01237    0.02341    0.01499   0.00000  0.00000  0.00000  0.00000  0.00000  0.00000
2082   4530.000  -2267750.0689   5009154.5018   3221294.3692   6   6   0.0304   0.0193   0.0116  -0.0218   0.0139  -0.0169   0.00    0.0    0.01502   -0.02037   -0.00897   0.00000  0.00000  0.00000  0.00000  0.00000  0.00000
2082   4560.000  -2267750.0687   5009154.5021   3221294.3693   6   6   0.0300   0.0192   0.0115  -0.0215   0.0138  -0.0167   0.00    0.0   -0.01302    0.03782    0.03251   0.00000  0.00000  0.00000  0.00000  0.00000  0.00000
2082   4590.000  -2267750.0702   5009154.5032   3221294.3702   6   6   0.0296   0.0190   0.0114  -0.0213   0.0137  -0.0165   0.00    0.0   -0.00041    0.00519    0.00342   0.00000  0.00000  0.00000  0.00000  0.00000  0.00000
2082   4620.000  -2267750.0702   5009154.5036   3221294.3703   6   6   0.0293   0.0188   0.0113  -0.0210   0.0136  -0.0164   0.00    0.0   -0.03413    0.09469    0.05129   0.00000  0.00000  0.00000  0.00000  0.00000  0.00000
2082   4650.000  -2267750.0709   5009154.5042   3221294.3707   6   6   0.0289   0.0187   0.0111  -0.0208   0.0134  -0.0162   0.00    0.0    0.00177    0.00926    0.00640   0.00000  0.00000  0.00000  0.00000  0.00000  0.00000
2082   4680.000  -2267750.0695   5009154.5035   3221294.3706   6   6   0.0286   0.0185   0.0110  -0.0206   0.0133  -0.0160   0.00    0.0   -0.00126   -0.00138   -0.01158   0.00000  0.00000  0.00000  0.00000  0.00000  0.00000
2082   4710.000  -2267750.0688   5009154.5035   3221294.3708   6   6   0.0282   0.0183   0.0109  -0.0204   0.0132  -0.0158   0.00    0.0   -0.01415    0.03296    0.01563   0.00000  0.00000  0.00000  0.00000  0.00000  0.00000
2082   4740.000  -2267750.0688   5009154.5035   3221294.3710   6   6   0.0279   0.0182   0.0108  -0.0201   0.0131  -0.0156   0.00    0.0   -0.00873    0.01384    0.00462   0.00000  0.00000  0.00000  0.00000  0.00000  0.00000
2082   4770.000  -2267750.0691   5009154.5038   3221294.3714   6   6   0.0275   0.0180   0.0108  -0.0199   0.0130  -0.0155   0.00    0.0    0.00925   -0.03695   -0.01053   0.00000  0.00000  0.00000  0.00000  0.00000  0.00000
2082   4800.000  -2267750.0695   5009154.5042   3221294.3719   6   6   0.0272   0.0179   0.0107  -0.0197   0.0129  -0.0153   0.00    0.0    0.02193   -0.04785   -0.02505   0.00000  0.00000  0.00000  0.00000  0.00000  0.00000
2082   4830.000  -2267750.0706   5009154.5052   3221294.3725   6   6   0.0269   0.0178   0.0106  -0.0195   0.0128  -0.0151   0.00    0.0    0.00864   -0.01042   -0.00744   0.00000  0.00000  0.00000  0.00000  0.00000  0.00000
2082   4860.000  -2267750.0707   5009154.5052   3221294.3729   6   6   0.0265   0.0176   0.0105  -0.0193   0.0127  -0.0150   0.00    0.0   -0.01198    0.01714    0.01185   0.00000  0.00000  0.00000  0.00000  0.00000  0.00000
2082   4890.000  -2267750.0704   5009154.5051   3221294.3732   6   6   0.0262   0.0175   0.0104  -0.0191   0.0126  -0.0148   0.00    0.0   -0.00471    0.02576    0.01224   0.00000  0.00000  0.00000  0.00000  0.00000  0.00000
2082   4920.000  -2267750.0701   5009154.5050   3221294.3733   6   6   0.0259   0.0173   0.0103  -0.0189   0.0125  -0.0147   0.00    0.0   -0.01527    0.03888    0.01404   0.00000  0.00000  0.00000  0.00000  0.00000  0.00000
2082   4950.000  -2267750.0717   5009154.5061   3221294.3740   6   6   0.0256   0.0172   0.0102  -0.0187   0.0124  -0.0145   0.00    0.0    0.00997    0.00020    0.01090   0.00000  0.00000  0.00000  0.00000  0.00000  0.00000
2082   4980.000  -2267750.0725   5009154.5069   3221294.3746   6   6   0.0253   0.0171   0.0101  -0.0185   0.0123  -0.0144   0.00    0.0   -0.00417    0.01221   -0.00677   0.00000  0.00000  0.00000  0.00000  0.00000  0.00000
2082   5010.000  -2267750.0739   5009154.5075   3221294.3752   6   6   0.0250   0.0170   0.0101  -0.0184   0.0122  -0.0142   0.00    0.0   -0.01112    0.04106    0.03199   0.00000  0.00000  0.00000  0.00000  0.00000  0.00000
2082   5040.000  -2267750.0737   5009154.5073   3221294.3753   6   6   0.0247   0.0168   0.0100  -0.0182   0.0121  -0.0141   0.00    0.0   -0.01260    0.04929    0.02374   0.00000  0.00000  0.00000  0.00000  0.00000  0.00000
2082   5070.000  -2267750.0740   5009154.5079   3221294.3755   6   6   0.0245   0.0167   0.0099  -0.0180   0.0120  -0.0140   0.00    0.0   -0.01821    0.03026    0.02052   0.00000  0.00000  0.00000  0.00000  0.00000  0.00000
2082   5100.000  -2267750.0740   5009154.5080   3221294.3756   6   6   0.0242   0.0166   0.0098  -0.0178   0.0119  -0.0138   0.00    0.0   -0.01828   -0.00149   -0.00150   0.00000  0.00000  0.00000  0.00000  0.00000  0.00000
2082   5130.000  -2267750.0745   5009154.5089   3221294.3760   6   6   0.0239   0.0165   0.0098  -0.0177   0.0119  -0.0137   0.00    0.0   -0.01050    0.02007    0.01007   0.00000  0.00000  0.00000  0.00000  0.00000  0.00000
2082   5160.000  -2267750.0747   5009154.5092   3221294.3761   6   6   0.0236   0.0164   0.0097  -0.0175   0.0118  -0.0135   0.00    0.0   -0.01153    0.03384    0.02278   0.00000  0.00000  0.00000  0.00000  0.00000  0.00000
2082   5190.000  -2267750.0751   5009154.5096   3221294.3763   6   6   0.0234   0.0162   0.0096  -0.0173   0.0117  -0.0134   0.00    0.0   -0.00111   -0.00380   -0.00052   0.00000  0.00000  0.00000  0.00000  0.00000  0.00000
2082   5220.000  -2267750.0746   5009154.5098   3221294.3763   6   6   0.0231   0.0161   0.0095  -0.0172   0.0116  -0.0133   0.00    0.0    0.00436   -0.01462   -0.01111   0.00000  0.00000  0.00000  0.00000  0.00000  0.00000
2082   5250.000  -2267750.0751   5009154.5102   3221294.3766   6   6   0.0229   0.0160   0.0095  -0.0170   0.0115  -0.0132   0.00    0.0    0.00579    0.00141   -0.00576   0.00000  0.00000  0.00000  0.00000  0.00000  0.00000
2082   5280.000  -2267750.0756   5009154.5103   3221294.3770   6   6   0.0226   0.0159   0.0094  -0.0169   0.0115  -0.0130   0.00    0.0   -0.00988    0.01411    0.01740   0.00000  0.00000  0.00000  0.00000  0.00000  0.00000
2082   5310.000  -2267750.0766   5009154.5108   3221294.3774   6   6   0.0224   0.0158   0.0094  -0.0167   0.0114  -0.0129   0.00    0.0    0.00333    0.00368    0.00516   0.00000  0.00000  0.00000  0.00000  0.00000  0.00000
2082   5340.000  -2267750.0760   5009154.5109   3221294.3776   6   6   0.0221   0.0157   0.0093  -0.0166   0.0113  -0.0128   0.00    0.0   -0.01618    0.02547    0.03170   0.00000  0.00000  0.00000  0.00000  0.00000  0.00000
2082   5370.000  -2267750.0758   5009154.5107   3221294.3777   6   6   0.0219   0.0156   0.0092  -0.0164   0.0113  -0.0127   0.00    0.0    0.00976   -0.00221   -0.00822   0.00000  0.00000  0.00000  0.00000  0.00000  0.00000
2082   5400.000  -2267750.0766   5009154.5109   3221294.3780   6   6   0.0217   0.0155   0.0092  -0.0163   0.0112  -0.0126   0.00    0.0    0.01112   -0.00871   -0.01921   0.00000  0.00000  0.00000  0.00000  0.00000  0.00000
2082   5430.000  -2267750.0780   5009154.5117   3221294.3785   6   6   0.0214   0.0154   0.0091  -0.0161   0.0111  -0.0125   0.00    0.0   -0.00314    0.01078    0.00867   0.00000  0.00000  0.00000  0.00000  0.00000  0.00000
2082   5460.000  -2267750.0777   5009154.5114   3221294.3786   6   6   0.0212   0.0153   0.0091  -0.0160   0.0111  -0.0124   0.00    0.0   -0.00410   -0.00225    0.00503   0.00000  0.00000  0.00000  0.00000  0.00000  0.00000
2082   5490.000  -2267750.0780   5009154.5116   3221294.3789   6   6   0.0210   0.0152   0.0090  -0.0159   0.0110  -0.0123   0.00    0.0    0.00235   -0.00757   -0.00295   0.00000  0.00000  0.00000  0.00000  0.00000  0.00000
2082   5520.000  -2267750.0779   5009154.5115   3221294.3790   6   6   0.0208   0.0151   0.0089  -0.0157   0.0109  -0.0122   0.00    0.0   -0.00402    0.00273    0.00107   0.00000  0.00000  0.00000  0.00000  0.00000  0.00000
2082   5550.000  -2267750.0771   5009154.5112   3221294.3790   6   6   0.0206   0.0151   0.0089  -0.0156   0.0109  -0.0121   0.00    0.0    0.00612   -0.01743   -0.00194   0.00000  0.00000  0.00000  0.00000  0.00000  0.00000
2082   5580.000  -2267750.0781   5009154.5120   3221294.3795   6   6   0.0204   0.0150   0.0088  -0.0155   0.0108  -0.0120   0.00    0.0    0.01178   -0.01418   -0.02750   0.00000  0.00000  0.00000  0.00000  0.00000  0.00000
2082   5610.000  -2267750.0786   5009154.5126   3221294.3799   6   6   0.0202   0.0149   0.0088  -0.0154   0.0107  -0.0119   0.00    0.0    0.02778   -0.01659    0.00456   0.00000  0.00000  0.00000  0.00000  0.00000  0.00000
2082   5640.000  -2267750.0796   5009154.5133   3221294.3803   6   6   0.0200   0.0148   0.0087  -0.0152   0.0107  -0.0118   0.00    0.0    0.01100   -0.00972   -0.02306   0.00000  0.00000  0.00000  0.00000  0.00000  0.00000
2082   5670.000  -2267750.0806   5009154.5137   3221294.3806   6   6   0.0198   0.0147   0.0087  -0.0151   0.0106  -0.0117   0.00    0.0    0.01153   -0.02383   -0.01334   0.00000  0.00000  0.00000  0.00000  0.00000  0.00000
2082   5700.000  -2267750.0825   5009154.5149   3221294.3813   6   6   0.0196   0.0146   0.0086  -0.0150   0.0106  -0.0116   0.00    0.0   -0.00102    0.01813    0.00405   0.00000  0.00000  0.00000  0.00000  0.00000  0.00000
2082   5730.000  -2267750.0836   5009154.5152   3221294.3815   6   6   0.0194   0.0145   0.0086  -0.0149   0.0105  -0.0115   0.00    0.0    0.02150   -0.02960   -0.01358   0.00000  0.00000  0.00000  0.00000  0.00000  0.00000
2082   5760.000  -2267750.0848   5009154.5156   3221294.3819   6   6   0.0192   0.0145   0.0085  -0.0148   0.0105  -0.0114   0.00    0.0   -0.01231    0.00780    0.01363   0.00000  0.00000  0.00000  0.00000  0.00000  0.00000
2082   5790.000  -2267750.0858   5009154.5160   3221294.3822   6   6   0.0190   0.0144   0.0085  -0.0146   0.0104  -0.0113   0.00    0.0   -0.00749    0.02130    0.02319   0.00000  0.00000  0.00000  0.00000  0.00000  0.00000
2082   5820.000  -2267750.0866   5009154.5164   3221294.3825   6   6   0.0188   0.0143   0.0084  -0.0145   0.0104  -0.0112   0.00    0.0   -0.00715    0.01213    0.01298   0.00000  0.00000  0.00000  0.00000  0.00000  0.00000
2082   5850.000  -2267750.0871   5009154.5164   3221294.3828   6   6   0.0186   0.0142   0.0084  -0.0144   0.0103  -0.0111   0.00    0.0    0.01317   -0.00428    0.00513   0.00000  0.00000  0.00000  0.00000  0.00000  0.00000
2082   5880.000  -2267750.0876   5009154.5166   3221294.3829   6   6   0.0185   0.0142   0.0084  -0.0143   0.0103  -0.0111   0.00    0.0   -0.00569    0.00751    0.00458   0.00000  0.00000  0.00000  0.00000  0.00000  0.00000
2082   5910.000  -2267750.0880   5009154.5168   3221294.3832   6   6   0.0183   0.0141   0.0083  -0.0142   0.0102  -0.0110   0.00    0.0   -0.00318   -0.00444   -0.00458   0.00000  0.00000  0.00000  0.00000  0.00000  0.00000
2082   5940.000  -2267750.0888   5009154.5170   3221294.3834   6   6   0.0181   0.0140   0.0083  -0.0141   0.0102  -0.0109   0.00    0.0    0.00359   -0.00720    0.01054   0.00000  0.00000  0.00000  0.00000  0.00000  0.00000
2082   5970.000  -2267750.0891   5009154.5172   3221294.3836   6   6   0.0180   0.0140   0.0082  -0.0140   0.0101  -0.0108   0.00    0.0    0.01269   -0.01747    0.00444   0.00000  0.00000  0.00000  0.00000  0.00000  0.00000
2082   6000.000  -2267750.0897   5009154.5173   3221294.3838   6   6   0.0178   0.0139   0.0082  -0.0139   0.0101  -0.0107   0.00    0.0   -0.01342    0.01291    0.01542   0.00000  0.00000  0.00000  0.00000  0.00000  0.00000
2082   6030.000  -2267750.0895   5009154.5174   3221294.3838   6   6   0.0176   0.0138   0.0081  -0.0138   0.0100  -0.0107   0.00    0.0    0.00242    0.00359   -0.00508   0.00000  0.00000  0.00000  0.00000  0.00000  0.00000
2082   6060.000  -2267750.0899   5009154.5175   3221294.3840   6   6   0.0175   0.0137   0.0081  -0.0137   0.0100  -0.0106   0.00    0.0   -0.00416   -0.00516   -0.00098   0.00000  0.00000  0.00000  0.00000  0.00000  0.00000
2082   6090.000  -2267750.0904   5009154.5175   3221294.3842   6   6   0.0173   0.0137   0.0081  -0.0136   0.0099  -0.0105   0.00    0.0   -0.01000    0.00750    0.00678   0.00000  0.00000  0.00000  0.00000  0.00000  0.00000
2082   6120.000  -2267750.0912   5009154.5176   3221294.3846   6   6   0.0172   0.0136   0.0080  -0.0135   0.0099  -0.0104   0.00    0.0    0.02437   -0.04374   -0.00307   0.00000  0.00000  0.00000  0.00000  0.00000  0.00000
2082   6150.000  -2267750.0918   5009154.5178   3221294.3848   6   6   0.0170   0.0136   0.0080  -0.0134   0.0098  -0.0104   0.00    0.0   -0.02572    0.05960    0.02532   0.00000  0.00000  0.00000  0.00000  0.00000  0.00000
2082   6180.000  -2267750.0922   5009154.5179   3221294.3850   6   6   0.0169   0.0135   0.0079  -0.0133   0.0098  -0.0103   0.00    0.0    0.00686   -0.01928   -0.00257   0.00000  0.00000  0.00000  0.00000  0.00000  0.00000
2082   6210.000  -2267750.0929   5009154.5181   3221294.3853   6   6   0.0167   0.0134   0.0079  -0.0132   0.0097  -0.0102   0.00    0.0   -0.00199    0.01107    0.00887   0.00000  0.00000  0.00000  0.00000  0.00000  0.00000
2082   6240.000  -2267750.0935   5009154.5181   3221294.3856   6   6   0.0166   0.0134   0.0079  -0.0131   0.0097  -0.0102   0.00    0.0   -0.03493    0.05724    0.02663   0.00000  0.00000  0.00000  0.00000  0.00000  0.00000
2082   6270.000  -2267750.0931   5009154.5179   3221294.3857   6   6   0.0164   0.0133   0.0078  -0.0131   0.0097  -0.0101   0.00    0.0    0.00301   -0.00777   -0.00649   0.00000  0.00000  0.00000  0.00000  0.00000  0.00000
2082   6300.000  -2267750.0930   5009154.5178   3221294.3857   6   6   0.0163   0.0132   0.0078  -0.0130   0.0096  -0.0100   0.00    0.0    0.01160   -0.02226   -0.00289   0.00000  0.00000  0.00000  0.00000  0.00000  0.00000
2082   6330.000  -2267750.0932   5009154.5179   3221294.3859   6   6   0.0161   0.0132   0.0078  -0.0129   0.0096  -0.0100   0.00    0.0   -0.03214    0.03557    0.02424   0.00000  0.00000  0.00000  0.00000  0.00000  0.00000
2082   6360.000  -2267750.0935   5009154.5180   3221294.3861   6   6   0.0160   0.0131   0.0077  -0.0128   0.0095  -0.0099   0.00    0.0   -0.00990    0.01884    0.00435   0.00000  0.00000  0.00000  0.00000  0.00000  0.00000
2082   6390.000  -2267750.0934   5009154.5181   3221294.3863   6   7   0.0159   0.0131   0.0077  -0.0127   0.0095  -0.0098   0.00    0.0    0.00729   -0.01760    0.00748   0.00000  0.00000  0.00000  0.00000  0.00000  0.00000
2082   6420.000  -2267750.0934   5009154.5179   3221294.3863   6   8   0.0157   0.0130   0.0077  -0.0126   0.0095  -0.0098   0.00    0.0    0.02526   -0.01912    0.02755   0.00000  0.00000  0.00000  0.00000  0.00000  0.00000
2082   6450.000  -2267750.0930   5009154.5176   3221294.3861   6   8   0.0156   0.0129   0.0076  -0.0126   0.0094  -0.0097   0.00    0.0    0.00150    0.02515   -0.01266   0.00000  0.00000  0.00000  0.00000  0.00000  0.00000
2082   6480.000  -2267750.0930   5009154.5172   3221294.3860   6   7   0.0155   0.0129   0.0076  -0.0125   0.0094  -0.0096   0.00    0.0    0.14145   -0.14597   -0.01353   0.00000  0.00000  0.00000  0.00000  0.00000  0.00000
2082   6510.000  -2267750.0932   5009154.5172   3221294.3861   6   7   0.0154   0.0128   0.0076  -0.0124   0.0093  -0.0096   0.00    0.0   -0.01287   -0.02747   -0.02204   0.00000  0.00000  0.00000  0.00000  0.00000  0.00000
2082   6540.000  -2267750.0933   5009154.5168   3221294.3860   6   7   0.0152   0.0128   0.0075  -0.0123   0.0093  -0.0095   0.00    0.0    0.01869   -0.02669    0.01569   0.00000  0.00000  0.00000  0.00000  0.00000  0.00000
2082   6570.000  -2267750.0932   5009154.5164   3221294.3859   6   7   0.0151   0.0127   0.0075  -0.0122   0.0093  -0.0095   0.00    0.0   -0.00650   -0.01733   -0.03961   0.00000  0.00000  0.00000  0.00000  0.00000  0.00000
2082   6600.000  -2267750.0936   5009154.5164   3221294.3859   6   7   0.0150   0.0127   0.0075  -0.0121   0.0092  -0.0094   0.00    0.0    0.03175   -0.00643   -0.00203   0.00000  0.00000  0.00000  0.00000  0.00000  0.00000
2082   6630.000  -2267750.0938   5009154.5164   3221294.3859   6   7   0.0149   0.0126   0.0074  -0.0121   0.0092  -0.0093   0.00    0.0   -0.00207    0.02450    0.03084   0.00000  0.00000  0.00000  0.00000  0.00000  0.00000
2082   6660.000  -2267750.0941   5009154.5163   3221294.3860   6   7   0.0147   0.0125   0.0074  -0.0120   0.0091  -0.0093   0.00    0.0   -0.02424    0.04073    0.01313   0.00000  0.00000  0.00000  0.00000  0.00000  0.00000
2082   6690.000  -2267750.0939   5009154.5159   3221294.3859   6   7   0.0146   0.0125   0.0074  -0.0119   0.0091  -0.0092   0.00    0.0    0.00363   -0.01063   -0.02816   0.00000  0.00000  0.00000  0.00000  0.00000  0.00000
2082   6720.000  -2267750.0943   5009154.5157   3221294.3859   6   7   0.0145   0.0124   0.0073  -0.0118   0.0090  -0.0091   0.00    0.0   -0.00804    0.00825    0.00465   0.00000  0.00000  0.00000  0.00000  0.00000  0.00000
2082   6750.000  -2267750.0945   5009154.5157   3221294.3860   6   7   0.0144   0.0123   0.0073  -0.0117   0.0090  -0.0091   0.00    0.0   -0.11400    0.10776    0.00926   0.00000  0.00000  0.00000  0.00000  0.00000  0.00000
2082   6780.000  -2267750.0953   5009154.5157   3221294.3861   6   7   0.0143   0.0123   0.0072  -0.0117   0.0089  -0.0090   0.00    0.0    0.03185   -0.05677    0.00900   0.00000  0.00000  0.00000  0.00000  0.00000  0.00000
2082   6810.000  -2267750.0950   5009154.5152   3221294.3861   6   7   0.0141   0.0122   0.0072  -0.0116   0.0089  -0.0089   0.00    0.0   -0.01978    0.01719    0.00520   0.00000  0.00000  0.00000  0.00000  0.00000  0.00000
2082   6840.000  -2267750.0953   5009154.5150   3221294.3861   6   7   0.0140   0.0121   0.0072  -0.0115   0.0089  -0.0089   0.00    0.0    0.01836   -0.01816    0.00296   0.00000  0.00000  0.00000  0.00000  0.00000  0.00000
2082   6870.000  -2267750.0953   5009154.5146   3221294.3860   6   7   0.0139   0.0121   0.0071  -0.0114   0.0088  -0.0088   0.00    0.0    0.00337    0.01152   -0.00157   0.00000  0.00000  0.00000  0.00000  0.00000  0.00000
2082   6900.000  -2267750.0951   5009154.5141   3221294.3858   6   7   0.0138   0.0120   0.0071  -0.0113   0.0088  -0.0087   0.00    0.0    0.00653   -0.01102   -0.01532   0.00000  0.00000  0.00000  0.00000  0.00000  0.00000
2082   6930.000  -2267750.0952   5009154.5139   3221294.3858   6   7   0.0137   0.0119   0.0070  -0.0112   0.0087  -0.0087   0.00    0.0   -0.00363    0.00910    0.02712   0.00000  0.00000  0.00000  0.00000  0.00000  0.00000
2082   6960.000  -2267750.0954   5009154.5136   3221294.3858   6   8   0.0135   0.0119   0.0070  -0.0111   0.0087  -0.0086   0.00    0.0   -0.02061    0.01461    0.01397   0.00000  0.00000  0.00000  0.00000  0.00000  0.00000
2082   6990.000  -2267750.0954   5009154.5132   3221294.3858   6   8   0.0134   0.0118   0.0069  -0.0111   0.0086  -0.0085   0.00    0.0   -0.01460   -0.00737    0.00138   0.00000  0.00000  0.00000  0.00000  0.00000  0.00000
2082   7020.000  -2267750.0959   5009154.5132   3221294.3859   6   8   0.0133   0.0117   0.0069  -0.0110   0.0085  -0.0085   0.00    0.0    0.03089   -0.01294    0.02491   0.00000  0.00000  0.00000  0.00000  0.00000  0.00000
2082   7050.000  -2267750.0959   5009154.5129   3221294.3858   6   8   0.0132   0.0117   0.0069  -0.0109   0.0085  -0.0084   0.00    0.0    0.00754    0.00268    0.00291   0.00000  0.00000  0.00000  0.00000  0.00000  0.00000
2082   7080.000  -2267750.0962   5009154.5129   3221294.3860   6   8   0.0131   0.0116   0.0068  -0.0108   0.0084  -0.0083   0.00    0.0    0.01932   -0.04606   -0.01502   0.00000  0.00000  0.00000  0.00000  0.00000  0.00000
2082   7110.000  -2267750.0968   5009154.5129   3221294.3861   6   8   0.0130   0.0115   0.0068  -0.0107   0.0084  -0.0083   0.00    0.0    0.00357    0.00026   -0.01416   0.00000  0.00000  0.00000  0.00000  0.00000  0.00000
2082   7140.000  -2267750.0963   5009154.5123   3221294.3858   6   8   0.0129   0.0114   0.0067  -0.0106   0.0083  -0.0082   0.00    0.0   -0.03410    0.03998    0.01228   0.00000  0.00000  0.00000  0.00000  0.00000  0.00000
2082   7170.000  -2267750.0961   5009154.5118   3221294.3855   6   8   0.0128   0.0114   0.0067  -0.0105   0.0083  -0.0081   0.00    0.0   -0.03923    0.03985    0.00157   0.00000  0.00000  0.00000  0.00000  0.00000  0.00000
2082   7200.000  -2267750.0958   5009154.5112   3221294.3853   6   8   0.0126   0.0113   0.0066  -0.0104   0.0082  -0.0081   0.00    0.0    0.01256   -0.00824    0.01798   0.00000  0.00000  0.00000  0.00000  0.00000  0.00000
2082   7230.000  -2267750.0962   5009154.5112   3221294.3855   6   8   0.0125   0.0112   0.0066  -0.0104   0.0082  -0.0080   0.00    0.0   -0.02955    0.01753   -0.00492   0.00000  0.00000  0.00000  0.00000  0.00000  0.00000
2082   7260.000  -2267750.0962   5009154.5111   3221294.3854   6   8   0.0124   0.0111   0.0065  -0.0103   0.0081  -0.0079   0.00    0.0    0.00472    0.01811    0.00592   0.00000  0.00000  0.00000  0.00000  0.00000  0.00000
2082   7290.000  -2267750.0962   5009154.5107   3221294.3852   6   8   0.0123   0.0111   0.0065  -0.0102   0.0080  -0.0079   0.00    0.0    0.01651   -0.00455   -0.01733   0.00000  0.00000  0.00000  0.00000  0.00000  0.00000
2082   7320.000  -2267750.0962   5009154.5104   3221294.3851   6   8   0.0122   0.0110   0.0064  -0.0101   0.0080  -0.0078   0.00    0.0    0.00904   -0.02603   -0.02025   0.00000  0.00000  0.00000  0.00000  0.00000  0.00000
2082   7350.000  -2267750.0964   5009154.5103   3221294.3851   6   8   0.0121   0.0109   0.0064  -0.0100   0.0079  -0.0077   0.00    0.0    0.01560   -0.01592    0.00012   0.00000  0.00000  0.00000  0.00000  0.00000  0.00000
2082   7380.000  -2267750.0969   5009154.5101   3221294.3850   6   8   0.0120   0.0109   0.0064  -0.0099   0.0079  -0.0077   0.00    0.0   -0.00510    0.00111    0.01295   0.00000  0.00000  0.00000  0.00000  0.00000  0.00000
2082   7410.000  -2267750.0968   5009154.5097   3221294.3849   6   8   0.0119   0.0108   0.0063  -0.0099   0.0078  -0.0076   0.00    0.0   -0.01761    0.02740    0.00279   0.00000  0.00000  0.00000  0.00000  0.00000  0.00000
2082   7440.000  -2267750.0973   5009154.5095   3221294.3848   6   8   0.0118   0.0107   0.0063  -0.0098   0.0078  -0.0075   0.00    0.0   -0.00383    0.01812    0.02159   0.00000  0.00000  0.00000  0.00000  0.00000  0.00000
2082   7470.000  -2267750.0977   5009154.5092   3221294.3849   6   8   0.0117   0.0106   0.0062  -0.0097   0.0077  -0.0075   0.00    0.0    0.00640   -0.00304   -0.02476   0.00000  0.00000  0.00000  0.00000  0.00000  0.00000
2082   7500.000  -2267750.0983   5009154.5093   3221294.3850   6   8   0.0116   0.0106   0.0062  -0.0096   0.0076  -0.0074   0.00    0.0   -0.00137   -0.00014    0.00709   0.00000  0.00000  0.00000  0.00000  0.00000  0.00000
2082   7530.000  -2267750.0995   5009154.5095   3221294.3853   6   8   0.0115   0.0105   0.0061  -0.0095   0.0076  -0.0074   0.00    0.0    0.00062    0.01939   -0.00256   0.00000  0.00000  0.00000  0.00000  0.00000  0.00000
2082   7560.000  -2267750.0998   5009154.5093   3221294.3853   6   8   0.0114   0.0104   0.0061  -0.0094   0.0075  -0.0073   0.00    0.0    0.02400   -0.00916   -0.01388   0.00000  0.00000  0.00000  0.00000  0.00000  0.00000
2082   7590.000  -2267750.1006   5009154.5093   3221294.3854   6   8   0.0113   0.0103   0.0060  -0.0094   0.0075  -0.0072   0.00    0.0   -0.03497    0.04916    0.04690   0.00000  0.00000  0.00000  0.00000  0.00000  0.00000
2082   7620.000  -2267750.1008   5009154.5087   3221294.3852   6   8   0.0112   0.0103   0.0060  -0.0093   0.0074  -0.0072   0.00    0.0   -0.00156    0.01687    0.02289   0.00000  0.00000  0.00000  0.00000  0.00000  0.00000
2082   7650.000  -2267750.1013   5009154.5086   3221294.3853   6   8   0.0111   0.0102   0.0059  -0.0092   0.0074  -0.0071   0.00    0.0   -0.00568    0.02769   -0.00117   0.00000  0.00000  0.00000  0.00000  0.00000  0.00000
2082   7680.000  -2267750.1019   5009154.5084   3221294.3853   6   8   0.0110   0.0101   0.0059  -0.0091   0.0073  -0.0070   0.00    0.0    0.01429   -0.01744   -0.00806   0.00000  0.00000  0.00000  0.00000  0.00000  0.00000
2082   7710.000  -2267750.1021   5009154.5082   3221294.3853   6   8   0.0109   0.0101   0.0058  -0.0090   0.0073  -0.0070   0.00    0.0    0.00207   -0.00485   -0.00485   0.00000  0.00000  0.00000  0.00000  0.00000  0.00000
2082   7740.000  -2267750.1025   5009154.5078   3221294.3852   6   8   0.0109   0.0100   0.0058  -0.0090   0.0072  -0.0069   0.00    0.0    0.04925   -0.05617    0.00706   0.00000  0.00000  0.00000  0.00000  0.00000  0.00000
2082   7770.000  -2267750.1027   5009154.5072   3221294.3849   6   8   0.0108   0.0099   0.0058  -0.0089   0.0071  -0.0069   0.00    0.0    0.01677   -0.00690   -0.01280   0.00000  0.00000  0.00000  0.00000  0.00000  0.00000
2082   7800.000  -2267750.1027   5009154.5066   3221294.3844   6   8   0.0107   0.0099   0.0057  -0.0088   0.0071  -0.0068   0.00    0.0   -0.00647    0.00886    0.00186   0.00000  0.00000  0.00000  0.00000  0.00000  0.00000
2082   7830.000  -2267750.1030   5009154.5063   3221294.3843   6   8   0.0106   0.0098   0.0057  -0.0087   0.0070  -0.0067   0.00    0.0    0.00473   -0.03088   -0.01118   0.00000  0.00000  0.00000  0.00000  0.00000  0.00000
2082   7860.000  -2267750.1032   5009154.5060   3221294.3842   6   8   0.0105   0.0097   0.0056  -0.0087   0.0070  -0.0067   0.00    0.0    0.03626   -0.05248   -0.01136   0.00000  0.00000  0.00000  0.00000  0.00000  0.00000
2082   7890.000  -2267750.1036   5009154.5058   3221294.3841   6   8   0.0104   0.0097   0.0056  -0.0086   0.0069  -0.0066   0.00    0.0    0.01479   -0.01679   -0.00015   0.00000  0.00000  0.00000  0.00000  0.00000  0.00000
